{"direction":"inbound","lineId":"105","lineName":"105","mode":"bus","stopPointSequences":[{"stopPoint":[{"icsId":"1008016","id":"4900801619","lat":51.47137,"lon":-0.45346,"name":"Heathrow Central Bus Station","parentId":"910GHTRWCBS","stationId":"910GHTRWCBS","stopLetter":"19","topMostParentId":"HUBH13"},{"icsId":"1010245","id":"490010245N","lat":51.48033,"lon":-0.45958,"name":"Newport Road","parentId":"490G00010245","stationId":"490G00010245","stopLetter":"BS","topMostParentId":"490G00010245","towards":"Cranford, Hayes Or West Drayton"},{"icsId":"1012177","id":"490012177E","lat":51.4814,"lon":-0.45502,"name":"Sipson Way / Blunts Avenue","parentId":"490G00012177","stationId":"490G00012177","stopLetter":"BC","topMostParentId":"490G00012177","towards":"Cranford, Hayes Or Hatton Cross"},{"icsId":"1012176","id":"490012176E","lat":51.48132,"lon":-0.44824,"name":"Nene Road","parentId":"490G00012176","stationId":"490G00012176","stopLetter":"BJ","topMostParentId":"490G00012176","towards":"Cranford, Hayes Or Hatton Cross"},{"icsId":"1004139","id":"490004139E","lat":51.48117,"lon":-0.44484,"name":"Bolton's Lane","parentId":"490G00004139","stationId":"490G00004139","stopLetter":"BK","topMostParentId":"490G00004139","towards":"Cranford, Hayes Or Hatton Cross"},{"icsId":"1010251","id":"490010251G","lat":51.48097,"lon":-0.43919,"name":"New Road","parentId":"490G00010251","stationId":"490G00010251","stopLetter":"D","topMostParentId":"490G00010251","towards":"Cranford, Hayes Or Hatton Cross"},{"icsId":"1007811","id":"490007811C","lat":51.48074,"lon":-0.43309,"name":"Harlington Corner","parentId":"490G00007811","stationId":"490G00007811","stopLetter":"E","topMostParentId":"490G00007811","towards":"Hounslow Or Southall"},{"icsId":"1015397","id":"490015397E","lat":51.4808,"lon":-0.42652,"name":"Nobel Drive","parentId":"490G00015397","stationId":"490G00015397","stopLetter":"F","topMostParentId":"490G00015397","towards":"Hounslow Or Southall"},{"icsId":"1010677","id":"490010677W2","lat":51.48106,"lon":-0.42263,"name":"Oxford Avenue","parentId":"490G00010677","stationId":"490G00010677","stopLetter":"CA","topMostParentId":"490G00010677","towards":"Hounslow Or Southall"},{"icsId":"1013596","id":"490013596E","lat":51.48131,"lon":-0.41974,"name":"Craneswater","parentId":"490G00013596","stationId":"490G00013596","stopLetter":"CB","topMostParentId":"490G00013596","towards":"Hounslow Or Southall"},{"icsId":"1005704","id":"490005704E","lat":51.48008,"lon":-0.41203,"name":"Waye Avenue","parentId":"490G00005704","stationId":"490G00005704","stopLetter":"CC","topMostParentId":"490G00005704","towards":"Hounslow Or Southall"},{"icsId":"1013235","id":"490013235N","lat":51.48058,"lon":-0.41055,"name":"The Avenue","parentId":"490G00013235","stationId":"490G00013235","stopLetter":"CJ","topMostParentId":"490G00013235","towards":"Heston Or Southall"},{"icsId":"1013494","id":"490013494N","lat":51.48325,"lon":-0.40919,"name":"The Parkway","parentId":"490G00013494","stationId":"490G00013494","stopLetter":"CK","topMostParentId":"490G00013494","towards":"Heston Or Southall"},{"icsId":"1005703","id":"490005703N","lat":51.48717,"lon":-0.40527,"name":"Cranford Community School","parentId":"490G00005703","stationId":"490G00005703","stopLetter":"X","topMostParentId":"490G00005703","towards":"Bulls Bridge Tesco Or Southall"},{"icsId":"1008113","id":"490008113N","lat":51.49332,"lon":-0.40232,"name":"Heston Centre","parentId":"490G00008113","stationId":"490G00008113","stopLetter":"Y","topMostParentId":"490G00008113","towards":"Bulls Bridge Tesco Or Southall"},{"icsId":"1007802","id":"490007802N","lat":51.49706,"lon":-0.40108,"name":"Navigator Park","parentId":"490G00007802","stationId":"490G00007802","stopLetter":"BU","topMostParentId":"490G00007802","towards":"Bulls Bridge Tesco Or Southall"},{"icsId":"1014393","id":"490012242E","lat":51.49737,"lon":-0.39976,"name":"Wentworth Road","parentId":"490G00014393","stationId":"490G00014393","stopLetter":"BB","topMostParentId":"490G00014393","towards":"Southall"},{"icsId":"1012133","id":"490012133E","lat":51.49789,"lon":-0.39508,"name":"Brent Road","parentId":"490G00012133","stationId":"490G00012133","stopLetter":"BC","topMostParentId":"490G00012133","towards":"Ealing Hospital Or Greenford"},{"icsId":"1006056","id":"490006056E","lat":51.49914,"lon":-0.39136,"name":"Derley Road","parentId":"490G00006056","stationId":"490G00006056","stopLetter":"BD","topMostParentId":"490G00006056","towards":"Ealing Hospital Or Greenford"},{"icsId":"1013052","id":"490013052E","lat":51.50046,"lon":-0.38797,"name":"Sussex Road","parentId":"490G00013052","stationId":"490G00013052","stopLetter":"->E","topMostParentId":"490G00013052","towards":"Ealing Hospital Or Greenford"},{"icsId":"1014162","id":"490014162E","lat":51.50078,"lon":-0.38485,"name":"Waltham Road","parentId":"490G00014162","stationId":"490G00014162","stopLetter":"H","topMostParentId":"490G00014162","towards":"Ealing Hospital, Greenford Or Havelock Estate"},{"icsId":"1008833","id":"490008833E","lat":51.50138,"lon":-0.38263,"name":"King Street","parentId":"490G00008833","stationId":"490G00008833","stopLetter":"E","topMostParentId":"490G00008833","towards":"Ealing Hospital, Greenford Or Northolt"},{"icsId":"1013388","id":"490013388L","lat":51.5029,"lon":-0.38101,"name":"The Green","parentId":"490G00013388","stationId":"490G00013388","stopLetter":"L","topMostParentId":"490G00013388","towards":"Ealing Hospital, Greenford Or Northolt"},{"icsId":"1010754","id":"490010754P","lat":51.50757,"lon":-0.37832,"name":"Park Avenue","parentId":"490G00010754","stationId":"490G00010754","stopLetter":"P","topMostParentId":"490G00010754","towards":"Ealing Hospital, Greenford Or Yeading"},{"icsId":"1012241","id":"490012241N","lat":51.51037,"lon":-0.37612,"name":"Southall Broadway","parentId":"490G00012241","stationId":"490G00012241","stopLetter":"N","topMostParentId":"490G00012241","towards":"Ealing Hospital Or Greenford"},{"icsId":"1014102","id":"490014102E","lat":51.51198,"lon":-0.37563,"name":"Southall Town Hall","parentId":"490G00014102","stationId":"490G00014102","stopLetter":"E","topMostParentId":"490G00014102","towards":"Greenford Or Northolt"},{"icsId":"1010317","id":"490010317C","lat":51.51444,"lon":-0.3756,"name":"North Avenue","parentId":"490G00010317","stationId":"490G00010317","stopLetter":"C","topMostParentId":"490G00010317","towards":"Greenford Or Northolt"},{"icsId":"1001971","id":"490004807A","lat":51.51582,"lon":-0.37294,"name":"North Road","parentId":"490G00001971","stationId":"490G00001971","stopLetter":"A","topMostParentId":"490G00001971","towards":"Greenford"},{"icsId":"1008790","id":"490008790Z","lat":51.51511,"lon":-0.36905,"name":"Kingsley Avenue","parentId":"490G00008790","stationId":"490G00008790","stopLetter":"Z","topMostParentId":"490G00008790","towards":"Greenford"},{"icsId":"1009712","id":"490009712X","lat":51.51527,"lon":-0.3647,"name":"Masefield Avenue","parentId":"490G00009712","stationId":"490G00009712","stopLetter":"X","topMostParentId":"490G00009712","towards":"Greenford"},{"icsId":"1006132","id":"490006132W","lat":51.51636,"lon":-0.36611,"name":"Telford Road","parentId":"490G00006132","stationId":"490G00006132","stopLetter":"P","topMostParentId":"490G00006132","towards":"Greenford"},{"icsId":"1006131","id":"490006131N","lat":51.51841,"lon":-0.36866,"name":"Dormers Avenue","parentId":"490G00006131","stationId":"490G00006131","stopLetter":"R","topMostParentId":"490G00006131","towards":"Greenford"},{"icsId":"1005613","id":"490005613N","lat":51.51957,"lon":-0.3685,"name":"Allenby Road","parentId":"490G00005613","stationId":"490G00005613","stopLetter":"S","topMostParentId":"490G00005613","towards":"Greenford"},{"icsId":"1011824","id":"490011824E","lat":51.52283,"lon":-0.36964,"name":"Rutland Road","parentId":"490G00011824","stationId":"490G00011824","stopLetter":"H","topMostParentId":"490G00011824","towards":"Greenford"},{"icsId":"1003435","id":"490003435E","lat":51.52458,"lon":-0.36474,"name":"Ash Grove","parentId":"490G00003435","stationId":"490G00003435","stopLetter":"J","topMostParentId":"490G00003435","towards":"Greenford"},{"icsId":"1013018","id":"490013018N","lat":51.52576,"lon":-0.36511,"name":"Sunnycroft Road","parentId":"490G00013018","stationId":"490G00013018","stopLetter":"K","topMostParentId":"490G00013018","towards":"Greenford"},{"icsId":"1003518","id":"490003518N","lat":51.52902,"lon":-0.36751,"name":"Avon Road","parentId":"490G00003518","stationId":"490G00003518","stopLetter":"EU","topMostParentId":"490G00003518","towards":"Greenford"},{"icsId":"1011786","id":"490011786N","lat":51.53163,"lon":-0.3664,"name":"Ruislip Road","parentId":"490G00011786","stationId":"490G00011786","stopLetter":"EV","topMostParentId":"490G00011786","towards":"Greenford"},{"icsId":"1006369","id":"490006369E","lat":51.52994,"lon":-0.36362,"name":"Eastmead Avenue","parentId":"490G00006369","stationId":"490G00006369","stopLetter":"EH","topMostParentId":"490G00006369","towards":"Ealing, Ealing Hospital Or Greenford Roundabout"},{"icsId":"1010897","id":"490010897E1","lat":51.52868,"lon":-0.35928,"name":"Pembroke Road","parentId":"490G00010897","stationId":"490G00010897","stopLetter":"H","topMostParentId":"490G00010897","towards":"Ealing, Ealing Hospital Or Greenford Roundabout"},{"icsId":"1007446","id":"490007446C","lat":51.52803,"lon":-0.35407,"name":"Greenford Broadway","parentId":"490G00007446","stationId":"490G00007446","stopLetter":"J","topMostParentId":"490G00007446","towards":"Ealing, Ealing Hospital Or Greenford Roundabout"},{"icsId":"1007442","id":"490007441F","lat":51.52833,"lon":-0.35202,"name":"Ruislip Road East","parentId":"490G00007442","stationId":"490G00007442","stopLetter":"W","topMostParentId":"490G00007442","towards":"Greenford Station Or Hanger Lane"},{"icsId":"1005626","id":"490005626N","lat":51.53137,"lon":-0.35007,"name":"Costons Lane","parentId":"490G00005626","stationId":"490G00005626","stopLetter":"X","topMostParentId":"490G00005626","towards":"Greenford Station Or Hanger Lane"},{"icsId":"1005687","id":"490005687N","lat":51.53516,"lon":-0.34722,"name":"Cowgate Road","parentId":"490G00005687","stationId":"490G00005687","stopLetter":"EE","topMostParentId":"490G00005687","towards":"Greenford Station Or Hanger Lane"},{"icsId":"1008485","id":"490008485N","lat":51.53778,"lon":-0.34541,"name":"Ingram Way / Bridge Hotel","parentId":"490G00008485","stationId":"490G00008485","stopLetter":"GG","topMostParentId":"490G00008485","towards":"Sudbury"},{"icsId":"1013906","id":"490013906N","lat":51.53993,"lon":-0.34431,"name":"Uneeda Drive","parentId":"490G00013906","stationId":"490G00013906","stopLetter":"HH","topMostParentId":"490G00013906","towards":"Sudbury"},{"icsId":"1000092","id":"490000092W1","lat":51.54268,"lon":-0.34484,"name":"Greenford Station","stopLetter":"Z1","topMostParentId":"490000092W1","zone":"4"}]}]}