{"direction":"inbound","lineId":"106","lineName":"106","mode":"bus","stopPointSequences":[{"stopPoint":[{"icsId":"1016619","id":"490016619N","lat":51.51854,"lon":-0.05756,"name":"Cavell Street","parentId":"490G00016619","stationId":"490G00016619","stopLetter":"W","topMostParentId":"490G00016619","towards":"Hackney"},{"icsId":"1005965","id":"490007978N","lat":51.52163,"lon":-0.05589,"name":"Darling Row","parentId":"490G00005965","stationId":"490G00005965","stopLetter":"M","topMostParentId":"490G00005965","towards":"Hackney"},{"icsId":"1004945","id":"490004945N","lat":51.52312,"lon":-0.05526,"name":"Cephas Street","parentId":"490G00004945","stationId":"490G00004945","stopLetter":"N","topMostParentId":"490G00004945","towards":"Hackney"},{"icsId":"1013648","id":"490013648S","lat":51.52527,"lon":-0.05507,"name":"Three Colts Lane","parentId":"490G00013648","stationId":"490G00013648","stopLetter":"S","topMostParentId":"490G00013648","towards":"Hackney"},{"icsId":"1000022","id":"490000022C","lat":51.52688,"lon":-0.05564,"name":"Bethnal Green Station","stopLetter":"C","topMostParentId":"490000022C","towards":"Hackney","zone":"2"},{"icsId":"1010555","id":"490010555G","lat":51.52901,"lon":-0.05586,"name":"Old Ford Road","parentId":"490G00010555","stationId":"490G00010555","stopLetter":"G","topMostParentId":"490G00010555","towards":"Hackney"},{"icsId":"1001044","id":"490001044M","lat":51.53209,"lon":-0.05709,"name":"Cambridge Heath Station","stopLetter":"M","topMostParentId":"490001044M","towards":"Hackney"},{"icsId":"1003314","id":"490003314R","lat":51.53507,"lon":-0.05733,"name":"Mare Street / Victoria Park Road","parentId":"490G00003314","stationId":"490G00003314","stopLetter":"R","topMostParentId":"490G00003314","towards":"Hackney Central Or Hackney Wick"},{"icsId":"1008739","id":"490012442N","lat":51.53849,"lon":-0.05722,"name":"King Edward's Road","parentId":"490G00008739","stationId":"490G00008739","stopLetter":"LP","topMostParentId":"490G00008739","towards":"Hackney Central, Hackney Wick Or Homerton"},{"icsId":"1014373","id":"490014373LC","lat":51.54057,"lon":-0.05553,"name":"Mare Street / Well Street","parentId":"490G00014373","stationId":"490G00014373","stopLetter":"LC","topMostParentId":"490G00014373","towards":"Clapton Pond, Dalston Or Homerton"},{"icsId":"1012462","id":"490012462N","lat":51.54171,"lon":-0.05531,"name":"St Thomas's Square","parentId":"490G000758","stationId":"490G000758","stopLetter":"LQ","topMostParentId":"490G000758","towards":"Hackney Wick, Dalston Or Clapton Pond"},{"icsId":"1007626","id":"490007626A","lat":51.54506,"lon":-0.05545,"name":"Hackney Town Hall","parentId":"490G000560","stationId":"490G000560","stopLetter":"A","topMostParentId":"490G000560"},{"icsId":"1001127","id":"490001127J","lat":51.54788,"lon":-0.05679,"name":"Hackney Central Station","stopLetter":"J","topMostParentId":"490001127J","towards":"Clapton Pond"},{"icsId":"1019876","id":"490001128L","lat":51.54865,"lon":-0.05841,"name":"Amhurst Road / Hackney Downs Station","parentId":"490G000961","stationId":"490G000961","stopLetter":"L","topMostParentId":"490G000961","towards":"Clapton Pond, Dalston Or Homerton"},{"icsId":"1010151","id":"490010151R","lat":51.54957,"lon":-0.05543,"name":"Mare Street / Narrow Way","parentId":"490G00010151","stationId":"490G00010151","stopLetter":"R","topMostParentId":"490G00010151","towards":"Clapton Pond"},{"icsId":"1007619","id":"490007619U","lat":51.55096,"lon":-0.0525,"name":"Hackney Baths","parentId":"490G00007619","stationId":"490G00007619","stopLetter":"U","topMostParentId":"490G00007619","towards":"Clapton Or Bakers Arms"},{"icsId":"1007220","id":"490007220Z","lat":51.5518,"lon":-0.05218,"name":"Glenarm Road","parentId":"490G00007220","stationId":"490G00007220","stopLetter":"Z","topMostParentId":"490G00007220","towards":"Clapton Or Bakers Arms"},{"icsId":"1009195","id":"490009195N","lat":51.55349,"lon":-0.05346,"name":"Clapton Girls' Academy","parentId":"490G00009195","stationId":"490G00009195","stopLetter":"L","topMostParentId":"490G00009195","towards":"Stamford Hill, Stoke Newington Or Leyton"},{"icsId":"1005340","id":"490005340H","lat":51.55556,"lon":-0.05505,"name":"Clapton Pond","parentId":"490G00005340","stationId":"490G00005340","stopLetter":"H","topMostParentId":"490G00005340","towards":"Stamford Hill, Stoke Newington Or Leyton"},{"icsId":"1009035","id":"490009035M","lat":51.55755,"lon":-0.05603,"name":"Lea Bridge Roundabout","parentId":"490G00009035","stationId":"490G00009035","stopLetter":"M","topMostParentId":"490G00009035","towards":"Stoke Newington, Shacklewell Or Stamford Hill"},{"icsId":"1004451","id":"490004451O","lat":51.55977,"lon":-0.05658,"name":"Upper Clapton Road / Brooke Road","parentId":"490G00004451","stationId":"490G00004451","stopLetter":"O","topMostParentId":"490G00004451","towards":"Stamford Hill Or Stoke Newington"},{"icsId":"1001070","id":"490001070N","lat":51.56179,"lon":-0.05747,"name":"Clapton Station","stopLetter":"P","topMostParentId":"490001070N","towards":"Stamford Hill Or Stoke Newington"},{"icsId":"1011519","id":"490011519W","lat":51.56261,"lon":-0.05939,"name":"Clapton Library","parentId":"490G000723","stationId":"490G000723","stopLetter":"UK","topMostParentId":"490G000723","towards":"Stoke Newington"},{"icsId":"1007156","id":"490007156W","lat":51.56275,"lon":-0.06317,"name":"Geldeston Road","parentId":"490G00007156","stationId":"490G00007156","stopLetter":"UL","topMostParentId":"490G00007156","towards":"Finsbury Park"},{"icsId":"1012837","id":"490012837J","lat":51.56206,"lon":-0.06855,"name":"Stoke Newington Common","parentId":"490G00012837","stationId":"490G00012837","stopLetter":"J","topMostParentId":"490G00012837","towards":"Finsbury Park Or Highbury Corner"},{"icsId":"1019142","id":"490004452T","lat":51.56053,"lon":-0.07274,"name":"Stoke Newington High St / Brooke Road","parentId":"490G00019142","stationId":"490G00019142","stopLetter":"T","topMostParentId":"490G00019142","towards":"Finsbury Park"},{"icsId":"1019889","id":"490005312X","lat":51.5627,"lon":-0.07356,"name":"Stoke Newington Church Street","parentId":"490G00019889","stationId":"490G00019889","stopLetter":"X","topMostParentId":"490G00019889","towards":"Seven Sisters Station, Turnpike Lane Or Finsbury P"},{"icsId":"1001273","id":"490001273E","lat":51.56461,"lon":-0.07343,"name":"Stoke Newington Station","stopLetter":"E","topMostParentId":"490001273E","towards":"Seven Sisters Station, Turnpike Lane Or Finsbury P"},{"icsId":"1009209","id":"490009208A","lat":51.5657,"lon":-0.0749,"name":"Listria Park","parentId":"490G00009209","stationId":"490G00009209","stopLetter":"A","topMostParentId":"490G00009209","towards":"Finsbury Park"},{"icsId":"1012572","id":"490012572W","lat":51.56688,"lon":-0.08058,"name":"Heathland Road","parentId":"490G00012572","stationId":"490G00012572","stopLetter":"->W","topMostParentId":"490G00012572","towards":"Finsbury Park"},{"icsId":"1009365","id":"490009365W","lat":51.56602,"lon":-0.08388,"name":"Lordship Road","parentId":"490G00009365","stationId":"490G00009365","stopLetter":"->W","topMostParentId":"490G00009365","towards":"Finsbury Park"},{"icsId":"1011312","id":"490011312W","lat":51.56497,"lon":-0.088,"name":"Queen Elizabeth's Walk","parentId":"490G00011312","stationId":"490G00011312","stopLetter":"PH","topMostParentId":"490G00011312","towards":"Finsbury Park"},{"icsId":"1003100","id":"490003100W","lat":51.56367,"lon":-0.09299,"name":"Brownswood Road / Green Lanes","parentId":"490G00003100","stationId":"490G00003100","stopLetter":"PC","topMostParentId":"490G00003100","towards":"Finsbury Park"},{"icsId":"1011332","id":"490011332W","lat":51.56275,"lon":-0.09579,"name":"Queen's Drive","parentId":"490G00011332","stationId":"490G00011332","stopLetter":"PB","topMostParentId":"490G00011332","towards":"Finsbury Park"},{"icsId":"1009986","id":"490009986V","lat":51.56177,"lon":-0.1,"name":"Monsell Road","parentId":"490G00009986","stationId":"490G00009986","stopLetter":"EL","topMostParentId":"490G00009986","towards":"Finsbury Park"},{"icsId":"1011623","id":"490011623P","lat":51.56389,"lon":-0.10459,"name":"Rock Street","parentId":"490G00011623","stationId":"490G00011623","stopLetter":"P","topMostParentId":"490G00011623","towards":"Holloway Nags Head"},{"icsId":"1006849","id":"490000083AP","lat":51.56425,"lon":-0.10571,"name":"Finsbury Park Interchange","parentId":"490G000516","stationId":"490G000516","stopLetter":"AP","topMostParentId":"HUBFPK"}]}]}