{"direction":"inbound","lineId":"11","lineName":"11","mode":"bus","stopPointSequences":[{"stopPoint":[{"icsId":"1003722","id":"490000254A","lat":51.50381,"lon":-0.11351,"name":"Waterloo Station   / Upper Taxi Road","parentId":"490G000404","stationId":"490G000404","stopLetter":"A","topMostParentId":"HUBWAT","towards":"Victoria Via Westminster Bridge"},{"icsId":"1001551","id":"490000254W","lat":51.50353,"lon":-0.11526,"name":"Waterloo Station   / York Road","parentId":"490G000275","stationId":"490G000275","stopLetter":"W","topMostParentId":"HUBWAT","towards":"Vauxhall Or Victoria"},{"icsId":"1005646","id":"490005646G","lat":51.50205,"lon":-0.11658,"name":"County Hall","parentId":"490G00005646","stationId":"490G00005646","stopLetter":"G","topMostParentId":"490G00005646","towards":"Vauxhall Or Victoria"},{"icsId":"1018956","id":"490005646D","lat":51.50072,"lon":-0.11937,"name":"St Thomas' Hospital / County Hall","parentId":"490G00018956","stationId":"490G00018956","stopLetter":"D","topMostParentId":"490G00018956","towards":"Trafalgar Square Or Victoria"},{"icsId":"1000373","id":"490015048W","lat":51.50016,"lon":-0.1269,"name":"Parliament Square / Westminster Abbey","stopLetter":"P","topMostParentId":"490015048W","towards":"Hyde Park Corner Or Sloane Square"},{"icsId":"1019865","id":"490014495V","lat":51.49869,"lon":-0.13144,"name":"Great Smith Street / Westminster Abbey","parentId":"490G00019865","stationId":"490G00019865","stopLetter":"V","topMostParentId":"490G00019865","towards":"Victoria"},{"icsId":"1000221","id":"490010260SD","lat":51.49758,"lon":-0.1348,"name":"St James's Park Station","stopLetter":"SD","topMostParentId":"490010260SD","towards":"Pimlico, Sloane Square Or Marble Arch","zone":"1"},{"icsId":"1003384","id":"490003384SB","lat":51.49715,"lon":-0.13745,"name":"Westminster City Hall","parentId":"490G000394","stationId":"490G000394","stopLetter":"SB","topMostParentId":"490G000394","towards":"Marble Arch, Pimlico Or Sloane Square"},{"icsId":"1014502","id":"490014496M","lat":51.4966,"lon":-0.1411,"name":"Westminster Cathedral / Victoria Stn","parentId":"490G000830","stationId":"490G000830","stopLetter":"M","topMostParentId":"490G000830","towards":"Marble Arch, Pimlico Or Sloane Square"},{"icsId":"1000248","id":"490014050R","lat":51.49577,"lon":-0.14539,"name":"Victoria Station","stopLetter":"R","topMostParentId":"490014050R","towards":"Sloane Square","zone":"1"},{"icsId":"1014051","id":"490014051V","lat":51.49209,"lon":-0.14804,"name":"Victoria Coach Station","parentId":"490G000813","stationId":"490G000813","stopLetter":"V","topMostParentId":"490G000813","towards":"Chelsea Bridge, Sloane Square Or Pimlico"},{"icsId":"1020327","id":"490006399W","lat":51.49074,"lon":-0.15163,"name":"Pimlico Road / Ebury Bridge Road","parentId":"490G00020327","stationId":"490G00020327","stopLetter":"Q","topMostParentId":"490G00020327","towards":"Battersea Or Chelsea"},{"icsId":"1011764","id":"490011763N","lat":51.48995,"lon":-0.15647,"name":"Royal Hospital Road","parentId":"490G00011764","stationId":"490G00011764","stopLetter":"L","topMostParentId":"490G00011764","towards":"South Kensington, Fulham Or Knightsbridge"},{"icsId":"1000206","id":"490000206K","lat":51.49145,"lon":-0.15749,"name":"Sloane Square Station","stopLetter":"K","topMostParentId":"490000206K","towards":"South Kensington, Fulham Or Knightsbridge","zone":"1"},{"icsId":"1006224","id":"490006224G","lat":51.49114,"lon":-0.1605,"name":"Duke of York Square","parentId":"490G00006224","stationId":"490G00006224","stopLetter":"G","topMostParentId":"490G00006224","towards":"Battersea, Putney Or Fulham"},{"icsId":"1014150","id":"490014150KA","lat":51.4902,"lon":-0.16227,"name":"Walpole Street","parentId":"490G00014150","stationId":"490G00014150","stopLetter":"KA","topMostParentId":"490G00014150","towards":"Battersea, Putney Or Fulham Broadway"},{"icsId":"1009666","id":"490009666KB","lat":51.489,"lon":-0.16476,"name":"Markham Street","parentId":"490G00009666","stationId":"490G00009666","stopLetter":"KB","topMostParentId":"490G00009666","towards":"Battersea, Putney Or Fulham Broadway"},{"icsId":"1005073","id":"490005073KC","lat":51.48831,"lon":-0.16663,"name":"Chelsea Old Town Hall","parentId":"490G00005073","stationId":"490G00005073","stopLetter":"KC","topMostParentId":"490G00005073","towards":"Battersea, Putney Or Fulham Broadway"},{"icsId":"1004809","id":"490004809KD","lat":51.48643,"lon":-0.17132,"name":"Carlyle Square","parentId":"490G00004809","stationId":"490G00004809","stopLetter":"KD","topMostParentId":"490G00004809","towards":"Battersea, Putney Or Fulham Broadway"},{"icsId":"1003682","id":"490015145W","lat":51.48473,"lon":-0.1751,"name":"Beaufort Street","parentId":"490G00003682","stationId":"490G00003682","stopLetter":"QN","topMostParentId":"490G00003682","towards":"Fulham Broadway Or Putney Bridge"},{"icsId":"1005076","id":"490005076W","lat":51.48226,"lon":-0.17923,"name":"Edith Grove / Worlds End","parentId":"490G00005076","stationId":"490G00005076","stopLetter":"QR","topMostParentId":"490G00005076","towards":"Earls Court, Fulham Or Putney"},{"icsId":"1009370","id":"490009370W","lat":51.48057,"lon":-0.18483,"name":"Worlds End Health Centre","parentId":"490G00009370","stationId":"490G00009370","stopLetter":"GH","topMostParentId":"490G00009370","towards":"Putney, Sands End Or Fulham Broadway"},{"icsId":"1011788","id":"490011788W","lat":51.47853,"lon":-0.18864,"name":"Rumbold Road","parentId":"490G00011788","stationId":"490G00011788","stopLetter":"GJ","topMostParentId":"490G00011788","towards":"Fulham Broadway Or Putney"},{"icsId":"1013888","id":"490013888N","lat":51.47747,"lon":-0.19231,"name":"Tyrawley Road","parentId":"490G00013888","stationId":"490G00013888","stopLetter":"GK","topMostParentId":"490G00013888","towards":"Hammersmith, Fulham Or Olympia"},{"icsId":"1007057","id":"490007057T","lat":51.47897,"lon":-0.19477,"name":"Fulham Town Hall","parentId":"490G000526","stationId":"490G000526","stopLetter":"T","topMostParentId":"490G000526"}]}]}