{"direction":"inbound","lineId":"111","lineName":"111","mode":"bus","stopPointSequences":[{"stopPoint":[{"icsId":"1005800","id":"490005800A7","lat":51.41242,"lon":-0.29922,"name":"Cromwell Road Bus Station","parentId":"490G000476","stationId":"490G000476","stopLetter":"A7","topMostParentId":"490G000476","towards":"West Molesey"},{"icsId":"1001173","id":"490001173Q","lat":51.41257,"lon":-0.30316,"name":"Kingston Station","stopLetter":"Q","topMostParentId":"490001173Q","towards":"Teddington"},{"icsId":"1003909","id":"490003909P2","lat":51.41115,"lon":-0.3056,"name":"Wood Street","parentId":"490G00003909","stationId":"490G00003909","stopLetter":"P2","topMostParentId":"490G00003909","towards":"Hampton Court"},{"icsId":"1007741","id":"490007741D","lat":51.41065,"lon":-0.31302,"name":"Church Grove /  the King's Field","parentId":"490G00007741","stationId":"490G00007741","stopLetter":"J","topMostParentId":"490G00007741","towards":"Hampton Court"},{"icsId":"1010777","id":"490010777W","lat":51.40652,"lon":-0.33169,"name":"Park House","parentId":"490G00010777","stationId":"490G00010777","stopLetter":"->W","topMostParentId":"490G00010777","towards":"East & West Molesey, Hampton Or Walton"},{"icsId":"1007727","id":"490007727B","lat":51.40663,"lon":-0.33826,"name":"Chestnut Avenue","parentId":"490G00007727","stationId":"490G00007727","stopLetter":"B","topMostParentId":"490G00007727","towards":"East & West Molesey, Hampton Or Walton"},{"icsId":"1007713","id":"490007713E","lat":51.40577,"lon":-0.34299,"name":"Hampton Court Green","parentId":"490G00007713","stationId":"490G00007713","stopLetter":"E","topMostParentId":"490G00007713","towards":"Hampton Hill Or Hampton Station"},{"icsId":"1007734","id":"490007734W","lat":51.40709,"lon":-0.34533,"name":"Hampton Lodge","parentId":"490G00007734","stationId":"490G00007734","stopLetter":"->W","topMostParentId":"490G00007734","towards":"Hampton Hill Or Hampton Station"},{"icsId":"1013570","id":"490013570W","lat":51.40959,"lon":-0.35076,"name":"St Alban's Riverside","parentId":"490G00013570","stationId":"490G00013570","stopLetter":"->W","topMostParentId":"490G00013570","towards":"Hampton Hill Or Hampton Station"},{"icsId":"1007125","id":"490007125W","lat":51.41184,"lon":-0.35702,"name":"Garrick Villa","parentId":"490G00007125","stationId":"490G00007125","stopLetter":"S","topMostParentId":"490G00007125","towards":"Hampton Hill, Sunbury Or Nurserylands"},{"icsId":"1007724","id":"490007724W","lat":51.41283,"lon":-0.36215,"name":"Hampton / Thames Street","parentId":"490G00007724","stationId":"490G00007724","stopLetter":"H","topMostParentId":"490G00007724","towards":"Hampton Or Sunbury"},{"icsId":"1007735","id":"490007735W","lat":51.41469,"lon":-0.36584,"name":"Hampton & Richmond Borough F C","parentId":"490G00007735","stationId":"490G00007735","stopLetter":"J","topMostParentId":"490G00007735","towards":"Hanworth Or Sunbury"},{"icsId":"1001132","id":"490001132B","lat":51.41567,"lon":-0.372,"name":"Hampton Station","stopLetter":"K","topMostParentId":"490001132B","towards":"Hanworth Or Sunbury"},{"icsId":"1011238","id":"490011238N","lat":51.41869,"lon":-0.37403,"name":"Priory Road","parentId":"490G00011238","stationId":"490G00011238","stopLetter":"L","topMostParentId":"490G00011238","towards":"Hounslow"},{"icsId":"1008299","id":"490008299N","lat":51.42137,"lon":-0.37522,"name":"Holly Bush Lane","parentId":"490G00008299","stationId":"490G00008299","topMostParentId":"490G00008299","towards":"Hounslow"},{"icsId":"1005665","id":"490005665N","lat":51.42289,"lon":-0.37614,"name":"Courtlands Avenue","parentId":"490G00005665","stationId":"490G00005665","stopLetter":"->N","topMostParentId":"490G00005665","towards":"Hounslow Or Nurserylands"},{"icsId":"1010460","id":"490010460N","lat":51.42541,"lon":-0.37682,"name":"Nurserylands Shopping Centre","parentId":"490G00010460","stationId":"490G00010460","stopLetter":"->N","topMostParentId":"490G00010460","towards":"Hounslow Or Nurserylands"},{"icsId":"1003064","id":"490003064E1","lat":51.42592,"lon":-0.37204,"name":"Acacia Road","parentId":"490G00003064","stationId":"490G00003064","stopLetter":"RQ","topMostParentId":"490G00003064","towards":"Hounslow Or Nurserylands"},{"icsId":"1011472","id":"490011472W","lat":51.42828,"lon":-0.37394,"name":"Hampton School","parentId":"490G00011472","stationId":"490G00011472","stopLetter":"->W","topMostParentId":"490G00011472","towards":"Hounslow Or Nurserylands"},{"icsId":"1007113","id":"490007113W","lat":51.42952,"lon":-0.37634,"name":"Garden Close","parentId":"490G00007113","stationId":"490G00007113","stopLetter":"->W","topMostParentId":"490G00007113","towards":"Hounslow Or Nurserylands"},{"icsId":"1007115","id":"490007115N","lat":51.43117,"lon":-0.37855,"name":"Garden Court","parentId":"490G00007115","stationId":"490G00007115","stopLetter":"->N","topMostParentId":"490G00007115","towards":"Hounslow Or Nurserylands"},{"icsId":"1013228","id":"490013228N","lat":51.43294,"lon":-0.38386,"name":"Hampton Lane","parentId":"490G00013228","stationId":"490G00013228","stopLetter":"X","topMostParentId":"490G00013228","towards":"Hounslow Or Twickenham"},{"icsId":"1013103","id":"490013103W","lat":51.43304,"lon":-0.38644,"name":"Swan Close","parentId":"490G00013103","stationId":"490G00013103","stopLetter":"->W","topMostParentId":"490G00013103","towards":"Hounslow Or Twickenham"},{"icsId":"1003717","id":"490003717W","lat":51.43105,"lon":-0.38866,"name":"New Close","parentId":"490G00003717","stationId":"490G00003717","stopLetter":"U","topMostParentId":"490G00003717","towards":"Hounslow Or Twickenham"},{"icsId":"1013110","id":"490013110N","lat":51.43129,"lon":-0.39109,"name":"Green Lane","parentId":"490G00013110","stationId":"490G00013110","stopLetter":"R","topMostParentId":"490G00013110","towards":"Butts Farm Or Hounslow"},{"icsId":"1003718","id":"490003718N","lat":51.43274,"lon":-0.39215,"name":"Bear Road Flyover","parentId":"490G00003718","stationId":"490G00003718","stopLetter":"S","topMostParentId":"490G00003718","towards":"Butts Farm Or Hounslow"},{"icsId":"1010807","id":"490010807N","lat":51.43607,"lon":-0.3916,"name":"Park Road","parentId":"490G00010807","stationId":"490G00010807","stopLetter":"T","topMostParentId":"490G00010807","towards":"Butts Farm Or Hounslow"},{"icsId":"1013970","id":"490013970N1","lat":51.43996,"lon":-0.3898,"name":"Uxbridge Road","parentId":"490G00013970","stationId":"490G00013970","stopLetter":"AM","topMostParentId":"490G00013970","towards":"Butts Farm Or Hounslow"},{"icsId":"1009221","id":"490009221N","lat":51.44291,"lon":-0.38697,"name":"Little Park Drive","parentId":"490G00009221","stationId":"490G00009221","stopLetter":"AN","topMostParentId":"490G00009221","towards":"Butts Farm Or Hounslow"},{"icsId":"1011940","id":"490011940E","lat":51.44423,"lon":-0.38582,"name":"Pevensey Road","parentId":"490G00011940","stationId":"490G00011940","stopLetter":"AP","topMostParentId":"490G00011940","towards":"Butts Farm Or Hounslow"},{"icsId":"1006485","id":"490006485N","lat":51.44723,"lon":-0.38261,"name":"Ellerman Avenue","parentId":"490G00006485","stationId":"490G00006485","stopLetter":"AR","topMostParentId":"490G00006485","towards":"Hounslow"},{"icsId":"1007767","id":"490007767N","lat":51.4507,"lon":-0.37904,"name":"Godfrey Way","parentId":"490G00007767","stationId":"490G00007767","stopLetter":"L","topMostParentId":"490G00007767","towards":"Hounslow"},{"icsId":"1012168","id":"490012168N","lat":51.45399,"lon":-0.37572,"name":"Simpson Road","parentId":"490G00012168","stationId":"490G00012168","stopLetter":"M","topMostParentId":"490G00012168","towards":"Hounslow"},{"icsId":"1010173","id":"490010173N","lat":51.4575,"lon":-0.37214,"name":"Nelson Road","parentId":"490G00010173","stationId":"490G00010173","stopLetter":"N","topMostParentId":"490G00010173","towards":"Hounslow Town Centre"},{"icsId":"1005798","id":"490005798W","lat":51.45981,"lon":-0.36978,"name":"Cromwell Road","parentId":"490G00005798","stationId":"490G00005798","stopLetter":"ST","topMostParentId":"490G00005798","towards":"Hounslow Town Centre"},{"icsId":"1008126","id":"490008126EB","lat":51.46208,"lon":-0.36747,"name":"Hibernia Road","parentId":"490G00008126","stationId":"490G00008126","stopLetter":"SU","topMostParentId":"490G00008126","towards":"Hounslow Town Centre"},{"icsId":"1003854","id":"490003854E","lat":51.46473,"lon":-0.36475,"name":"Bell Road","parentId":"490G00003854","stationId":"490G00003854","stopLetter":"SW","topMostParentId":"490G00003854","towards":"Hounslow Town Centre"},{"icsId":"1007573","id":"490007573J","lat":51.46686,"lon":-0.36294,"name":"Grove Road","parentId":"490G00007573","stationId":"490G00007573","stopLetter":"J","topMostParentId":"490G00007573","towards":"Hounslow Bus Station"},{"icsId":"1013777","id":"490013777O","lat":51.46752,"lon":-0.36212,"name":"Treaty Centre","parentId":"490G00013777","stationId":"490G00013777","stopLetter":"O","topMostParentId":"490G00013777","towards":"Heston Or Isleworth"},{"icsId":"1008399","id":"490008399K","lat":51.46945,"lon":-0.35801,"name":"Hounslow High Street","parentId":"490G00008399","stationId":"490G00008399","stopLetter":"K","topMostParentId":"490G00008399","towards":"Heston, Isleworth Or West Middlesex Hospital"},{"icsId":"1008392","id":"490015241C","lat":51.47045,"lon":-0.35565,"name":"Hounslow Bus Station","parentId":"490G000601","stationId":"490G000601","stopLetter":"E","topMostParentId":"490G000601","towards":"Heston Or Osterley"},{"icsId":"1000117","id":"490000117E","lat":51.47294,"lon":-0.35676,"name":"Hounslow East Station","stopLetter":"EE","topMostParentId":"490000117E","towards":"Heston Or Osterley","zone":"4"},{"icsId":"1006028","id":"490006028N","lat":51.47595,"lon":-0.36025,"name":"Denbigh Road","parentId":"490G00006028","stationId":"490G00006028","stopLetter":"->N","topMostParentId":"490G00006028","towards":"Heston Or Osterley"},{"icsId":"1007428","id":"490007428N","lat":51.47843,"lon":-0.364,"name":"Great West Road","parentId":"490G00007428","stationId":"490G00007428","stopLetter":"HA","topMostParentId":"490G00007428","towards":"Heston"},{"icsId":"1007433","id":"490007427N","lat":51.47953,"lon":-0.36494,"name":"Sutton Road","parentId":"490G00007433","stationId":"490G00007433","stopLetter":"HB","topMostParentId":"490G00007433","towards":"Cranford Or Southall"},{"icsId":"1008272","id":"490008272W","lat":51.48259,"lon":-0.36785,"name":"Hogarth Gardens","parentId":"490G00008272","stationId":"490G00008272","stopLetter":"HC","topMostParentId":"490G00008272","towards":"Cranford Or Southall"},{"icsId":"1012443","id":"490012443N","lat":51.48425,"lon":-0.37237,"name":"St Leonard's Church","parentId":"490G00012443","stationId":"490G00012443","stopLetter":"HD","topMostParentId":"490G00012443","towards":"Cranford Or Southall"},{"icsId":"1010221","id":"490010221W","lat":51.48495,"lon":-0.37756,"name":"New Heston Road","parentId":"490G00010221","stationId":"490G00010221","stopLetter":"HM","topMostParentId":"490G00010221","towards":"Cranford"},{"icsId":"1005705","id":"490005705S","lat":51.48421,"lon":-0.38081,"name":"Cranford Lane","parentId":"490G00005705","stationId":"490G00005705","stopLetter":"VK","topMostParentId":"490G00005705","towards":"Hatton Cross, Hounslow Or Heathrow"},{"icsId":"1008114","id":"490008114W","lat":51.48333,"lon":-0.38215,"name":"Heston Health Centre","parentId":"490G00008114","stationId":"490G00008114","stopLetter":"CT","topMostParentId":"490G00008114","towards":"Heathrow"},{"icsId":"1012229","id":"490012229W","lat":51.48378,"lon":-0.38742,"name":"Somerset Waye","parentId":"490G00012229","stationId":"490G00012229","stopLetter":"H","topMostParentId":"490G00012229","towards":"Bulls Bridge Tesco Or Heathrow"},{"icsId":"1010365","id":"490010365W","lat":51.4843,"lon":-0.39248,"name":"Northfield Road","parentId":"490G00010365","stationId":"490G00010365","stopLetter":"J","topMostParentId":"490G00010365","towards":"Bulls Bridge Tesco Or Heathrow"},{"icsId":"1008115","id":"490008115W","lat":51.48508,"lon":-0.39843,"name":"Harlech Gardens","parentId":"490G00008115","stationId":"490G00008115","stopLetter":"K","topMostParentId":"490G00008115","towards":"Heathrow"},{"icsId":"1012243","id":"490012243W","lat":51.48486,"lon":-0.40384,"name":"Cranford Lane / Redwood Estate","parentId":"490G00012243","stationId":"490G00012243","stopLetter":"L","topMostParentId":"490G00012243","towards":"Bulls Bridge Tesco Or Heathrow"},{"icsId":"1005706","id":"490005706N","lat":51.48476,"lon":-0.40615,"name":"Quinton Close","parentId":"490G00005706","stationId":"490G00005706","stopLetter":"M","topMostParentId":"490G00005706","towards":"Heathrow Airport"},{"icsId":"1013494","id":"490013494S","lat":51.48335,"lon":-0.40863,"name":"The Parkway","parentId":"490G00013494","stationId":"490G00013494","stopLetter":"CL","topMostParentId":"490G00013494","towards":"Heathrow Airport"},{"icsId":"1013235","id":"490013235S","lat":51.4802,"lon":-0.41041,"name":"The Avenue","parentId":"490G00013235","stationId":"490G00013235","stopLetter":"CM","topMostParentId":"490G00013235","towards":"Heathrow Airport"},{"icsId":"1005704","id":"490005704W","lat":51.48047,"lon":-0.41434,"name":"Waye Avenue","parentId":"490G00005704","stationId":"490G00005704","stopLetter":"CT","topMostParentId":"490G00005704","towards":"Heathrow Airport, Hayes, Sipson Or Slough"},{"icsId":"1013596","id":"490013596W","lat":51.481,"lon":-0.42081,"name":"Craneswater","parentId":"490G00013596","stationId":"490G00013596","stopLetter":"CU","topMostParentId":"490G00013596","towards":"Heathrow Airport, Hayes, Sipson Or Slough"},{"icsId":"1010677","id":"490010677W1","lat":51.48066,"lon":-0.42515,"name":"Oxford Avenue","parentId":"490G00010677","stationId":"490G00010677","stopLetter":"H","topMostParentId":"490G00010677","towards":"Heathrow Airport, Hayes, Sipson Or Slough"},{"icsId":"1007811","id":"490007811D","lat":51.48058,"lon":-0.43562,"name":"Harlington Corner","parentId":"490G00007811","stationId":"490G00007811","stopLetter":"J","topMostParentId":"490G00007811","towards":"Heathrow Airport, West Drayton Or Slough"},{"icsId":"1004149","id":"490004149W","lat":51.48098,"lon":-0.44459,"name":"Mondial Way","parentId":"490G00004149","stationId":"490G00004149","stopLetter":"BL","topMostParentId":"490G00004149","towards":"Heathrow Airport, West Drayton Or Slough"},{"icsId":"1012176","id":"490012176W","lat":51.48106,"lon":-0.44771,"name":"Nene Road","parentId":"490G00012176","stationId":"490G00012176","stopLetter":"BM","topMostParentId":"490G00012176","towards":"Heathrow Airport, West Drayton Or Slough"},{"icsId":"1008016","id":"490008016S","lat":51.47154,"lon":-0.45259,"name":"Heathrow Central Bus Station","parentId":"910GHTRWCBS","stationId":"910GHTRWCBS","stopLetter":"->S","topMostParentId":"HUBH13"}]}]}