{"direction":"inbound","lineId":"115","lineName":"115","mode":"bus","stopPointSequences":[{"stopPoint":[{"icsId":"1003184","id":"490003184L","lat":51.51386,"lon":-0.07532,"name":"Aldgate Bus Station","parentId":"490G000384","stationId":"490G000384","stopLetter":"L","topMostParentId":"490G000384","towards":"Limehouse, Shoreditch Or Whitechapel"},{"icsId":"1000004","id":"490000004Z","lat":51.51532,"lon":-0.07024,"name":"Aldgate East Station","stopLetter":"H","topMostParentId":"490000004Z","towards":"Limehouse","zone":"1"},{"icsId":"1009276","id":"490009276E","lat":51.51495,"lon":-0.06661,"name":"Henriques Street","parentId":"490G00009276","stationId":"490G00009276","stopLetter":"P","topMostParentId":"490G00009276","towards":"Limehouse"},{"icsId":"1010255","id":"490010255E","lat":51.51484,"lon":-0.06268,"name":"New Road","parentId":"490G00010255","stationId":"490G00010255","stopLetter":"Q","topMostParentId":"490G00010255","towards":"Limehouse"},{"icsId":"1014308","id":"490014308F","lat":51.51447,"lon":-0.05605,"name":"Watney Market","parentId":"490G00014308","stationId":"490G00014308","stopLetter":"F","topMostParentId":"490G00014308","towards":"Poplar Or Canary Wharf"},{"icsId":"1012782","id":"490012782E","lat":51.51418,"lon":-0.05234,"name":"St Mary's & St Michael's Church","parentId":"490G00012782","stationId":"490G00012782","topMostParentId":"490G00012782","towards":"Poplar Or Canary Wharf"},{"icsId":"1003353","id":"490003353E","lat":51.51349,"lon":-0.04796,"name":"Arbour Square","parentId":"490G00003353","stationId":"490G00003353","stopLetter":"->E","topMostParentId":"490G00003353","towards":"Poplar Or Canary Wharf"},{"icsId":"1012669","id":"490012669E","lat":51.51328,"lon":-0.04467,"name":"Stepney Methodist Church","parentId":"490G00012669","stationId":"490G00012669","stopLetter":"LA","topMostParentId":"490G00012669","towards":"Poplar Or Canary Wharf"},{"icsId":"1001180","id":"490001180E","lat":51.51284,"lon":-0.04024,"name":"Limehouse Station","stopLetter":"LB","topMostParentId":"490001180E","towards":"Poplar Or Canary Wharf","zone":"2"},{"icsId":"1009403","id":"490009403E","lat":51.51259,"lon":-0.03471,"name":"Lowell Street","parentId":"490G00009403","stationId":"490G00009403","stopLetter":"LC","topMostParentId":"490G00009403","towards":"Poplar Or Canary Wharf"},{"icsId":"1011873","id":"490011873E","lat":51.51247,"lon":-0.03254,"name":"Salmon Lane","parentId":"490G00011873","stationId":"490G00011873","stopLetter":"LD","topMostParentId":"490G00011873","towards":"Poplar Or Canary Wharf"},{"icsId":"1009158","id":"490009158E","lat":51.51245,"lon":-0.02992,"name":"Burdett Road","parentId":"490G000639","stationId":"490G000639","stopLetter":"LE","topMostParentId":"490G000639","towards":"Poplar Or Canary Wharf"},{"icsId":"1013965","id":"490013965E","lat":51.51146,"lon":-0.02512,"name":"University of Cumbria In London","parentId":"490G00013965","stationId":"490G00013965","stopLetter":"WS","topMostParentId":"490G00013965","towards":"Canning Town Or Crossharbour"},{"icsId":"1013936","id":"490013936E","lat":51.5109,"lon":-0.02141,"name":"Upper North Street","parentId":"490G00013936","stationId":"490G00013936","stopLetter":"C","topMostParentId":"490G00013936","towards":"Canning Town Or Crossharbour"},{"icsId":"1011114","id":"490011114BC","lat":51.51103,"lon":-0.01786,"name":"Poplar Recreation Grd / Poplar Stn","parentId":"490G00011114","stationId":"490G00011114","stopLetter":"D","topMostParentId":"490G00011114","towards":"Canning Town Or Crossharbour"},{"icsId":"1002267","id":"490015270B","lat":51.5112,"lon":-0.0149,"name":"Chrisp Street Market / All Saints Dlr","parentId":"490G00002267","stationId":"490G00002267","stopLetter":"B","topMostParentId":"490G00002267","towards":"Canning Town Or Crossharbour"},{"icsId":"1003701","id":"490003701C","lat":51.51131,"lon":-0.01168,"name":"Bazely Street","parentId":"490G000400","stationId":"490G000400","stopLetter":"C","topMostParentId":"490G000400","towards":"Canning Town Or North Greenwich"},{"icsId":"1007047","id":"490007047E","lat":51.51186,"lon":-0.00589,"name":"Brunswick Road","parentId":"490G00007047","stationId":"490G00007047","stopLetter":"E","topMostParentId":"490G00007047","towards":"Canning Town"},{"icsId":"1011851","id":"490004532F","lat":51.51231,"lon":-0.00378,"name":"Nutmeg Lane","parentId":"490G000734","stationId":"490G000734","stopLetter":"F","topMostParentId":"490G000734","towards":"Canning Town"},{"icsId":"1020304","id":"490003047E","lat":51.51281,"lon":-0.00104,"name":"Abbott Road","parentId":"490G00020304","stationId":"490G00020304","stopLetter":"->E","topMostParentId":"490G00020304","towards":"Canning Town"},{"icsId":"1015119","id":"490000039H","lat":51.51517,"lon":0.00564,"name":"Stephenson Street","parentId":"490G00015119","stationId":"490G00015119","stopLetter":"H","topMostParentId":"490G00015119","towards":"Canning Town Bus Station"},{"icsId":"1000039","id":"490000039F","lat":51.5145,"lon":0.00848,"name":"Canning Town Bus Station","stopLetter":"F","topMostParentId":"490000039F","zone":"2/3"},{"icsId":"1011429","id":"490011429J","lat":51.51664,"lon":0.0098,"name":"Rathbone Market","parentId":"490G00011429","stationId":"490G00011429","stopLetter":"J","topMostParentId":"490G00011429","towards":"Plaistow Or Stratford"},{"icsId":"1003750","id":"490003750L","lat":51.51755,"lon":0.01201,"name":"Hermit Road","parentId":"490G00003750","stationId":"490G00003750","stopLetter":"L","topMostParentId":"490G00003750","towards":"Plaistow Or Stratford"},{"icsId":"1005902","id":"490005902E","lat":51.51956,"lon":0.01641,"name":"Rokeby School","parentId":"490G00005902","stationId":"490G00005902","stopLetter":"S","topMostParentId":"490G00005902","towards":"Plaistow"},{"icsId":"1008834","id":"490008834E","lat":51.52081,"lon":0.01922,"name":"King Street","parentId":"490G00008834","stationId":"490G00008834","stopLetter":"BH","topMostParentId":"490G00008834","towards":"Plaistow"},{"icsId":"1003551","id":"490003551E","lat":51.52216,"lon":0.02196,"name":"Balaam Street","parentId":"490G00003551","stationId":"490G00003551","stopLetter":"BJ","topMostParentId":"490G00003551","towards":"Beckton Or Upton Park"},{"icsId":"1011047","id":"490011047E","lat":51.52342,"lon":0.02491,"name":"Plaistow Police Station","parentId":"490G00011047","stationId":"490G00011047","stopLetter":"BK","topMostParentId":"490G00011047","towards":"Beckton Or Upton Park"},{"icsId":"1011040","id":"490011040E","lat":51.52643,"lon":0.02994,"name":"Plaistow / Prince Regent Lane","parentId":"490G00011040","stationId":"490G00011040","stopLetter":"BM","topMostParentId":"490G00011040","towards":"East Ham Or Forest Gate"},{"icsId":"1010201","id":"490010201E","lat":51.5279,"lon":0.03221,"name":"New City Road","parentId":"490G00010201","stationId":"490G00010201","stopLetter":"BN","topMostParentId":"490G00010201","towards":"East Ham Or Forest Gate"},{"icsId":"1016264","id":"490016264E","lat":51.52897,"lon":0.03393,"name":"Samson Street","parentId":"490G00016264","stationId":"490G00016264","stopLetter":"T","topMostParentId":"490G00016264","towards":"Upton Park"},{"icsId":"1003273","id":"490003273O","lat":51.53021,"lon":0.03643,"name":"Upton Park / Green Street","parentId":"490G00003273","stationId":"490G00003273","stopLetter":"O","topMostParentId":"490G00003273","towards":"East Ham Or Forest Gate"},{"icsId":"1013959","id":"490013959E","lat":51.53063,"lon":0.03994,"name":"Upton Park / Priory Road","parentId":"490G00013959","stationId":"490G00013959","stopLetter":"Q","topMostParentId":"490G00013959","towards":"Barking Or East Ham"},{"icsId":"1003390","id":"490003390E","lat":51.53116,"lon":0.04312,"name":"Arragon Road","parentId":"490G00003390","stationId":"490G00003390","stopLetter":"W","topMostParentId":"490G00003390","towards":"Barking Or Ilford"},{"icsId":"1008601","id":"490008601E","lat":51.5317,"lon":0.04627,"name":"Katherine Road","parentId":"490G00008601","stationId":"490G00008601","stopLetter":"->E","topMostParentId":"490G00008601","towards":"Barking Or Ilford"},{"icsId":"1003659","id":"490003659P","lat":51.53251,"lon":0.05111,"name":"Bartle Avenue","parentId":"490G00003659","stationId":"490G00003659","stopLetter":"P","topMostParentId":"490G00003659","towards":"Barking Or Ilford"},{"icsId":"1006360","id":"490006360R","lat":51.53292,"lon":0.05309,"name":"High Street North","parentId":"490G00006360","stationId":"490G00006360","stopLetter":"R","topMostParentId":"490G00006360","towards":"Beckton Or Upton Park"},{"icsId":"1010218","id":"490010218V","lat":51.53188,"lon":0.05529,"name":"Newham Town Hall","parentId":"490G00010218","stationId":"490G00010218","stopLetter":"V","topMostParentId":"490G00010218","towards":"Beckton Or Newham Hospital"},{"icsId":"1009662","id":"490009662S","lat":51.53059,"lon":0.0559,"name":"Market Street","parentId":"490G00009662","stationId":"490G00009662","stopLetter":"N","topMostParentId":"490G00009662","towards":"Bbeckton Or Newham Hospitaleckton Or Upton Park"},{"icsId":"1006358","id":"490006358S2","lat":51.5287,"lon":0.05628,"name":"East Ham / Central Park","parentId":"490G00006358","stationId":"490G00006358","stopLetter":"M","topMostParentId":"490G00006358"}]}]}