{"direction":"inbound","lineId":"119","lineName":"119","mode":"bus","stopPointSequences":[{"stopPoint":[{"icsId":"1013304","id":"490013304S2","lat":51.35621,"lon":-0.11502,"name":"The Colonnades / Croydon Airport","parentId":"490G00013304","stationId":"490G00013304","topMostParentId":"490G00013304","towards":"South Croydon"},{"icsId":"1003130","id":"490003130N","lat":51.35628,"lon":-0.11664,"name":"Airport House","parentId":"490G00003130","stationId":"490G00003130","stopLetter":"->N","topMostParentId":"490G00003130","towards":"Thornton Heath Or South Croydon"},{"icsId":"1008475","id":"490008475N","lat":51.35919,"lon":-0.11728,"name":"Imperial Way","parentId":"490G00008475","stationId":"490G00008475","stopLetter":"->N","topMostParentId":"490G00008475","towards":"South Croydon Or Thornton Heath"},{"icsId":"1005466","id":"490005466N","lat":51.36124,"lon":-0.11786,"name":"Coldharbour Road","parentId":"490G00005466","stationId":"490G00005466","stopLetter":"NG","topMostParentId":"490G00005466","towards":"South Croydon Or Thornton Heath"},{"icsId":"1006869","id":"490006869N1","lat":51.3634,"lon":-0.11839,"name":"Waddon Leisure Centre / Fiveways","parentId":"490G00006869","stationId":"490G00006869","stopLetter":"NH","topMostParentId":"490G00006869","towards":"South Croydon"},{"icsId":"1006893","id":"490006869EB1","lat":51.36478,"lon":-0.11662,"name":"Stafford Road","parentId":"490G00006893","stationId":"490G00006893","stopLetter":"EC","topMostParentId":"490G00006893","towards":"East Croydon"},{"icsId":"1005835","id":"490005835E","lat":51.36293,"lon":-0.11159,"name":"Crowley Crescent","parentId":"490G00005835","stationId":"490G00005835","stopLetter":"->E","topMostParentId":"490G00005835","towards":"East Croydon"},{"icsId":"1004239","id":"490004239E","lat":51.36247,"lon":-0.10681,"name":"Bramley Hill","parentId":"490G00004239","stationId":"490G00004239","stopLetter":"->E","topMostParentId":"490G00004239","towards":"East Croydon"},{"icsId":"1005853","id":"490005853E","lat":51.363,"lon":-0.10338,"name":"Croydon Bowling Club","parentId":"490G00005853","stationId":"490G00005853","stopLetter":"->E","topMostParentId":"490G00005853","towards":"East Croydon Or West Croydon"},{"icsId":"1013101","id":"490013100K","lat":51.36352,"lon":-0.09984,"name":"Warham Road / Brighton Road","parentId":"490G00013101","stationId":"490G00013101","stopLetter":"K","topMostParentId":"490G00013101","towards":"East Croydon Or West Croydon"},{"icsId":"1013100","id":"490015548M","lat":51.36448,"lon":-0.09898,"name":"Swan & Sugar Loaf","parentId":"490G00013100","stationId":"490G00013100","stopLetter":"M","topMostParentId":"490G00013100","towards":"East Croydon"},{"icsId":"1005574","id":"490005574V","lat":51.36725,"lon":-0.09908,"name":"Coombe Road","parentId":"490G00005574","stationId":"490G00005574","stopLetter":"V","topMostParentId":"490G00005574","towards":"West Croydon"},{"icsId":"1005855","id":"490005855C18","lat":51.37016,"lon":-0.10011,"name":"Croydon Flyover","parentId":"490G00005855","stationId":"490G00005855","stopLetter":"KT","topMostParentId":"490G00005855","towards":"East Croydon"},{"icsId":"1002406","id":"490005858NZ","lat":51.37316,"lon":-0.09865,"name":"Croydon Library","parentId":"490G00002406","stationId":"490G00002406","stopLetter":"KM","topMostParentId":"490G00002406","towards":"Norwood Junction Or Shirley Park"},{"icsId":"1001089","id":"490001089E1","lat":51.37494,"lon":-0.09174,"name":"East Croydon Bus Station","stopLetter":"E1","topMostParentId":"490001089E1","towards":"Shirley"},{"icsId":"1002052","id":"490002052E","lat":51.37523,"lon":-0.08542,"name":"Lebanon Road Tram Stop","stopLetter":"A","topMostParentId":"490002052E","towards":"Addington Or Shirley"},{"icsId":"1002072","id":"490002072B","lat":51.37523,"lon":-0.07897,"name":"Sandilands Tram Stop","stopLetter":"B","topMostParentId":"490002072B","towards":"Addington Or Shirley"},{"icsId":"1003420","id":"490003420E","lat":51.37505,"lon":-0.07583,"name":"Ashburton Road","parentId":"490G00003420","stationId":"490G00003420","stopLetter":"C","topMostParentId":"490G00003420","towards":"Addington Or Shirley"},{"icsId":"1009623","id":"490009623E","lat":51.37425,"lon":-0.07099,"name":"Mapledale Avenue","parentId":"490G00009623","stationId":"490G00009623","stopLetter":"D","topMostParentId":"490G00009623","towards":"Addington Or Shirley"},{"icsId":"1004014","id":"490004014E","lat":51.37521,"lon":-0.06543,"name":"Birch Tree Way","parentId":"490G00004014","stationId":"490G00004014","stopLetter":"E","topMostParentId":"490G00004014","towards":"Addington Or Shirley"},{"icsId":"1012099","id":"490012099E1","lat":51.37624,"lon":-0.06102,"name":"Trinity School","parentId":"490G00012099","stationId":"490G00012099","stopLetter":"F","topMostParentId":"490G00012099","towards":"Addington Or Shirley"},{"icsId":"1002279","id":"490002279ZZ","lat":51.37509,"lon":-0.05745,"name":"Valley Walk","parentId":"490G00002279","stationId":"490G00002279","stopLetter":"->S","topMostParentId":"490G00002279","towards":"Addington Village Interchange Or Shirley"},{"icsId":"1013945","id":"490013945E","lat":51.37392,"lon":-0.05459,"name":"Upper Shirley Road","parentId":"490G00013945","stationId":"490G00013945","stopLetter":"A","topMostParentId":"490G00013945","towards":"Shrublands Or West Wickham"},{"icsId":"1013574","id":"490013551E","lat":51.37469,"lon":-0.04971,"name":"Verdayne Avenue","parentId":"490G00013574","stationId":"490G00013574","stopLetter":"B","topMostParentId":"490G00013574","towards":"Elmers End, Shrublands Or West Wickham"},{"icsId":"1012096","id":"490012096E","lat":51.37526,"lon":-0.04672,"name":"Shirley Library","parentId":"490G00012096","stationId":"490G00012096","stopLetter":"C","topMostParentId":"490G00012096","towards":"Elmers End, Shrublands Or West Wickham"},{"icsId":"1005150","id":"490005150E","lat":51.37586,"lon":-0.04289,"name":"Cheston Avenue","parentId":"490G00005150","stationId":"490G00005150","stopLetter":"D","topMostParentId":"490G00005150","towards":"Shrublands Or West Wickham"},{"icsId":"1008946","id":"490008946E","lat":51.3769,"lon":-0.03797,"name":"Langland Gardens","parentId":"490G00008946","stationId":"490G00008946","stopLetter":"E","topMostParentId":"490G00008946","towards":"Shrublands Or West Wickham"},{"icsId":"1009979","id":"490009979P","lat":51.37729,"lon":-0.02742,"name":"West Wickham and Shirley Baptist Church","parentId":"490G00009979","stationId":"490G00009979","stopLetter":"P","topMostParentId":"490G00009979","towards":"Elmers End Or Hayes"},{"icsId":"1014528","id":"490014528L","lat":51.37733,"lon":-0.02206,"name":"High Street / Manor Road","parentId":"490G00014528","stationId":"490G00014528","stopLetter":"L","topMostParentId":"490G00014528","towards":"Elmers End Or Hayes"},{"icsId":"1012087","id":"490012087J","lat":51.37635,"lon":-0.01788,"name":"Sherwood Way","parentId":"490G00012087","stationId":"490G00012087","stopLetter":"J","topMostParentId":"490G00012087","towards":"Elmers End Or Hayes"},{"icsId":"1019894","id":"490014529G","lat":51.37598,"lon":-0.01593,"name":"High Street / the Grove","parentId":"490G00019894","stationId":"490G00019894","stopLetter":"G","topMostParentId":"490G00019894","towards":"Elmers End Or Hayes"},{"icsId":"1014652","id":"490014652S","lat":51.37308,"lon":-0.01276,"name":"Wickham Court Road","parentId":"490G00014652","stationId":"490G00014652","stopLetter":"->S","topMostParentId":"490G00014652","towards":"Hayes"},{"icsId":"1014530","id":"490014530S","lat":51.37176,"lon":-0.01069,"name":"West Wickham Playing Fields","parentId":"490G00014530","stationId":"490G00014530","stopLetter":"->S","topMostParentId":"490G00014530","towards":"Hayes"},{"icsId":"1005656","id":"490005656S","lat":51.37018,"lon":-0.00759,"name":"Courtfield Rise","parentId":"490G00005656","stationId":"490G00005656","stopLetter":"A","topMostParentId":"490G00005656","towards":"Hayes"},{"icsId":"1009032","id":"490009032E","lat":51.36933,"lon":-0.00435,"name":"Layhams Road","parentId":"490G00009032","stationId":"490G00009032","stopLetter":"B","topMostParentId":"490G00009032","towards":"Hayes"},{"icsId":"1003099","id":"490003099N","lat":51.37074,"lon":-0.00204,"name":"Addington Road / Glebe Way","parentId":"490G00003099","stationId":"490G00003099","stopLetter":"C","topMostParentId":"490G00003099","towards":"Hayes"},{"icsId":"1005545","id":"490005545N","lat":51.37388,"lon":0.00156,"name":"Tiepigs Lane","parentId":"490G00005545","stationId":"490G00005545","stopLetter":"D","topMostParentId":"490G00005545","towards":"Bromley Or Orpington"},{"icsId":"1008289","id":"490008289W1","lat":51.37585,"lon":0.00648,"name":"Holland Way","parentId":"490G00008289","stationId":"490G00008289","stopLetter":"H","topMostParentId":"490G00008289","towards":"Bromley Or Orpington"},{"icsId":"1001145","id":"490001145C","lat":51.37625,"lon":0.01087,"name":"Hayes Station","stopLetter":"C","topMostParentId":"490001145C","towards":"Bromley Or Orpington"},{"icsId":"1007941","id":"490007941D","lat":51.37749,"lon":0.01036,"name":"Hayes / Station Approach","parentId":"490G000580","stationId":"490G000580","stopLetter":"D","topMostParentId":"490G000580","towards":"Bromley Or Orpington"},{"icsId":"1007951","id":"490007951E","lat":51.37755,"lon":0.017,"name":"Hayes Library","parentId":"490G00007951","stationId":"490G00007951","stopLetter":"J","topMostParentId":"490G00007951","towards":"Bromley Or Orpington"},{"icsId":"1007943","id":"490007943N","lat":51.37895,"lon":0.01781,"name":"Hayes / the George","parentId":"490G00007943","stationId":"490G00007943","stopLetter":"K","topMostParentId":"490G00007943","towards":"Bromley North"},{"icsId":"1005448","id":"490005448N","lat":51.38333,"lon":0.01701,"name":"Club Gardens Road","parentId":"490G00005448","stationId":"490G00005448","stopLetter":"L","topMostParentId":"490G00005448","towards":"Bromley North"},{"icsId":"1010307","id":"490010307N","lat":51.38873,"lon":0.01734,"name":"Hayes Lane / Norman Park","parentId":"490G00010307","stationId":"490G00010307","stopLetter":"S","topMostParentId":"490G00010307","towards":"Bromley North"},{"icsId":"1007953","id":"490007953N","lat":51.39231,"lon":0.01748,"name":"Hayes Road / Hayes Lane","parentId":"490G00007953","stationId":"490G00007953","stopLetter":"T","topMostParentId":"490G00007953","towards":"Bromley North"},{"icsId":"1020369","id":"490004724N","lat":51.39717,"lon":0.01473,"name":"Hayes Road / Cameron Road","parentId":"490G00020369","stationId":"490G00020369","stopLetter":"F","topMostParentId":"490G00020369","towards":"Bromley North"},{"icsId":"1012775","id":"490012775E","lat":51.39883,"lon":0.01659,"name":"St Mark's Church","parentId":"490G00012775","stationId":"490G00012775","stopLetter":"E","topMostParentId":"490G00012775","towards":"Bromley North"},{"icsId":"1001037","id":"490001037W","lat":51.40066,"lon":0.01663,"name":"Bromley South Station","stopLetter":"B","topMostParentId":"490001037W","towards":"Bromley North"},{"icsId":"1004410","id":"4900004410U","lat":51.40277,"lon":0.0164,"name":"Elmfield Road / the Mall","parentId":"490G00004410","stationId":"490G00004410","stopLetter":"U","topMostParentId":"490G00004410","towards":"Bromley North"},{"icsId":"1008665","id":"490008665Q","lat":51.40424,"lon":0.01849,"name":"Bromley Civic Centre","parentId":"490G00008665","stationId":"490G00008665","stopLetter":"Q","topMostParentId":"490G00008665","towards":"Chislehurst, Downham Or Grove Park"},{"icsId":"1004435","id":"490004435Q","lat":51.406,"lon":0.0166,"name":"Bromley Town Hall","parentId":"490G00004435","stationId":"490G00004435","stopLetter":"Q","topMostParentId":"490G00004435"},{"icsId":"1004425","id":"4900004425O","lat":51.40799,"lon":0.01381,"name":"West Street","parentId":"490G00004425","stationId":"490G00004425","stopLetter":"M","topMostParentId":"490G00004425"},{"icsId":"1001036","id":"490001036N","lat":51.409,"lon":0.01659,"name":"Bromley North Station","stopLetter":"->N","topMostParentId":"490001036N"}]}]}