{"direction":"inbound","lineId":"12","lineName":"12","mode":"bus","stopPointSequences":[{"stopPoint":[{"icsId":"1006652","id":"490006652N","lat":51.45001,"lon":-0.07269,"name":"Etherow Street","parentId":"490G00006652","stationId":"490G00006652","stopLetter":"DB","topMostParentId":"490G00006652","towards":"Peckham"},{"icsId":"1007293","id":"490007293N","lat":51.452,"lon":-0.07151,"name":"Goodrich Road","parentId":"490G00007293","stationId":"490G00007293","stopLetter":"DC","topMostParentId":"490G00007293","towards":"Peckham"},{"icsId":"1013900","id":"490013900N","lat":51.4549,"lon":-0.06913,"name":"Underhill Road","parentId":"490G00013900","stationId":"490G00013900","stopLetter":"DG","topMostParentId":"490G00013900","towards":"Peckham"},{"icsId":"1013918","id":"490013918N","lat":51.45751,"lon":-0.06725,"name":"Upland Road","parentId":"490G00013918","stationId":"490G00013918","stopLetter":"WD","topMostParentId":"490G00013918","towards":"Peckham"},{"icsId":"1010885","id":"490010885N","lat":51.4595,"lon":-0.06617,"name":"Peckham Rye / Barry Road","parentId":"490G00010885","stationId":"490G00010885","stopLetter":"WE","topMostParentId":"490G00010885","towards":"Elephant & Castle"},{"icsId":"1013366","id":"490013366N","lat":51.46095,"lon":-0.06643,"name":"The Gardens","parentId":"490G00013366","stationId":"490G00013366","stopLetter":"WF","topMostParentId":"490G00013366","towards":"Elephant & Castle"},{"icsId":"1008807","id":"490008807N2","lat":51.46288,"lon":-0.06668,"name":"Peckham Rye / East Dulwich Road","parentId":"490G00008807","stationId":"490G00008807","stopLetter":"WK","topMostParentId":"490G00008807","towards":"Bermondsey Or Elephant & Castle"},{"icsId":"1010269","id":"490010269N","lat":51.46583,"lon":-0.06648,"name":"Nigel Road","parentId":"490G00010269","stationId":"490G00010269","stopLetter":"WM","topMostParentId":"490G00010269","towards":"Bermondsey Or Elephant & Castle"},{"icsId":"1008037","id":"490008037X","lat":51.46746,"lon":-0.06679,"name":"Heaton Road","parentId":"490G00008037","stationId":"490G00008037","stopLetter":"X","topMostParentId":"490G00008037","towards":"Bermondsey Or Elephant & Castle"},{"icsId":"1001223","id":"490001223U","lat":51.47039,"lon":-0.06895,"name":"Peckham Rye Station","stopLetter":"U","topMostParentId":"490001223U","towards":"Bermondsey Or Elephant & Castle"},{"icsId":"1007768","id":"490011842R","lat":51.47267,"lon":-0.06982,"name":"Hanover Park","parentId":"490G00007768","stationId":"490G00007768","stopLetter":"R","topMostParentId":"490G00007768","towards":"Brixton, Oval Or Elephant & Castle"},{"icsId":"1014252","id":"490014252W","lat":51.47373,"lon":-0.07339,"name":"Harris Academy","parentId":"490G00014252","stationId":"490G00014252","stopLetter":"S","topMostParentId":"490G00014252","towards":"Brixton, Oval Or Elephant & Castle"},{"icsId":"1012248","id":"490012248W","lat":51.4742,"lon":-0.07655,"name":"Peckham Road / Southampton Way","parentId":"490G00012248","stationId":"490G00012248","stopLetter":"T","topMostParentId":"490G00012248","towards":"Brixton, Oval Or Elephant & Castle"},{"icsId":"1012357","id":"490012357W2","lat":51.4737,"lon":-0.08241,"name":"Vestry Road","parentId":"490G00012357","stationId":"490G00012357","stopLetter":"V","topMostParentId":"490G00012357","towards":"Brixton, Oval Or Elephant & Castle"},{"icsId":"1012713","id":"490012713W","lat":51.47343,"lon":-0.08708,"name":"St Giles Church","parentId":"490G00012713","stationId":"490G00012713","stopLetter":"U","topMostParentId":"490G00012713","towards":"Brixton, Oval Or Elephant & Castle"},{"icsId":"1015299","id":"490015299L","lat":51.47403,"lon":-0.09154,"name":"Camberwell Church St / Camberwell Grn","parentId":"490G00015299","stationId":"490G00015299","stopLetter":"L","topMostParentId":"490G00015299","towards":"Brixton, Oval Or Elephant & Castle"},{"icsId":"1015298","id":"490015298F","lat":51.47529,"lon":-0.09328,"name":"Camberwell Green","parentId":"490G00015298","stationId":"490G00015298","stopLetter":"F","topMostParentId":"490G00015298","towards":"Elephant & Castle"},{"icsId":"1009784","id":"490009784D","lat":51.47682,"lon":-0.09408,"name":"Medlar Street","parentId":"490G00009784","stationId":"490G00009784","stopLetter":"D","topMostParentId":"490G00009784","towards":"Elephant & Castle"},{"icsId":"1014979","id":"490014979N2","lat":51.4785,"lon":-0.09423,"name":"Wyndham Road","parentId":"490G00014979","stationId":"490G00014979","stopLetter":"U","topMostParentId":"490G00014979","towards":"Tower Bridge Or Elephant & Castle"},{"icsId":"1004221","id":"490004221N","lat":51.48058,"lon":-0.09446,"name":"Bowyer Place","parentId":"490G00004221","stationId":"490G00004221","stopLetter":"Z","topMostParentId":"490G00004221","towards":"Tower Bridge Or Elephant & Castle"},{"icsId":"1003138","id":"490003138N2","lat":51.48168,"lon":-0.09454,"name":"Camberwell Road / Albany Road","parentId":"490G00003138","stationId":"490G00003138","stopLetter":"X","topMostParentId":"490G00003138","towards":"Tower Bridge Or Elephant & Castle"},{"icsId":"1014501","id":"490014501M","lat":51.4841,"lon":-0.09407,"name":"Westmoreland Road","parentId":"490G00014501","stationId":"490G00014501","stopLetter":"M","topMostParentId":"490G00014501","towards":"Waterloo Or Westminster"},{"icsId":"1006380","id":"490006380H","lat":51.48694,"lon":-0.09523,"name":"East Street","parentId":"490G00006380","stationId":"490G00006380","stopLetter":"H","topMostParentId":"490G00006380","towards":"Waterloo Or Westminster"},{"icsId":"1008975","id":"490008975C","lat":51.48997,"lon":-0.09689,"name":"Larcom Street","parentId":"490G00008975","stationId":"490G00008975","stopLetter":"C","topMostParentId":"490G00008975","towards":"Waterloo Or Westminster"},{"icsId":"1008122","id":"490008122N","lat":51.4914,"lon":-0.09784,"name":"Heygate Street","parentId":"490G00008122","stationId":"490G00008122","stopLetter":"Z","topMostParentId":"490G00008122","towards":"Waterloo Or Westminster"},{"icsId":"1000073","id":"490000073V","lat":51.49447,"lon":-0.10085,"name":"Elephant & Castle Station","stopLetter":"V","topMostParentId":"490000073V","towards":"Waterloo Or Westminster","zone":"1+2"},{"icsId":"1009270","id":"490009270Z","lat":51.49525,"lon":-0.10206,"name":"London College of Communication","parentId":"490G000641","stationId":"490G000641","stopLetter":"Z","topMostParentId":"490G000641","towards":"Pimlico, Vauxhall Or Westminster"},{"icsId":"1008479","id":"490008473N","lat":51.49645,"lon":-0.1059,"name":"St George's Road / Imperial War Museum","parentId":"490G000609","stationId":"490G000609","stopLetter":"N","topMostParentId":"490G000609","towards":"Pimlico Or Westminster"},{"icsId":"1000132","id":"490000132B","lat":51.49856,"lon":-0.11182,"name":"Lambeth North Station","stopLetter":"B","topMostParentId":"490000132B","towards":"Pimlico Or Trafalgar Square","zone":"1"},{"icsId":"1009420","id":"490009420W","lat":51.4994,"lon":-0.11377,"name":"Lower Marsh","parentId":"490G00009420","stationId":"490G00009420","stopLetter":"A","topMostParentId":"490G00009420","towards":"Pimlico Or Trafalgar Square"},{"icsId":"1018956","id":"490005646D","lat":51.50072,"lon":-0.11937,"name":"St Thomas' Hospital / County Hall","parentId":"490G00018956","stationId":"490G00018956","stopLetter":"D","topMostParentId":"490G00018956","towards":"Trafalgar Square Or Victoria"},{"icsId":"1020361","id":"490015048A","lat":51.50187,"lon":-0.12637,"name":"Westminster Stn  / Parliament Square","parentId":"490G00020361","stationId":"490G00020361","stopLetter":"A","topMostParentId":"HUBWSM","towards":"Aldwych Or Piccadilly Circus"},{"icsId":"1008376","id":"490008376N","lat":51.50405,"lon":-0.12641,"name":"Horse Guards Parade","parentId":"490G00008376","stationId":"490G00008376","stopLetter":"->N","topMostParentId":"490G00008376","towards":"Tottenham Court Road, Oxford Circus Or Aldwych"},{"icsId":"1013767","id":"490013767T","lat":51.50753,"lon":-0.12991,"name":"Trafalgar Square","parentId":"490G000804","stationId":"490G000804","stopLetter":"T","topMostParentId":"490G000804","towards":"Oxford Circus"},{"icsId":"1011516","id":"490011516Y","lat":51.50894,"lon":-0.13423,"name":"Regent Street / St James's","parentId":"490G00011516","stationId":"490G00011516","stopLetter":"Y","topMostParentId":"490G00011516","towards":"Hyde Park Corner Or Oxford Circus"},{"icsId":"1000179","id":"490011515W","lat":51.50988,"lon":-0.13735,"name":"Piccadilly Circus","stopLetter":"E","topMostParentId":"490011515W","towards":"Baker Street, Great Portland Street Or Marble Arch","zone":"1"},{"icsId":"1000393","id":"490005537RA","lat":51.51127,"lon":-0.13914,"name":"Beak Street / Hamleys Toy Store","parentId":"490G000041","stationId":"490G000041","stopLetter":"L","topMostParentId":"490G000041","towards":"Baker Street"},{"icsId":"1000173","id":"490000173RC","lat":51.51462,"lon":-0.14194,"name":"Oxford Circus Station","stopLetter":"RC","topMostParentId":"490000173RC","towards":"Marble Arch Or Great Portland Street","zone":"1"},{"icsId":"1010695","id":"490000173N","lat":51.51607,"lon":-0.14233,"name":"Margaret Street / Oxford Circus","parentId":"490G000693","stationId":"490G000693","stopLetter":"RE","topMostParentId":"490G000693"}]}]}