{"direction":"inbound","lineId":"121","lineName":"121","mode":"bus","stopPointSequences":[{"stopPoint":[{"icsId":"1013852","id":"490013852S","lat":51.59036,"lon":-0.10226,"name":"Turnpike Lane Bus Station","parentId":"490G000808","stationId":"490G000808","stopLetter":"S","topMostParentId":"490G000808","towards":"Wood Green"},{"icsId":"1014669","id":"490000241O","lat":51.59151,"lon":-0.10471,"name":"Coleraine Road","parentId":"490G000835","stationId":"490G000835","stopLetter":"O","topMostParentId":"490G000835","towards":"Palmers Green"},{"icsId":"1009469","id":"490009461J","lat":51.5941,"lon":-0.10819,"name":"Wood Green Shopping City","parentId":"490G00009469","stationId":"490G00009469","stopLetter":"J","topMostParentId":"490G00009469","towards":"Bounds Green, Edmonton Or Palmers Green"},{"icsId":"1000275","id":"490015567H","lat":51.59659,"lon":-0.10995,"name":"Wood Green Station","stopLetter":"H","topMostParentId":"490015567H","towards":"Bounds Green Or Palmers Green","zone":"3"},{"icsId":"1007797","id":"490007797N","lat":51.59998,"lon":-0.11143,"name":"Haringey Civic Centre","parentId":"490G00007797","stationId":"490G00007797","stopLetter":"BP","topMostParentId":"490G00007797","towards":"Palmers Green"},{"icsId":"1010274","id":"490010274N","lat":51.60269,"lon":-0.1123,"name":"Nightingale Road","parentId":"490G00010274","stationId":"490G00010274","stopLetter":"BQ","topMostParentId":"490G00010274","towards":"Palmers Green Or Southgate"},{"icsId":"1009709","id":"490012152N","lat":51.60574,"lon":-0.11167,"name":"Arcadian Gardens","parentId":"490G00009709","stationId":"490G00009709","stopLetter":"BR","topMostParentId":"490G00009709","towards":"Palmers Green Or Southgate"},{"icsId":"1003875","id":"490003875N","lat":51.60916,"lon":-0.1102,"name":"Berkshire Gardens","parentId":"490G00003875","stationId":"490G00003875","stopLetter":"BS","topMostParentId":"490G00003875","towards":"Arnos Grove, Southgate Or Winchmore Hill"},{"icsId":"1010333","id":"490010333T","lat":51.61104,"lon":-0.10974,"name":"Tottenhall Road","parentId":"490G00010333","stationId":"490G00010333","stopLetter":"T","topMostParentId":"490G00010333","towards":"Winchmore Hill, Southgate Or Finchley"},{"icsId":"1015331","id":"490015399L","lat":51.61329,"lon":-0.10985,"name":"North Circular Road","parentId":"490G00015331","stationId":"490G00015331","stopLetter":"L","topMostParentId":"490G00015331","towards":"Southgate Or Winchmore Hill"},{"icsId":"1004486","id":"490004486J","lat":51.61499,"lon":-0.10978,"name":"Broomfield Lane","parentId":"490G00004486","stationId":"490G00004486","stopLetter":"J","topMostParentId":"490G00004486","towards":"Southgate Or Winchmore Hill"},{"icsId":"1001222","id":"490001222D","lat":51.61786,"lon":-0.10973,"name":"Palmers Green Station","stopLetter":"D","topMostParentId":"490001222D","towards":"Southgate"},{"icsId":"1004488","id":"490004488W","lat":51.61968,"lon":-0.11562,"name":"Broomfield Park","parentId":"490G00004488","stationId":"490G00004488","stopLetter":"M","topMostParentId":"490G00004488","towards":"Southgate"},{"icsId":"1006908","id":"490006908N1","lat":51.62064,"lon":-0.12087,"name":"Forestdale","parentId":"490G00006908","stationId":"490G00006908","stopLetter":"N","topMostParentId":"490G00006908","towards":"Southgate"},{"icsId":"1011978","id":"490011978N","lat":51.62291,"lon":-0.12232,"name":"Selborne Road","parentId":"490G00011978","stationId":"490G00011978","stopLetter":"T","topMostParentId":"490G00011978","towards":"Cockfosters Or Oakwood"},{"icsId":"1014999","id":"490014999N","lat":51.62531,"lon":-0.12468,"name":"Ye Olde Cherry Tree","parentId":"490G00014999","stationId":"490G00014999","stopLetter":"U","topMostParentId":"490G00014999","towards":"Cockfosters Or Oakwood"},{"icsId":"1009773","id":"490009773N","lat":51.62728,"lon":-0.126,"name":"Meadway","parentId":"490G00009773","stationId":"490G00009773","stopLetter":"V","topMostParentId":"490G00009773","towards":"Cockfosters Or Oakwood"},{"icsId":"1012299","id":"490012299A","lat":51.63058,"lon":-0.12795,"name":"Southgate College","parentId":"490G00012299","stationId":"490G00012299","stopLetter":"A","topMostParentId":"490G00012299","towards":"Cockfosters Or Oakwood"},{"icsId":"1000210","id":"490000210F","lat":51.63199,"lon":-0.12779,"name":"Southgate Station","stopLetter":"F","topMostParentId":"490000210F","towards":"Oakwood","zone":"4"},{"icsId":"1006036","id":"490006036N","lat":51.63667,"lon":-0.12758,"name":"West Grove Primary School","parentId":"490G00006036","stationId":"490G00006036","stopLetter":"W","topMostParentId":"490G00006036","towards":"Enfield"},{"icsId":"1005029","id":"490005029N","lat":51.63976,"lon":-0.12904,"name":"Charter Way","parentId":"490G00005029","stationId":"490G00005029","stopLetter":"->N","topMostParentId":"490G00005029","towards":"Enfield"},{"icsId":"1009820","id":"490009820N","lat":51.64311,"lon":-0.1307,"name":"Merrivale","parentId":"490G00009820","stationId":"490G00009820","stopLetter":"J","topMostParentId":"490G00009820","towards":"Enfield"},{"icsId":"1016715","id":"490016715N","lat":51.64556,"lon":-0.1319,"name":"Tregenna Close","parentId":"490G00016715","stationId":"490G00016715","stopLetter":"K","topMostParentId":"490G00016715","towards":"Enfield"},{"icsId":"1015505","id":"490015505C","lat":51.64803,"lon":-0.13208,"name":"Oakwood Station  / Chase Road","parentId":"490G000905","stationId":"490G000905","stopLetter":"C","topMostParentId":"490G000905","towards":"Enfield Town"},{"icsId":"1013789","id":"490013789E","lat":51.64931,"lon":-0.12923,"name":"Trent Park Golf Course","parentId":"490G00013789","stationId":"490G00013789","stopLetter":"L","topMostParentId":"490G00013789","towards":"Enfield Town"},{"icsId":"1008912","id":"490008912E","lat":51.65164,"lon":-0.12461,"name":"Lakeside","parentId":"490G00008912","stationId":"490G00008912","stopLetter":"->E","topMostParentId":"490G00008912","towards":"Enfield Town"},{"icsId":"1005630","id":"490005630E","lat":51.65398,"lon":-0.11322,"name":"Cotswold Way","parentId":"490G00005630","stationId":"490G00005630","stopLetter":"A","topMostParentId":"490G00005630","towards":"Enfield Town"},{"icsId":"1009190","id":"490009190E","lat":51.65503,"lon":-0.10872,"name":"Links Side","parentId":"490G00009190","stationId":"490G00009190","stopLetter":"B","topMostParentId":"490G00009190","towards":"Enfield Town"},{"icsId":"1005037","id":"490005037E","lat":51.6553,"lon":-0.10137,"name":"Chase Ridings","parentId":"490G00005037","stationId":"490G00005037","stopLetter":"C","topMostParentId":"490G00005037","towards":"Enfield Town"},{"icsId":"1013527","id":"490013527E","lat":51.65383,"lon":-0.09663,"name":"The Ridgeway","parentId":"490G00013527","stationId":"490G00013527","stopLetter":"D","topMostParentId":"490G00013527","towards":"Bush Hill Park, Forty Hill Or Ponders End"},{"icsId":"1001099","id":"490001099CC","lat":51.65367,"lon":-0.08902,"name":"Enfield Chase Station","stopLetter":"CC","topMostParentId":"490001099CC","towards":"Bush Hill Park, Forty Hill Or Ponders End"},{"icsId":"1006587","id":"490006587E","lat":51.65221,"lon":-0.08306,"name":"Enfield Town / Church Street","parentId":"490G00006587","stationId":"490G00006587","stopLetter":"E","topMostParentId":"490G00006587","towards":"Ponders End"},{"icsId":"1001101","id":"490001101K","lat":51.65241,"lon":-0.07863,"name":"Enfield Town Station","stopLetter":"K","topMostParentId":"490001101K","towards":"Bush Hill Park Or Ponders End"},{"icsId":"1008903","id":"490008903E","lat":51.65226,"lon":-0.07408,"name":"Ladysmith Road","parentId":"490G00008903","stationId":"490G00008903","stopLetter":"->E","topMostParentId":"490G00008903","towards":"Bush Hill Park, Ponders End Or Waltham Cross"},{"icsId":"1004902","id":"490004902E","lat":51.65167,"lon":-0.07051,"name":"Cecil Avenue","parentId":"490G00004902","stationId":"490G00004902","stopLetter":"M","topMostParentId":"490G00004902","towards":"Bush Hill Park, Ponders End Or Waltham Cross"},{"icsId":"1003937","id":"490010933E","lat":51.65072,"lon":-0.06592,"name":"Percival Road","parentId":"490G00003937","stationId":"490G00003937","stopLetter":"N","topMostParentId":"490G00003937","towards":"Bush Hill Park, Ponders End Or Waltham Cross"},{"icsId":"1007396","id":"490007396E2","lat":51.65017,"lon":-0.06259,"name":"Great Cambridge Road","parentId":"490G00007396","stationId":"490G00007396","stopLetter":"R","topMostParentId":"490G00007396","towards":"Brimsdown Or Enfield Highway"},{"icsId":"1015329","id":"490015329E","lat":51.64923,"lon":-0.05779,"name":"Baird Road","parentId":"490G00015329","stationId":"490G00015329","stopLetter":"Q","topMostParentId":"490G00015329","towards":"Chingford, Enfield Highway Or Waltham Cross"},{"icsId":"1005843","id":"490005843E","lat":51.64906,"lon":-0.05471,"name":"Crown Road / Southbury Station","parentId":"490G00005843","stationId":"490G00005843","stopLetter":"S","topMostParentId":"490G00005843","towards":"Chingford, Edmonton Green Or Enfield Highway"},{"icsId":"1007258","id":"490007258C","lat":51.64863,"lon":-0.0479,"name":"Glyn Road","parentId":"490G000534","stationId":"490G000534","stopLetter":"C","topMostParentId":"490G000534","towards":"Brimsdown, Edmonton Green Or Enfield Highway"},{"icsId":"1015441","id":"490015441G","lat":51.65032,"lon":-0.04673,"name":"Durants Road","parentId":"490G000895","stationId":"490G000895","stopLetter":"G","topMostParentId":"490G000895","towards":"Brimsdown, Enfield Lock Or Waltham Cross"},{"icsId":"1006579","id":"490006579N","lat":51.65272,"lon":-0.04794,"name":"Enfield College","parentId":"490G00006579","stationId":"490G00006579","stopLetter":"EJ","topMostParentId":"490G00006579","towards":"Brimsdown, Enfield Lock Or Waltham Cross"},{"icsId":"1004314","id":"490013883N","lat":51.6562,"lon":-0.0476,"name":"Green Street","parentId":"490G00004314","stationId":"490G00004314","stopLetter":"EK","topMostParentId":"490G00004314","towards":"Brimsdown, Enfield Lock Or Waltham Cross"},{"icsId":"1004828","id":"490004314N","lat":51.65915,"lon":-0.04712,"name":"Carterhatch Lane","parentId":"490G00004828","stationId":"490G00004828","stopLetter":"EL","topMostParentId":"490G00004828","towards":"Enfield Lock Or Waltham Cross"},{"icsId":"1003254","id":"490004828N","lat":51.66128,"lon":-0.04624,"name":"Oatlands Road","parentId":"490G00003254","stationId":"490G00003254","stopLetter":"EM","topMostParentId":"490G00003254","towards":"Brimsdown, Enfield Lock Or Waltham Cross"},{"icsId":"1012493","id":"490012493N","lat":51.66328,"lon":-0.04525,"name":"Durants School","parentId":"490G00012493","stationId":"490G00012493","stopLetter":"EN","topMostParentId":"490G00012493","towards":"Brimsdown, Enfield Lock Or Waltham Cross"},{"icsId":"1005757","id":"490005757N","lat":51.66526,"lon":-0.04387,"name":"Ingersoll Road","parentId":"490G00005757","stationId":"490G00005757","stopLetter":"E","topMostParentId":"490G00005757","towards":"Brimsdown, Enfield Lock Or Waltham Cross"},{"icsId":"1003140","id":"490003136N","lat":51.66791,"lon":-0.04179,"name":"Albany Leisure Centre","parentId":"490G00003140","stationId":"490G00003140","stopLetter":"F","topMostParentId":"490G00003140","towards":"Enfield Lock Or Waltham Cross"},{"icsId":"1001299","id":"490001299D","lat":51.67036,"lon":-0.04102,"name":"Turkey Street Station","stopLetter":"G","topMostParentId":"490001299D","towards":"Enfield Lock Or Waltham Cross"},{"icsId":"1003710","id":"490003710E","lat":51.67162,"lon":-0.03835,"name":"Beaconsfield Road","parentId":"490G00003710","stationId":"490G00003710","stopLetter":"U","topMostParentId":"490G00003710","towards":"Enfield Island Village"},{"icsId":"1013682","id":"490013682E","lat":51.6715,"lon":-0.03374,"name":"Titchfield Road","parentId":"490G00013682","stationId":"490G00013682","stopLetter":"V","topMostParentId":"490G00013682","towards":"Enfield Island Village"},{"icsId":"1001100","id":"490001100B","lat":51.67127,"lon":-0.02979,"name":"Enfield Lock Station","stopLetter":"B","topMostParentId":"490001100B","towards":"Enfield Island Village"},{"icsId":"1009964","id":"490011869E","lat":51.67094,"lon":-0.02293,"name":"Mollison Avenue","parentId":"490G00009964","stationId":"490G00009964","stopLetter":"->E","topMostParentId":"490G00009964","towards":"Enfield Island Village and Waltham Cross"},{"icsId":"1004882","id":"490004882E","lat":51.67093,"lon":-0.01793,"name":"Causeway Bridge / River Lee","parentId":"490G00004882","stationId":"490G00004882","stopLetter":"->E","topMostParentId":"490G00004882","towards":"Enfield Highway, Ponders End Or Waltham Cross"},{"icsId":"1007600","id":"490007600E","lat":51.67031,"lon":-0.01498,"name":"Gunner Drive","parentId":"490G00007600","stationId":"490G00007600","stopLetter":"->E","topMostParentId":"490G00007600","towards":"Enfield Highway, Ponders End Or Waltham Cross"},{"icsId":"1004735","id":"490004735S","lat":51.66801,"lon":-0.01546,"name":"Canal Side Walk","parentId":"490G00004735","stationId":"490G00004735","stopLetter":"->S","topMostParentId":"490G00004735","towards":"Enfield Highway and Ponders End"},{"icsId":"1006582","id":"490006582N","lat":51.66612,"lon":-0.01541,"name":"Enfield Island Village","parentId":"490G00006582","stationId":"490G00006582","stopLetter":"->N","topMostParentId":"490G00006582","towards":"Enfield Highway, Ponders End Or Waltham Cross"}]}]}