{"direction":"inbound","lineId":"123","lineName":"123","mode":"bus","stopPointSequences":[{"stopPoint":[{"icsId":"1007657","id":"490007657W","lat":51.55967,"lon":0.07696,"name":"Hainault Street","parentId":"490G00007657","stationId":"490G00007657","stopLetter":"W","topMostParentId":"490G00007657","towards":"Gants Hill Or Redbridge"},{"icsId":"1008466","id":"490008466Q1","lat":51.55785,"lon":0.07405,"name":"Redbridge Central Library","parentId":"490G00008466","stationId":"490G00008466","stopLetter":"Q","topMostParentId":"490G00008466","towards":"Barking, Gants Hill, Manor Park Or Redbridge"},{"icsId":"1008470","id":"490008470M","lat":51.55814,"lon":0.07174,"name":"High Road Ilford","parentId":"490G000606","stationId":"490G000606","stopLetter":"M","topMostParentId":"490G000606","towards":"Gants Hill Or Redbridge"},{"icsId":"1001157","id":"490001157G","lat":51.5588,"lon":0.06998,"name":"Ilford Station","stopLetter":"G","topMostParentId":"490001157G","towards":"Gants Hill Or Redbridge"},{"icsId":"1013966","id":"490013311U","lat":51.56325,"lon":0.06746,"name":"Beal Road","parentId":"490G00013966","stationId":"490G00013966","stopLetter":"VL","topMostParentId":"490G00013966","towards":"Gants Hill Or Redbridge"},{"icsId":"1013331","id":"490013331W","lat":51.56448,"lon":0.06624,"name":"Northbrook Road","parentId":"490G00013331","stationId":"490G00013331","stopLetter":"VM","topMostParentId":"490G00013331","towards":"Gants Hill Or Redbridge"},{"icsId":"1013988","id":"490013988N","lat":51.56767,"lon":0.06525,"name":"Valentines Park","parentId":"490G00013988","stationId":"490G00013988","stopLetter":"VP","topMostParentId":"490G00013988","towards":"Gants Hill"},{"icsId":"1003947","id":"490003947N","lat":51.57024,"lon":0.06389,"name":"Bethell Avenue","parentId":"490G00003947","stationId":"490G00003947","stopLetter":"VR","topMostParentId":"490G00003947","towards":"Barkingside, Newbury Park Or South Woodford"},{"icsId":"1003828","id":"490003828N","lat":51.57283,"lon":0.06511,"name":"Beehive Lane","parentId":"490G00003828","stationId":"490G00003828","stopLetter":"CM","topMostParentId":"490G00003828","towards":"Barkingside, Newbury Park Or South Woodford"},{"icsId":"1015202","id":"490015202M","lat":51.5759,"lon":0.06604,"name":"Gants Hill Station / Cranbrook Road","parentId":"490G000878","stationId":"490G000878","stopLetter":"CN","topMostParentId":"490G000878","towards":"Barkingside, Newbury Park Or South Woodford"},{"icsId":"1015199","id":"490015199B","lat":51.57739,"lon":0.06526,"name":"Gants Hill Station  / Woodford Avenue","parentId":"490G000876","stationId":"490G000876","stopLetter":"WS","topMostParentId":"490G000876","towards":"Barkingside Or South Woodford"},{"icsId":"1014972","id":"490014972W","lat":51.5794,"lon":0.06217,"name":"Wycombe Road","parentId":"490G00014972","stationId":"490G00014972","stopLetter":"WT","topMostParentId":"490G00014972","towards":"Barkingside Or South Woodford"},{"icsId":"1007388","id":"490008200W","lat":51.58098,"lon":0.05902,"name":"Beehive Lane","parentId":"490G00007388","stationId":"490G00007388","stopLetter":"WJ","topMostParentId":"490G00007388","towards":"Barkingside Or South Woodford"},{"icsId":"1007380","id":"490007380N","lat":51.58266,"lon":0.05683,"name":"Grasmere Gardens","parentId":"490G00007380","stationId":"490G00007380","stopLetter":"WK","topMostParentId":"490G00007380","towards":"South Woodford"},{"icsId":"1014846","id":"490014846N","lat":51.58509,"lon":0.05465,"name":"Woodford Bridge Road","parentId":"490G00014846","stationId":"490G00014846","stopLetter":"WL","topMostParentId":"490G00014846","towards":"South Woodford"},{"icsId":"1011631","id":"490011628W","lat":51.59089,"lon":0.04684,"name":"Woodford / Roding Lane South","parentId":"490G00011631","stationId":"490G00011631","stopLetter":"WN","topMostParentId":"490G00011631","towards":"Walthamstow Or Woodford Green"},{"icsId":"1010419","id":"490010418W","lat":51.59225,"lon":0.04302,"name":"Woodford Trading Estate","parentId":"490G00010419","stationId":"490G00010419","stopLetter":"Q","topMostParentId":"490G00010419","towards":"Walthamstow Or Woodford Green"},{"icsId":"1005002","id":"490005157W","lat":51.59317,"lon":0.03918,"name":"Charlie Browns Roundabout","parentId":"490G00005002","stationId":"490G00005002","stopLetter":"R","topMostParentId":"490G00005002","towards":"Walthamstow Or Woodford Green"},{"icsId":"1005157","id":"490005002W","lat":51.59385,"lon":0.03477,"name":"Chigwell Road","parentId":"490G00005157","stationId":"490G00005157","stopLetter":"S","topMostParentId":"490G00005157","towards":"Walthamstow"},{"icsId":"1020015","id":"490010116W","lat":51.59523,"lon":0.03078,"name":"Mulberry Way","parentId":"490G00020015","stationId":"490G00020015","stopLetter":"T","topMostParentId":"490G00020015","towards":"Walthamstow"},{"icsId":"1007137","id":"490007137P","lat":51.59532,"lon":0.01966,"name":"High Road South Woodford","parentId":"490G00007137","stationId":"490G00007137","stopLetter":"P","topMostParentId":"490G00007137","towards":"Walthamstow"},{"icsId":"1014288","id":"490015469W","lat":51.59508,"lon":0.01262,"name":"Waterworks Corner","parentId":"490G00014288","stationId":"490G00014288","stopLetter":"Q","topMostParentId":"490G00014288","towards":"Walthamstow"},{"icsId":"1014287","id":"490014287W","lat":51.59381,"lon":0.00854,"name":"Woodford New Road","parentId":"490G00014287","stationId":"490G00014287","stopLetter":"R","topMostParentId":"490G00014287","towards":"Blackhorse Road"},{"icsId":"1008208","id":"490008208W","lat":51.59296,"lon":0.00364,"name":"Hillcrest Road","parentId":"490G00008208","stationId":"490G00008208","stopLetter":"S","topMostParentId":"490G00008208","towards":"Blackhorse Road"},{"icsId":"1007664","id":"490007664W","lat":51.59269,"lon":0.00141,"name":"Hale End Road","parentId":"490G00007664","stationId":"490G00007664","stopLetter":"T","topMostParentId":"490G00007664","towards":"Blackhorse Road"},{"icsId":"1005416","id":"490014907W","lat":51.59186,"lon":-0.00385,"name":"Wood Street","parentId":"490G00005416","stationId":"490G00005416","stopLetter":"F","topMostParentId":"490G00005416","towards":"Blackhorse Road Or Walthamstow"},{"icsId":"1013642","id":"490013642W","lat":51.59106,"lon":-0.00752,"name":"Thorpe Coombe Hospital","parentId":"490G00013642","stationId":"490G00013642","stopLetter":"BS","topMostParentId":"490G00013642","towards":"Blackhorse Road Or Walthamstow"},{"icsId":"1014160","id":"490014160W","lat":51.58998,"lon":-0.01193,"name":"Waltham Forest Town Hall","parentId":"490G00014160","stationId":"490G00014160","stopLetter":"BT","topMostParentId":"490G00014160","towards":"Blackhorse Road Or Walthamstow"},{"icsId":"1014174","id":"490014163W","lat":51.58995,"lon":-0.01654,"name":"Hoe Street / the Bell","parentId":"490G00014174","stationId":"490G00014174","stopLetter":"BZ","topMostParentId":"490G00014174","towards":"Blackhorse Road Or Walthamstow"},{"icsId":"1014167","id":"490014163W2","lat":51.59028,"lon":-0.01863,"name":"Bromley Road","parentId":"490G00014167","stationId":"490G00014167","stopLetter":"BC","topMostParentId":"490G00014167","towards":"Tottenham Hale"},{"icsId":"1009233","id":"490009233W","lat":51.59049,"lon":-0.02233,"name":"Lloyd Park / William Morris Gallery","parentId":"490G00009233","stationId":"490G00009233","stopLetter":"BD","topMostParentId":"490G00009233","towards":"Tottenham Hale"},{"icsId":"1014169","id":"490014169W","lat":51.58973,"lon":-0.027,"name":"Wolsey Avenue","parentId":"490G00014169","stationId":"490G00014169","stopLetter":"R","topMostParentId":"490G00014169","towards":"Tottenham Hale"},{"icsId":"1008133","id":"490008133W","lat":51.58932,"lon":-0.02943,"name":"Higham Hill Road","parentId":"490G00008133","stationId":"490G00008133","stopLetter":"S","topMostParentId":"490G00008133","towards":"Blackhorse Road"},{"icsId":"1004944","id":"490004944W","lat":51.58805,"lon":-0.03326,"name":"Century Road","parentId":"490G00004944","stationId":"490G00004944","stopLetter":"T","topMostParentId":"490G00004944","towards":"St James's Street Or Tottenham Hale"},{"icsId":"1013345","id":"490013345W","lat":51.58748,"lon":-0.03723,"name":"Pretoria Avenue","parentId":"490G00013345","stationId":"490G00013345","stopLetter":"BJ","topMostParentId":"490G00013345","towards":"St James's Street Or Tottenham Hale"},{"icsId":"1000024","id":"490000024C","lat":51.58703,"lon":-0.04142,"name":"Blackhorse Road Stn   / Blackhorse Ln","stopLetter":"BC","topMostParentId":"490000024C","towards":"Tottenham","zone":"3"},{"icsId":"1006821","id":"490006821W","lat":51.5867,"lon":-0.04432,"name":"Ferry Lane Industrial Estate","parentId":"490G00006821","stationId":"490G00006821","stopLetter":"BG","topMostParentId":"490G00006821","towards":"Tottenham"},{"icsId":"1006818","id":"490006818W","lat":51.58621,"lon":-0.05176,"name":"Walthamstow Wetlands / Ferry Boat Inn","parentId":"490G00006818","stationId":"490G00006818","stopLetter":"->W","topMostParentId":"490G00006818","towards":"Tottenham"},{"icsId":"1004277","id":"490004277W","lat":51.58737,"lon":-0.05512,"name":"Bream Close","parentId":"490G00004277","stationId":"490G00004277","stopLetter":"->W","topMostParentId":"490G00004277","towards":"Tottenham"},{"icsId":"1009915","id":"490008542T","lat":51.58792,"lon":-0.05859,"name":"Mill Mead Road","parentId":"490G000666","stationId":"490G000666","stopLetter":"J","topMostParentId":"490G000666","towards":"Tottenham"},{"icsId":"1009917","id":"49009917SW","lat":51.58823,"lon":-0.06126,"name":"Tottenham Hale Bus Station","stopLetter":"D","topMostParentId":"49009917SW","towards":"Turnpike Lane"},{"icsId":"1013408","id":"490013408N","lat":51.5891,"lon":-0.06583,"name":"Park View Road","parentId":"490G00013408","stationId":"490G00013408","stopLetter":"X","topMostParentId":"490G00013408","towards":"South Tottenham Or Turnpike Lane"},{"icsId":"1013736","id":"490013736N","lat":51.59039,"lon":-0.07026,"name":"Tottenham Police Station","parentId":"490G00013736","stationId":"490G00013736","stopLetter":"F","topMostParentId":"490G00013736","towards":"Edmonton, Wood Green Or Northumberland Park"},{"icsId":"1001040","id":"490001040J","lat":51.59349,"lon":-0.06973,"name":"Bruce Grove Station","stopLetter":"J","topMostParentId":"490001040J","towards":"Edmonton Or Northumberland Park"},{"icsId":"1001040","id":"490001040K","lat":51.59482,"lon":-0.07077,"name":"Bruce Grove Station","stopLetter":"K","topMostParentId":"490001040K","towards":"Turnpike Lane Or Wood Green"},{"icsId":"1013853","id":"490013853L","lat":51.59669,"lon":-0.07303,"name":"Elmhurst Road","parentId":"490G00013853","stationId":"490G00013853","stopLetter":"L","topMostParentId":"490G00013853","towards":"Turnpike Lane"},{"icsId":"1019081","id":"490019081Z","lat":51.59788,"lon":-0.07445,"name":"Bruce Castle Park & Museum","parentId":"490G00019081","stationId":"490G00019081","stopLetter":"LE","topMostParentId":"490G00019081","towards":"Turnpike Lane Or Wood Green"},{"icsId":"1010091","id":"490010091W","lat":51.59804,"lon":-0.08025,"name":"Mount Pleasant Road","parentId":"490G00010091","stationId":"490G00010091","stopLetter":"LH","topMostParentId":"490G00010091","towards":"Turnpike Lane Or Wood Green"},{"icsId":"1003521","id":"490003521W1","lat":51.59784,"lon":-0.08313,"name":"Awlfield Avenue","parentId":"490G00003521","stationId":"490G00003521","stopLetter":"LJ","topMostParentId":"490G00003521","towards":"Turnpike Lane Or Wood Green"},{"icsId":"1014177","id":"490014177W","lat":51.59782,"lon":-0.08811,"name":"Waltheof Avenue","parentId":"490G00014177","stationId":"490G00014177","stopLetter":"LK","topMostParentId":"490G00014177","towards":"Turnpike Lane Or Wood Green"},{"icsId":"1013539","id":"490013539W","lat":51.59792,"lon":-0.09124,"name":"The Roundway / West Arm","parentId":"490G00013539","stationId":"490G00013539","stopLetter":"LL","topMostParentId":"490G00013539","towards":"Turnpike Lane Or Wood Green"},{"icsId":"1004186","id":"490004186W","lat":51.59687,"lon":-0.09391,"name":"Boundary Road","parentId":"490G00004186","stationId":"490G00004186","stopLetter":"NV","topMostParentId":"490G00004186","towards":"Wood Green"},{"icsId":"1008909","id":"490008909W","lat":51.59353,"lon":-0.098,"name":"Westbury Avenue Baptist Church","parentId":"490G00008909","stationId":"490G00008909","stopLetter":"->W","topMostParentId":"490G00008909","towards":"Wood Green"},{"icsId":"1000241","id":"490000241P","lat":51.59091,"lon":-0.10255,"name":"Turnpike Lane Station","stopLetter":"P","topMostParentId":"490000241P","towards":"Wood Green","zone":"3"},{"icsId":"1014669","id":"490000241O","lat":51.59151,"lon":-0.10471,"name":"Coleraine Road","parentId":"490G000835","stationId":"490G000835","stopLetter":"O","topMostParentId":"490G000835","towards":"Palmers Green"},{"icsId":"1000275","id":"490014854HB","lat":51.59578,"lon":-0.10913,"name":"Wood Green Station","stopLetter":"HB","topMostParentId":"490014854HB","towards":"Edmonton","zone":"3"}]}]}