{"direction":"inbound","lineId":"128","lineName":"128","mode":"bus","stopPointSequences":[{"stopPoint":[{"icsId":"1005368","id":"490005368N","lat":51.59103,"lon":0.04991,"name":"Claybury Broadway","parentId":"490G00005368","stationId":"490G00005368","stopLetter":"CL","topMostParentId":"490G00005368","towards":"Barkingside"},{"icsId":"1010887","id":"490010887E","lat":51.59197,"lon":0.05315,"name":"Wensleydale Avenue","parentId":"490G00010887","stationId":"490G00010887","stopLetter":"CM","topMostParentId":"490G00010887","towards":"Barkingside"},{"icsId":"1005636","id":"490005636E","lat":51.59181,"lon":0.05783,"name":"Couchmore Avenue","parentId":"490G00005636","stationId":"490G00005636","stopLetter":"CN","topMostParentId":"490G00005636","towards":"Barkingside"},{"icsId":"1004860","id":"490011795E","lat":51.59159,"lon":0.06384,"name":"Caterham Avenue","parentId":"490G00004860","stationId":"490G00004860","stopLetter":"CP","topMostParentId":"490G00004860","towards":"Gants Hill"},{"icsId":"1003919","id":"490003919E","lat":51.59145,"lon":0.0676,"name":"Berkeley Avenue","parentId":"490G00003919","stationId":"490G00003919","stopLetter":"CR","topMostParentId":"490G00003919","towards":"Gants Hill"},{"icsId":"1003715","id":"490003715E","lat":51.59124,"lon":0.07219,"name":"Beaminster Gardens","parentId":"490G00003715","stationId":"490G00003715","stopLetter":"->E","topMostParentId":"490G00003715","towards":"Gants Hill"},{"icsId":"1010055","id":"490010055E2","lat":51.59106,"lon":0.07618,"name":"Mossford Lane","parentId":"490G00010055","stationId":"490G00010055","stopLetter":"->E","topMostParentId":"490G00010055","towards":"Gants Hill"},{"icsId":"1003612","id":"490003612P","lat":51.59039,"lon":0.08116,"name":"Barkingside High Street","parentId":"490G00003612","stationId":"490G00003612","stopLetter":"P","topMostParentId":"490G00003612","towards":"Gants Hill Or Fairlop"},{"icsId":"1020073","id":"490007012N","lat":51.58886,"lon":0.08115,"name":"Barkingside Police Station","parentId":"490G00020073","stationId":"490G00020073","stopLetter":"N","topMostParentId":"490G00020073","towards":"Gants Hill Or Newbury Park"},{"icsId":"1000341","id":"490004258S","lat":51.58618,"lon":0.07969,"name":"Brandville Gardens","parentId":"490G00000341","stationId":"490G00000341","stopLetter":"Y","topMostParentId":"490G00000341","towards":"Gants Hill"},{"icsId":"1007060","id":"490007060S","lat":51.58469,"lon":0.07816,"name":"Fullwood Primary School","parentId":"490G00007060","stationId":"490G00007060","stopLetter":"CA","topMostParentId":"490G00007060","towards":"Ilford"},{"icsId":"1007695","id":"490007695S","lat":51.58219,"lon":0.07499,"name":"Hamilton Avenue","parentId":"490G00007695","stationId":"490G00007695","stopLetter":"CB","topMostParentId":"490G00007695","towards":"Ilford"},{"icsId":"1007114","id":"490007110S","lat":51.57981,"lon":0.07339,"name":"Icknield Drive","parentId":"490G00007114","stationId":"490G00007114","stopLetter":"CC","topMostParentId":"490G00007114","towards":"Ilford"},{"icsId":"1012090","id":"490012078S","lat":51.57816,"lon":0.07125,"name":"Martley Drive","parentId":"490G00012090","stationId":"490G00012090","stopLetter":"CD","topMostParentId":"490G00012090","towards":"Ilford"},{"icsId":"1000085","id":"490015200E","lat":51.57727,"lon":0.06848,"name":"Gants Hill Station","stopLetter":"CE","topMostParentId":"490015200E","towards":"Ilford","zone":"4"},{"icsId":"1015202","id":"490015202N","lat":51.57565,"lon":0.06636,"name":"Gants Hill Station / Cranbrook Road","parentId":"490G000878","stationId":"490G000878","stopLetter":"CH","topMostParentId":"490G000878","towards":"Ilford"},{"icsId":"1003828","id":"490003828S1","lat":51.57189,"lon":0.06444,"name":"Mornington Avenue","parentId":"490G00003828","stationId":"490G00003828","stopLetter":"CJ","topMostParentId":"490G00003828","towards":"Ilford"},{"icsId":"1003947","id":"490003947S","lat":51.56924,"lon":0.06461,"name":"Bethell Avenue","parentId":"490G00003947","stationId":"490G00003947","stopLetter":"VA","topMostParentId":"490G00003947","towards":"Ilford"},{"icsId":"1013988","id":"490013988S","lat":51.56704,"lon":0.06584,"name":"Valentines Park","parentId":"490G00013988","stationId":"490G00013988","stopLetter":"VB","topMostParentId":"490G00013988","towards":"Ilford"},{"icsId":"1013331","id":"490013331Z","lat":51.5643,"lon":0.06663,"name":"Northbrook Road","parentId":"490G00013331","stationId":"490G00013331","stopLetter":"VC","topMostParentId":"490G00013331","towards":"Ilford"},{"icsId":"1013311","id":"490013311OA","lat":51.56327,"lon":0.06756,"name":"Coventry Road","parentId":"490G00013311","stationId":"490G00013311","stopLetter":"VH","topMostParentId":"490G00013311","towards":"Barking, Becontree Or Goodmayes"},{"icsId":"1001157","id":"490001157K","lat":51.55943,"lon":0.07023,"name":"Ilford Station","stopLetter":"K","topMostParentId":"490001157K","towards":"Barking, Becontree Or Goodmayes"},{"icsId":"1003604","id":"490003604S","lat":51.55699,"lon":0.07059,"name":"Pioneer Point","parentId":"490G00003604","stationId":"490G00003604","stopLetter":"PP","topMostParentId":"490G00003604","towards":"Goodmayes Or Newbury Park"},{"icsId":"1008466","id":"490008466R","lat":51.55815,"lon":0.07435,"name":"Redbridge Central Library","parentId":"490G00008466","stationId":"490G00008466","stopLetter":"R","topMostParentId":"490G00008466","towards":"Barking, Goodmayes Or Newbury Park"},{"icsId":"1007657","id":"490007657T","lat":51.55988,"lon":0.07732,"name":"Hainault Street","parentId":"490G00007657","stationId":"490G00007657","stopLetter":"T","topMostParentId":"490G00007657","towards":"Barking, Becontree Or Goodmayes"},{"icsId":"1010809","id":"490010809E","lat":51.55906,"lon":0.08376,"name":"Park Road","parentId":"490G00010809","stationId":"490G00010809","stopLetter":"P","topMostParentId":"490G00010809","towards":"Becontree Or Goodmayes"},{"icsId":"1020081","id":"490020081E","lat":51.55905,"lon":0.0877,"name":"Buckingham Road","parentId":"490G00020081","stationId":"490G00020081","stopLetter":"R","topMostParentId":"490G00020081","towards":"Becontree Or Goodmayes"},{"icsId":"1012330","id":"490012330E","lat":51.55962,"lon":0.09299,"name":"South Park Drive","parentId":"490G00012330","stationId":"490G00012330","stopLetter":"A","topMostParentId":"490G00012330","towards":"Becontree Or Goodmayes"},{"icsId":"1012000","id":"490012000E","lat":51.56118,"lon":0.10001,"name":"Seven Kings Road","parentId":"490G00012000","stationId":"490G00012000","stopLetter":"B","topMostParentId":"490G00012000","towards":"Becontree Heath"},{"icsId":"1010464","id":"490010464E","lat":51.56222,"lon":0.10497,"name":"Nutfield Gardens","parentId":"490G00010464","stationId":"490G00010464","stopLetter":"T","topMostParentId":"490G00010464","towards":"Becontree Heath"},{"icsId":"1007291","id":"490007289G","lat":51.56297,"lon":0.10871,"name":"Goodmayes Lane","parentId":"490G00007291","stationId":"490G00007291","stopLetter":"G","topMostParentId":"490G00007291","towards":"Becontree Heath"},{"icsId":"1003131","id":"490003131E","lat":51.56327,"lon":0.11409,"name":"Goodmayes Primary School","parentId":"490G00003131","stationId":"490G00003131","stopLetter":"L","topMostParentId":"490G00003131","towards":"Becontree Heath Or Dagenham"},{"icsId":"1007285","id":"490007285B","lat":51.5632,"lon":0.11742,"name":"Colinton Road","parentId":"490G00007285","stationId":"490G00007285","stopLetter":"H","topMostParentId":"490G00007285","towards":"Becontree Heath Or Dagenham"},{"icsId":"1015110","id":"490015110E","lat":51.56249,"lon":0.12215,"name":"Greenside","parentId":"490G00015110","stationId":"490G00015110","stopLetter":"J","topMostParentId":"490G00015110","towards":"Becontree Heath Or Dagenham Heathway"},{"icsId":"1003900","id":"490003900E","lat":51.56181,"lon":0.12526,"name":"Greenway","parentId":"490G00003900","stationId":"490G00003900","stopLetter":"K","topMostParentId":"490G00003900","towards":"Becontree Heath Or Chadwell Heath"},{"icsId":"1013985","id":"490013985E","lat":51.56214,"lon":0.13067,"name":"Valence Avenue","parentId":"490G00013985","stationId":"490G00013985","stopLetter":"L","topMostParentId":"490G00013985","towards":"Romford"},{"icsId":"1014145","id":"490014145E","lat":51.56135,"lon":0.13652,"name":"Walnut Tree Road","parentId":"490G00014145","stationId":"490G00014145","stopLetter":"M","topMostParentId":"490G00014145","towards":"Romford"},{"icsId":"1013456","id":"490013456E","lat":51.56123,"lon":0.14164,"name":"Winifred Road","parentId":"490G00013456","stationId":"490G00013456","stopLetter":"->E","topMostParentId":"490G00013456","towards":"Romford"},{"icsId":"1014550","id":"490014550B","lat":51.56108,"lon":0.14661,"name":"Whalebone Lane South","parentId":"490G00014550","stationId":"490G00014550","stopLetter":"B","topMostParentId":"490G00014550","towards":"Romford"},{"icsId":"1019017","id":"490003763G","lat":51.56132,"lon":0.14961,"name":"Becontree Heath Leisure Centre","parentId":"490G00019017","stationId":"490G00019017","stopLetter":"G","topMostParentId":"490G00019017","towards":"Romford"},{"icsId":"1005923","id":"490005923R","lat":51.56238,"lon":0.1573,"name":"Cu London University / Wood Lane","parentId":"490G00005923","stationId":"490G00005923","stopLetter":"R","topMostParentId":"490G00005923","towards":"Romford"},{"icsId":"1003660","id":"490003660E","lat":51.5632,"lon":0.16161,"name":"Barton Avenue","parentId":"490G00003660","stationId":"490G00003660","stopLetter":"A","topMostParentId":"490G00003660","towards":"Romford"},{"icsId":"1005381","id":"490005381E","lat":51.56369,"lon":0.165,"name":"Clayton Road","parentId":"490G00005381","stationId":"490G00005381","stopLetter":"B","topMostParentId":"490G00005381","towards":"Romford"},{"icsId":"1009090","id":"490009090E","lat":51.56513,"lon":0.17127,"name":"Leonard Avenue","parentId":"490G00009090","stationId":"490G00009090","stopLetter":"C","topMostParentId":"490G00009090","towards":"Romford"},{"icsId":"1005926","id":"490005926E","lat":51.56569,"lon":0.17771,"name":"Dagenham Road","parentId":"490G00005926","stationId":"490G00005926","stopLetter":"D","topMostParentId":"490G00005926","towards":"Romford"},{"icsId":"1010443","id":"490010443E","lat":51.56572,"lon":0.18297,"name":"Norwood Avenue","parentId":"490G00010443","stationId":"490G00010443","stopLetter":"RW","topMostParentId":"490G00010443","towards":"Romford"},{"icsId":"1016444","id":"490016444HM","lat":51.56861,"lon":0.18124,"name":"Queen's Hospital","parentId":"490G00016444","stationId":"490G00016444","stopLetter":"HM","topMostParentId":"490G00016444","towards":"Romford Station"},{"icsId":"1013271","id":"490013271R","lat":51.57492,"lon":0.17812,"name":"The Brewery","parentId":"490G00013271","stationId":"490G00013271","stopLetter":"R","topMostParentId":"490G00013271","towards":"Romford Station"},{"icsId":"1009721","id":"490009721A","lat":51.57707,"lon":0.17692,"name":"Mawney Road","parentId":"490G00009721","stationId":"490G00009721","stopLetter":"A","topMostParentId":"490G00009721","towards":"Gidea Park, Hornchurch Or Collier Row"},{"icsId":"1010407","id":"490010407C","lat":51.57948,"lon":0.17753,"name":"North Street","parentId":"490G00010407","stationId":"490G00010407","stopLetter":"C","topMostParentId":"490G00010407","towards":"Hornchurch, Elm Park Or Gidea Park"},{"icsId":"1011659","id":"490011659E","lat":51.58066,"lon":0.18215,"name":"Romford Market","parentId":"490G00011659","stationId":"490G00011659","stopLetter":"E","topMostParentId":"490G00011659","towards":"Becontree Heath, Queen's Hosp. Or Gidea Pk"},{"icsId":"1001243","id":"490001243W","lat":51.57396,"lon":0.18304,"name":"Romford Station","stopLetter":"->W","topMostParentId":"490001243W"}]}]}