{"direction":"inbound","lineId":"135","lineName":"135","mode":"bus","stopPointSequences":[{"stopPoint":[{"icsId":"1000169","id":"490015193S","lat":51.52719,"lon":-0.08789,"name":"Old Street Station","stopLetter":"B","topMostParentId":"490015193S","towards":"Liverpool Street Station","zone":"1"},{"icsId":"1005625","id":"490011448S","lat":51.52589,"lon":-0.08311,"name":"Pitfield Street","parentId":"490G00005625","stationId":"490G00005625","stopLetter":"M","topMostParentId":"490G00005625","towards":"Liverpool Street"},{"icsId":"1001571","id":"490005910S","lat":51.52406,"lon":-0.07973,"name":"Shoreditch High Street Station","stopLetter":"B","topMostParentId":"490005910S","towards":"Liverpool Street"},{"icsId":"1005524","id":"490005524D","lat":51.52193,"lon":-0.07815,"name":"Commercial Street / Worship Street","parentId":"490G00005524","stationId":"490G00005524","stopLetter":"D","topMostParentId":"490G00005524","towards":"Aldgate, Bank Or Monument"},{"icsId":"1012391","id":"490011187S","lat":51.51978,"lon":-0.07897,"name":"Primrose Street","parentId":"490G00012391","stationId":"490G00012391","stopLetter":"J","topMostParentId":"490G00012391","towards":"Aldgate, Bank Or Monument"},{"icsId":"1000138","id":"490000138L","lat":51.51796,"lon":-0.07991,"name":"Liverpool Street Station","stopLetter":"L","topMostParentId":"490000138L","towards":"Aldgate Or Bank","zone":"1"},{"icsId":"1019038","id":"490000003B","lat":51.51495,"lon":-0.07514,"name":"St Botolph Street","parentId":"490G00019038","stationId":"490G00019038","stopLetter":"B","topMostParentId":"490G00019038","towards":"Limehouse, Tower Bridge Or Whitechapel"},{"icsId":"1000004","id":"490000004Z","lat":51.51532,"lon":-0.07024,"name":"Aldgate East Station","stopLetter":"H","topMostParentId":"490000004Z","towards":"Limehouse","zone":"1"},{"icsId":"1009276","id":"490009276E","lat":51.51495,"lon":-0.06661,"name":"Henriques Street","parentId":"490G00009276","stationId":"490G00009276","stopLetter":"P","topMostParentId":"490G00009276","towards":"Limehouse"},{"icsId":"1010255","id":"490010255E","lat":51.51484,"lon":-0.06268,"name":"New Road","parentId":"490G00010255","stationId":"490G00010255","stopLetter":"Q","topMostParentId":"490G00010255","towards":"Limehouse"},{"icsId":"1014308","id":"490014308F","lat":51.51447,"lon":-0.05605,"name":"Watney Market","parentId":"490G00014308","stationId":"490G00014308","stopLetter":"F","topMostParentId":"490G00014308","towards":"Poplar Or Canary Wharf"},{"icsId":"1012782","id":"490012782E","lat":51.51418,"lon":-0.05234,"name":"St Mary's & St Michael's Church","parentId":"490G00012782","stationId":"490G00012782","topMostParentId":"490G00012782","towards":"Poplar Or Canary Wharf"},{"icsId":"1003353","id":"490003353E","lat":51.51349,"lon":-0.04796,"name":"Arbour Square","parentId":"490G00003353","stationId":"490G00003353","stopLetter":"->E","topMostParentId":"490G00003353","towards":"Poplar Or Canary Wharf"},{"icsId":"1012669","id":"490012669E","lat":51.51328,"lon":-0.04467,"name":"Stepney Methodist Church","parentId":"490G00012669","stationId":"490G00012669","stopLetter":"LA","topMostParentId":"490G00012669","towards":"Poplar Or Canary Wharf"},{"icsId":"1001180","id":"490001180E","lat":51.51284,"lon":-0.04024,"name":"Limehouse Station","stopLetter":"LB","topMostParentId":"490001180E","towards":"Poplar Or Canary Wharf","zone":"2"},{"icsId":"1009403","id":"490009403E","lat":51.51259,"lon":-0.03471,"name":"Lowell Street","parentId":"490G00009403","stationId":"490G00009403","stopLetter":"LC","topMostParentId":"490G00009403","towards":"Poplar Or Canary Wharf"},{"icsId":"1011873","id":"490011873E","lat":51.51247,"lon":-0.03254,"name":"Salmon Lane","parentId":"490G00011873","stationId":"490G00011873","stopLetter":"LD","topMostParentId":"490G00011873","towards":"Poplar Or Canary Wharf"},{"icsId":"1009158","id":"490009158E","lat":51.51245,"lon":-0.02992,"name":"Burdett Road","parentId":"490G000639","stationId":"490G000639","stopLetter":"LE","topMostParentId":"490G000639","towards":"Poplar Or Canary Wharf"},{"icsId":"1009159","id":"490009159S","lat":51.511,"lon":-0.02714,"name":"Limehouse Police Station","parentId":"490G00009159","stationId":"490G00009159","stopLetter":"WU","topMostParentId":"490G00009159","towards":"Canary Wharf"},{"icsId":"1002083","id":"490002083A","lat":51.50881,"lon":-0.02669,"name":"Westferry Station","stopLetter":"WX","topMostParentId":"490002083A","towards":"Leamouth Or Island Gardens","zone":"2"},{"icsId":"1014483","id":"490014483C","lat":51.50561,"lon":-0.02457,"name":"West India Avenue","parentId":"490G000827","stationId":"490G000827","stopLetter":"C","topMostParentId":"490G000827","towards":"Isle of Dogs Or Leamouth"},{"icsId":"1000038","id":"490000038F","lat":51.50547,"lon":-0.02091,"name":"Canary Wharf Station","stopLetter":"F","topMostParentId":"490000038F","towards":"Isle Of Dogs Or Leamouth","zone":"2"},{"icsId":"1016668","id":"490016668L","lat":51.5028,"lon":-0.01982,"name":"Canary Wharf Station","parentId":"490G000917","stationId":"490G000917","stopLetter":"L","topMostParentId":"HUBCAW","towards":"Island Gardens"},{"icsId":"1005323","id":"490005323S","lat":51.50304,"lon":-0.02563,"name":"Marsh Wall / Heron Quay","parentId":"490G00005323","stationId":"490G00005323","stopLetter":"A","topMostParentId":"490G00005323","towards":"Island Gardens Or Mudchute"},{"icsId":"1009545","id":"490009545S","lat":51.50126,"lon":-0.02595,"name":"Cuba Street","parentId":"490G00009545","stationId":"490G00009545","stopLetter":"B","topMostParentId":"490G00009545","towards":"Island Gardens Or Mudchute"},{"icsId":"1003602","id":"490003602S","lat":51.49888,"lon":-0.02591,"name":"Barkantine Clinic / Hutchings Street","parentId":"490G00003602","stationId":"490G00003602","stopLetter":"C","topMostParentId":"490G00003602","towards":"Island Gardens Or Mudchute"},{"icsId":"1012181","id":"490012181S","lat":51.49653,"lon":-0.02572,"name":"Sir John Mcdougall Gardens","parentId":"490G00012181","stationId":"490G00012181","stopLetter":"D","topMostParentId":"490G00012181","towards":"Island Gardens Or Mudchute"},{"icsId":"1006092","id":"490006092S","lat":51.49432,"lon":-0.02487,"name":"Arnhem Wharf Primary School","parentId":"490G00006092","stationId":"490G00006092","stopLetter":"E","topMostParentId":"490G00006092","towards":"Island Gardens Or Mudchute"},{"icsId":"1008758","id":"490008757S","lat":51.49221,"lon":-0.0245,"name":"Crews Street / the Space Theatre","stopLetter":"F","topMostParentId":"490008757S","towards":"Island Gardens Or Mudchute"},{"icsId":"1012438","id":"490012438S","lat":51.49063,"lon":-0.02298,"name":"St Edmund's School","parentId":"490G00012438","stationId":"490G00012438","stopLetter":"G","topMostParentId":"490G00012438","towards":"Island Gardens Or Mudchute"},{"icsId":"1013184","id":"490013184E","lat":51.49116,"lon":-0.01979,"name":"Telegraph Place","parentId":"490G00013184","stationId":"490G00013184","stopLetter":"K","topMostParentId":"490G00013184","towards":"Island Gardens"},{"icsId":"1002061","id":"490002061A","lat":51.49033,"lon":-0.01503,"name":"Mudchute Station","stopLetter":"MA","topMostParentId":"490002061A","towards":"Island Gardens","zone":"2"},{"icsId":"1009924","id":"490009924S","lat":51.48822,"lon":-0.01335,"name":"Millwall Park","parentId":"490G000668","stationId":"490G000668","stopLetter":"L","topMostParentId":"490G000668","towards":"Crossharbour Or Canary Wharf"},{"icsId":"1002048","id":"490002048X","lat":51.4879,"lon":-0.00995,"name":"Island Gardens Station","stopLetter":"J","topMostParentId":"490002048X","towards":"Crossharbour Or Poplar","zone":"2"},{"icsId":"1007161","id":"490007161E","lat":51.48865,"lon":-0.00751,"name":"George Green's School","parentId":"490G00007161","stationId":"490G00007161","stopLetter":"K","topMostParentId":"490G00007161","towards":"Crossharbour Or Poplar"},{"icsId":"1007241","id":"490007241N","lat":51.49067,"lon":-0.00611,"name":"Christ Church Isle of Dogs","parentId":"490G00007241","stationId":"490G00007241","stopLetter":"CS","topMostParentId":"490G00007241","towards":"Crossharbour Or Poplar"},{"icsId":"1010999","id":"490010999N","lat":51.49258,"lon":-0.0067,"name":"Pier Street","parentId":"490G00010999","stationId":"490G00010999","stopLetter":"CT","topMostParentId":"490G00010999","towards":"Crossharbour Or Poplar"},{"icsId":"1005878","id":"490005878N","lat":51.4949,"lon":-0.00894,"name":"Cubitt Town School","parentId":"490G00005878","stationId":"490G00005878","stopLetter":"CU","topMostParentId":"490G00005878","towards":"Crossharbour Or Poplar"},{"icsId":"1012736","id":"490012736N","lat":51.49778,"lon":-0.00969,"name":"St John's Park","parentId":"490G00012736","stationId":"490G00012736","stopLetter":"L","topMostParentId":"490G00012736","towards":"Crossharbour Or Poplar"},{"icsId":"1013513","id":"490013513N","lat":51.49925,"lon":-0.00947,"name":"Stewart Street","parentId":"490G00013513","stationId":"490G00013513","stopLetter":"M","topMostParentId":"490G00013513","towards":"Crossharbour Or Poplar"},{"icsId":"1008529","id":"490008529N","lat":51.49965,"lon":-0.01189,"name":"Jack Dash House","parentId":"490G00008529","stationId":"490G00008529","stopLetter":"N","topMostParentId":"490G00008529","towards":"Crossharbour"},{"icsId":"1007777","id":"490007777S","lat":51.49935,"lon":-0.01345,"name":"Harbour Exchange Square","parentId":"490G00007777","stationId":"490G00007777","stopLetter":"P","topMostParentId":"490G00007777","towards":"Crossharbour"},{"icsId":"1009274","id":"490009274S","lat":51.49779,"lon":-0.0137,"name":"East Ferry Road","parentId":"490G00009274","stationId":"490G00009274","stopLetter":"R","topMostParentId":"490G00009274","towards":"Crossharbour"},{"icsId":"1002025","id":"490002025B","lat":51.49584,"lon":-0.01397,"name":"Crossharbour Station","stopLetter":"AP","topMostParentId":"490002025B","zone":"2"},{"icsId":"1019912","id":"490008507S","lat":51.49487,"lon":-0.01307,"name":"Isle of Dogs Asda","parentId":"490G00019912","stationId":"490G00019912","stopLetter":"->S","topMostParentId":"490G00019912"}]}]}