{"direction":"inbound","lineId":"144","lineName":"144","mode":"bus","stopPointSequences":[{"stopPoint":[{"icsId":"1009983","id":"490009983G","lat":51.62541,"lon":-0.059,"name":"Edmonton Green Bus Station","parentId":"490G00009983","stationId":"490G00009983","stopLetter":"G","topMostParentId":"490G00009983","towards":"Tottenham Or North Middlesex Hospital"},{"icsId":"1006445","id":"490006445A","lat":51.62267,"lon":-0.06132,"name":"Edmonton Police Station","parentId":"490G00006445","stationId":"490G00006445","stopLetter":"J","topMostParentId":"490G00006445","towards":"Palmers Green, Tottenham Or Wood Green"},{"icsId":"1011968","id":"490011968S","lat":51.62113,"lon":-0.06179,"name":"Shrubbery Road","parentId":"490G00011968","stationId":"490G00011968","stopLetter":"K","topMostParentId":"490G00011968","towards":"Palmers Green, Tottenham Or Wood Green"},{"icsId":"1010801","id":"490010801G","lat":51.61787,"lon":-0.06316,"name":"Brettenham Road","parentId":"490G00010801","stationId":"490G00010801","stopLetter":"G","topMostParentId":"490G00010801","towards":"Palmers Green, Tottenham Or Wood Green"},{"icsId":"1003322","id":"490015189D","lat":51.61669,"lon":-0.0636,"name":"Angel Corner","parentId":"490G00003322","stationId":"490G00003322","stopLetter":"D","topMostParentId":"490G00003322","towards":"Palmers Green Or Wood Green"},{"icsId":"1003324","id":"490003324A","lat":51.61458,"lon":-0.06557,"name":"Angel Corner / Silver Street Station","parentId":"490G000389","stationId":"490G000389","stopLetter":"A","topMostParentId":"490G000389","towards":"Palmers Green Or Turnpike Lane"},{"icsId":"1010388","id":"490010388N","lat":51.61521,"lon":-0.0721,"name":"Pymmes Park","parentId":"490G00010388","stationId":"490G00010388","stopLetter":"N","topMostParentId":"490G00010388","towards":"Palmers Green, Turnpike Lane Or Winchmore Hill"},{"icsId":"1009357","id":"490009357P","lat":51.61623,"lon":-0.07727,"name":"North Middlesex Hospital","parentId":"490G00009357","stationId":"490G00009357","stopLetter":"J","topMostParentId":"490G00009357","towards":"Palmers Green, Turnpike Lane Or Winchmore Hill"},{"icsId":"1015617","id":"490015617W","lat":51.61663,"lon":-0.08026,"name":"Millfield Theatre & Arts Centre","parentId":"490G00015617","stationId":"490G00015617","stopLetter":"WQ","topMostParentId":"490G00015617","towards":"Palmers Green, Turnpike Lane Or Winchmore Hill"},{"icsId":"1004712","id":"490013440W","lat":51.61603,"lon":-0.08582,"name":"Cambridge Roundabout / East Side","parentId":"490G00004712","stationId":"490G00004712","stopLetter":"WT","topMostParentId":"490G00004712","towards":"Palmers Green Or Turnpike Lane"},{"icsId":"1019163","id":"490004712S2","lat":51.61526,"lon":-0.08664,"name":"Cambridge Roundabout / South Side","parentId":"490G00019163","stationId":"490G00019163","stopLetter":"SH","topMostParentId":"490G00019163","towards":"Turnpike Lane Or Wood Green"},{"icsId":"1010864","id":"490010864S","lat":51.61239,"lon":-0.08636,"name":"Pasteur Gardens","parentId":"490G00010864","stationId":"490G00010864","stopLetter":"SJ","topMostParentId":"490G00010864","towards":"Turnpike Lane Or Wood Green"},{"icsId":"1006564","id":"490006564S","lat":51.6091,"lon":-0.08541,"name":"Empire Parade","parentId":"490G00006564","stationId":"490G00006564","stopLetter":"SK","topMostParentId":"490G00006564","towards":"Turnpike Lane Or Wood Green"},{"icsId":"1014597","id":"490014597S","lat":51.6049,"lon":-0.08595,"name":"White Hart Lane","parentId":"490G00014597","stationId":"490G00014597","stopLetter":"RK","topMostParentId":"490G00014597","towards":"Wood Green and Turnpike Lane"},{"icsId":"1005666","id":"490005666W","lat":51.60266,"lon":-0.08807,"name":"Courtman Road","parentId":"490G00005666","stationId":"490G00005666","stopLetter":"RL","topMostParentId":"490G00005666","towards":"Wood Green Or Turnpike Lane"},{"icsId":"1007323","id":"490007323W","lat":51.60173,"lon":-0.09069,"name":"Gospatrick Road","parentId":"490G00007323","stationId":"490G00007323","stopLetter":"RM","topMostParentId":"490G00007323","towards":"Wood Green and Turnpike Lane"},{"icsId":"1007377","id":"490007377W","lat":51.59946,"lon":-0.0918,"name":"Granville Road","parentId":"490G00007377","stationId":"490G00007377","stopLetter":"RN","topMostParentId":"490G00007377","towards":"Wood Green Or Turnpike Lane"},{"icsId":"1007201","id":"490007201W","lat":51.59809,"lon":-0.09552,"name":"Gladstone Avenue","parentId":"490G00007201","stationId":"490G00007201","stopLetter":"NP","topMostParentId":"490G00007201","towards":"Wood Green"},{"icsId":"1010036","id":"490010036W","lat":51.59906,"lon":-0.0983,"name":"Morley Avenue","parentId":"490G00010036","stationId":"490G00010036","stopLetter":"NR","topMostParentId":"490G00010036","towards":"Wood Green"},{"icsId":"1010954","id":"490010954W","lat":51.59921,"lon":-0.10177,"name":"Perth Road","parentId":"490G00010954","stationId":"490G00010954","stopLetter":"NS","topMostParentId":"490G00010954","towards":"Turnpike Lane Or Alexandra Palace"},{"icsId":"1014853","id":"490014853W","lat":51.59834,"lon":-0.10457,"name":"Wood Green Crown Court","parentId":"490G00014853","stationId":"490G00014853","stopLetter":"NT","topMostParentId":"490G00014853","towards":"Turnpike Lane and Alexandra Palace"},{"icsId":"1000275","id":"490000275F","lat":51.59718,"lon":-0.10909,"name":"Wood Green Station","stopLetter":"F","topMostParentId":"490000275F","towards":"Alexandra Palace Or Turnpike Lane","zone":"3"},{"icsId":"1009469","id":"490014854GB","lat":51.59559,"lon":-0.1089,"name":"Wood Green Shopping City","parentId":"490G00009469","stationId":"490G00009469","stopLetter":"GB","topMostParentId":"490G00009469","towards":"Turnpike Lane"},{"icsId":"1009461","id":"490009461K","lat":51.59294,"lon":-0.10641,"name":"Brampton Park Road","parentId":"490G00009461","stationId":"490G00009461","stopLetter":"K","topMostParentId":"490G00009461","towards":"Muswell Hill Or Tottenham"},{"icsId":"1000241","id":"490000241M","lat":51.59084,"lon":-0.10367,"name":"Turnpike Lane Station","stopLetter":"M","topMostParentId":"490000241M","towards":"Manor House Or Hornsey","zone":"3"},{"icsId":"1013852","id":"490013852R","lat":51.59004,"lon":-0.10226,"name":"Turnpike Lane Bus Station","parentId":"490G000808","stationId":"490G000808","stopLetter":"R","topMostParentId":"490G000808","towards":"Muswell Hill"},{"icsId":"1014668","id":"490000241Q","lat":51.59016,"lon":-0.10378,"name":"Wood Green High Road","parentId":"490G000834","stationId":"490G000834","stopLetter":"Q","topMostParentId":"490G000834","towards":"Hornsey Or Crouch End"},{"icsId":"1014665","id":"490014665W","lat":51.58866,"lon":-0.111,"name":"Wightman Road","parentId":"490G00014665","stationId":"490G00014665","stopLetter":"H","topMostParentId":"490G00014665","towards":"Crouch End Or Muswell Hill"},{"icsId":"1005275","id":"490005275W1","lat":51.58788,"lon":-0.11375,"name":"Tottenham Lane","parentId":"490G00005275","stationId":"490G00005275","stopLetter":"J","topMostParentId":"490G00005275","towards":"Muswell Hill"},{"icsId":"1010141","id":"490010141W","lat":51.58764,"lon":-0.11808,"name":"Myddelton Road","parentId":"490G00010141","stationId":"490G00010141","stopLetter":"K","topMostParentId":"490G00010141","towards":"Muswell Hill"},{"icsId":"1009850","id":"490009850W1","lat":51.58702,"lon":-0.12272,"name":"Nightingale Lane","parentId":"490G00009850","stationId":"490G00009850","stopLetter":"L","topMostParentId":"490G00009850","towards":"Alexandra Park"},{"icsId":"1008358","id":"490008358W","lat":51.58672,"lon":-0.12738,"name":"Hornsey Fire Station","parentId":"490G00008358","stationId":"490G00008358","stopLetter":"M","topMostParentId":"490G00008358","towards":"Alexandra Park"},{"icsId":"1000939","id":"490003211W","lat":51.58733,"lon":-0.1328,"name":"Park Road","stopLetter":"MK","topMostParentId":"490003211W","towards":"Wood Green Or Muswell Hill Broadway"},{"icsId":"1007545","id":"490007545W","lat":51.58937,"lon":-0.13762,"name":"Grosvenor Gardens","parentId":"490G00007545","stationId":"490G00007545","stopLetter":"ML","topMostParentId":"490G00007545","towards":"Muswell Hill Broadway"},{"icsId":"1015188","id":"490015188D","lat":51.59087,"lon":-0.14192,"name":"Muswell Hill Broadway","parentId":"490G00015188","stationId":"490G00015188","stopLetter":"D","topMostParentId":"490G00015188"}]}]}