{"direction":"inbound","lineId":"149","lineName":"149","mode":"bus","stopPointSequences":[{"stopPoint":[{"icsId":"1019954","id":"490019954L","lat":51.5053,"lon":-0.08654,"name":"London Bridge Bus Station","parentId":"490G000970","stationId":"490G000970","stopLetter":"A","topMostParentId":"HUBLBG"},{"icsId":"1018542","id":"490000139M","lat":51.5067,"lon":-0.08833,"name":"London Bridge","parentId":"490G000922","stationId":"490G000922","stopLetter":"M","topMostParentId":"HUBLBG","towards":"Bank, St Paul's Or Liverpool Street"},{"icsId":"1000148","id":"490009267D","lat":51.50946,"lon":-0.08748,"name":"Monument Station","stopLetter":"Q","topMostParentId":"490009267D","towards":"Bank, St Pauls Or Liverpool Street","zone":"1"},{"icsId":"1019176","id":"490000148T","lat":51.5114,"lon":-0.08562,"name":"Gracechurch Street / Monument Station","parentId":"490G00019176","stationId":"490G00019176","stopLetter":"T","topMostParentId":"490G00019176","towards":"Liverpool Street"},{"icsId":"1002303","id":"490004043N2","lat":51.51586,"lon":-0.08222,"name":"Camomile Street","parentId":"490G00002303","stationId":"490G00002303","stopLetter":"W","topMostParentId":"490G00002303","towards":"Bethnal Green, Dalston Or Hackney"},{"icsId":"1000138","id":"490000138E","lat":51.51807,"lon":-0.07997,"name":"Liverpool Street Station","stopLetter":"E","topMostParentId":"490000138E","towards":"Dalston","zone":"1"},{"icsId":"1012391","id":"490011187N","lat":51.52036,"lon":-0.07905,"name":"Primrose Street","parentId":"490G00012391","stationId":"490G00012391","stopLetter":"H","topMostParentId":"490G00012391","towards":"Bethnal Green, Dalston Or Hackney"},{"icsId":"1001571","id":"490005524F","lat":51.52223,"lon":-0.07813,"name":"Shoreditch High Street Station","stopLetter":"F","topMostParentId":"490005524F","towards":"Dalston Junction Or Cambridge Heath"},{"icsId":"1006411","id":"490016266N","lat":51.52432,"lon":-0.07734,"name":"Shoreditch High St / Bethnal Green Road","parentId":"490G00006411","stationId":"490G00006411","stopLetter":"L","topMostParentId":"490G00006411","towards":"Dalston Junction Or Cambridge Heath"},{"icsId":"1007625","id":"490016267N","lat":51.52595,"lon":-0.07802,"name":"Shoreditch Church","parentId":"490G00007625","stationId":"490G00007625","stopLetter":"P","topMostParentId":"490G00007625","towards":"Dalston Junction Or Cambridge Heath"},{"icsId":"1019062","id":"490007625V","lat":51.52826,"lon":-0.07802,"name":"Waterson Street","parentId":"490G00019062","stationId":"490G00019062","stopLetter":"V","topMostParentId":"490G00019062","towards":"Dalston Junction"},{"icsId":"1006733","id":"490006726N","lat":51.52971,"lon":-0.0776,"name":"Hoxton Station  / Museum of the Home","parentId":"490G000509","stationId":"490G000509","stopLetter":"KA","topMostParentId":"490G000509","towards":"Dalston Junction"},{"icsId":"1000390","id":"490007155KB","lat":51.53287,"lon":-0.07728,"name":"Pearson Street","parentId":"490G00000390","stationId":"490G00000390","stopLetter":"KB","topMostParentId":"490G00000390","towards":"Dalston Junction"},{"icsId":"1012445","id":"490012445N","lat":51.53431,"lon":-0.07713,"name":"St Leonard's Hospital","parentId":"490G00012445","stationId":"490G00012445","stopLetter":"KC","topMostParentId":"490G00012445","towards":"Stoke Newington Or Hackney Central"},{"icsId":"1008893","id":"490010985N","lat":51.53592,"lon":-0.07702,"name":"Laburnum Street","parentId":"490G00008893","stationId":"490G00008893","stopLetter":"KD","topMostParentId":"490G00008893","towards":"Stoke Newington Or Hackney Central"},{"icsId":"1006170","id":"490006170N1","lat":51.53802,"lon":-0.07689,"name":"Haggerston Station","parentId":"490G00006170","stationId":"490G00006170","stopLetter":"KE","topMostParentId":"490G00006170","towards":"Stoke Newington Or Hackney Central"},{"icsId":"1009859","id":"490009859N","lat":51.54144,"lon":-0.07655,"name":"Middleton Road","parentId":"490G00009859","stationId":"490G00009859","stopLetter":"KF","topMostParentId":"490G00009859","towards":"Stoke Newington Or Hackney Central"},{"icsId":"1001568","id":"490006929C","lat":51.54454,"lon":-0.07616,"name":"Dalston Junction Station","parentId":"910GDALS","stationId":"910GDALS","stopLetter":"C","topMostParentId":"910GDALS","towards":"Stoke Newington Or Hackney Central"},{"icsId":"1005947","id":"490005945L","lat":51.5469,"lon":-0.07574,"name":"Kingsland High Street","parentId":"490G00005947","stationId":"490G00005947","stopLetter":"L","topMostParentId":"490G00005947","towards":"Stoke Newington Or Shacklewell"},{"icsId":"1001081","id":"490001081P","lat":51.54834,"lon":-0.07553,"name":"Dalston Kingsland Station","stopLetter":"P","topMostParentId":"490001081P","towards":"Stoke Newington Or Clapton Pond"},{"icsId":"1015851","id":"490015851S","lat":51.55026,"lon":-0.07531,"name":"Rio Cinema","parentId":"490G00015851","stationId":"490G00015851","stopLetter":"S","topMostParentId":"490G00015851","towards":"Stoke Newington"},{"icsId":"1011217","id":"490011217N","lat":51.55284,"lon":-0.075,"name":"Princess May Road","parentId":"490G00011217","stationId":"490G00011217","stopLetter":"->N","topMostParentId":"490G00011217","towards":"Stamford Hill"},{"icsId":"1019706","id":"490003307P","lat":51.55602,"lon":-0.07465,"name":"Amhurst Road","parentId":"490G00019706","stationId":"490G00019706","stopLetter":"P","topMostParentId":"490G00019706","towards":"Stamford Hill"},{"icsId":"1012839","id":"490012839R","lat":51.55788,"lon":-0.07455,"name":"Stoke Newington Police Station","parentId":"490G00012839","stationId":"490G00012839","stopLetter":"R","topMostParentId":"490G00012839","towards":"Stamford Hill"},{"icsId":"1006282","id":"490006282S","lat":51.56044,"lon":-0.07406,"name":"Brooke Road","parentId":"490G00006282","stationId":"490G00006282","stopLetter":"S","topMostParentId":"490G00006282","towards":"Stamford Hill Or Stoke Newington Common"},{"icsId":"1019889","id":"490005312X","lat":51.5627,"lon":-0.07356,"name":"Stoke Newington Church Street","parentId":"490G00019889","stationId":"490G00019889","stopLetter":"X","topMostParentId":"490G00019889","towards":"Seven Sisters Station, Turnpike Lane Or Finsbury P"},{"icsId":"1001273","id":"490001273E","lat":51.56461,"lon":-0.07343,"name":"Stoke Newington Station","stopLetter":"E","topMostParentId":"490001273E","towards":"Seven Sisters Station, Turnpike Lane Or Finsbury P"},{"icsId":"1009477","id":"490009477N","lat":51.5683,"lon":-0.07303,"name":"Lynmouth Road","parentId":"490G00009477","stationId":"490G00009477","stopLetter":"SA","topMostParentId":"490G00009477","towards":"Seven Sisters Or Turnpike Lane"},{"icsId":"1006261","id":"490006261N","lat":51.57005,"lon":-0.07297,"name":"Stamford Hill Library","parentId":"490G00006261","stationId":"490G00006261","stopLetter":"SB","topMostParentId":"490G00006261","towards":"Seven Sisters Or Turnpike Lane"},{"icsId":"1012524","id":"490012524N","lat":51.57296,"lon":-0.07291,"name":"Stamford Hill Broadway","parentId":"490G00012524","stationId":"490G00012524","stopLetter":"SD","topMostParentId":"490G00012524","towards":"Bruce Grove Or Tottenham Hale"},{"icsId":"1006456","id":"490006456E","lat":51.57461,"lon":-0.07238,"name":"Egerton Road","parentId":"490G00006456","stationId":"490G00006456","stopLetter":"SE","topMostParentId":"490G00006456","towards":"Turnpike Lane Or Seven Sisters"},{"icsId":"1012433","id":"490012433N","lat":51.57663,"lon":-0.07293,"name":"St Ann's Road","parentId":"490G00012433","stationId":"490G00012433","stopLetter":"TA","topMostParentId":"490G00012433","towards":"Tottenham Or Wood Green"},{"icsId":"1015852","id":"490015852N","lat":51.57852,"lon":-0.07309,"name":"Lealand Road","parentId":"490G00015852","stationId":"490G00015852","stopLetter":"TB","topMostParentId":"490G00015852","towards":"Wood Green Or Edmonton"},{"icsId":"1001264","id":"490001264OB","lat":51.58106,"lon":-0.07272,"name":"South Tottenham Station","stopLetter":"TC","topMostParentId":"490001264OB","towards":"Wood Green Or Edmonton"},{"icsId":"1015081","id":"490015081O","lat":51.58217,"lon":-0.0725,"name":"Seven Sisters Road","parentId":"490G000859","stationId":"490G000859","stopLetter":"C","topMostParentId":"HUBSVS","towards":"Edmonton, Wood Green Or Northumberland Park"},{"icsId":"1000201","id":"490000201J","lat":51.58359,"lon":-0.07247,"name":"Seven Sisters Station","stopLetter":"D","topMostParentId":"490000201J","towards":"Wood Green Or Northumberland Park","zone":"3"},{"icsId":"1013739","id":"490015083E","lat":51.58502,"lon":-0.07199,"name":"College of North East London","parentId":"490G00013739","stationId":"490G00013739","stopLetter":"G","topMostParentId":"490G00013739","towards":"Northumberland Park Or Edmonton"},{"icsId":"1015083","id":"490013739M","lat":51.58799,"lon":-0.07093,"name":"Tottenham Town Hall","parentId":"490G000860","stationId":"490G000860","stopLetter":"V","topMostParentId":"490G000860","towards":"Northumberland Park Or Edmonton"},{"icsId":"1013736","id":"490013736N","lat":51.59039,"lon":-0.07026,"name":"Tottenham Police Station","parentId":"490G00013736","stationId":"490G00013736","stopLetter":"F","topMostParentId":"490G00013736","towards":"Edmonton, Wood Green Or Northumberland Park"},{"icsId":"1018845","id":"490018845N","lat":51.59207,"lon":-0.06998,"name":"St Loys Road","parentId":"490G00018845","stationId":"490G00018845","stopLetter":"G","topMostParentId":"490G00018845","towards":"Turnpike Lane Or Wood Green"},{"icsId":"1009360","id":"490009360N","lat":51.59789,"lon":-0.06811,"name":"Lordship Lane","parentId":"490G00009360","stationId":"490G00009360","stopLetter":"R","topMostParentId":"490G00009360","towards":"Northumberland Park Or Edmonton"},{"icsId":"1013738","id":"490013738N","lat":51.60202,"lon":-0.06791,"name":"Tottenham Sports Centre","parentId":"490G00013738","stationId":"490G00013738","stopLetter":"S","topMostParentId":"490G00013738","towards":"Edmonton Green"},{"icsId":"1013733","id":"490013733R","lat":51.60367,"lon":-0.06807,"name":"Tottenham Hotspur Football Club","parentId":"490G00013733","stationId":"490G00013733","stopLetter":"T","topMostParentId":"490G00013733","towards":"Edmonton Green"},{"icsId":"1001335","id":"490001335S","lat":51.60509,"lon":-0.06827,"name":"White Hart Lane Station","stopLetter":"U","topMostParentId":"490001335S","towards":"Edmonton Green"},{"icsId":"1004262","id":"490004262C","lat":51.60823,"lon":-0.06788,"name":"Brantwood Road","parentId":"490G00004262","stationId":"490G00004262","stopLetter":"V","topMostParentId":"490G00004262","towards":"Edmonton Green"},{"icsId":"1005690","id":"490005690N","lat":51.60976,"lon":-0.06638,"name":"Nutfield Close","parentId":"490G00005690","stationId":"490G00005690","stopLetter":"W","topMostParentId":"490G00005690","towards":"Ponders End"},{"icsId":"1005520","id":"490005520L","lat":51.61312,"lon":-0.06484,"name":"Colyton Way","parentId":"490G00005520","stationId":"490G00005520","stopLetter":"L","topMostParentId":"490G00005520","towards":"Ponders End"},{"icsId":"1003322","id":"490010801H","lat":51.61614,"lon":-0.06404,"name":"Angel Corner","parentId":"490G00003322","stationId":"490G00003322","stopLetter":"H","topMostParentId":"490G00003322","towards":"Ponders End"},{"icsId":"1010801","id":"490010801Z","lat":51.6178,"lon":-0.06341,"name":"Brettenham Road","topMostParentId":"490010801Z","towards":"Ponders End"},{"icsId":"1011968","id":"490011968N","lat":51.6209,"lon":-0.06212,"name":"Shrubbery Road","parentId":"490G00011968","stationId":"490G00011968","stopLetter":"L","topMostParentId":"490G00011968","towards":"Ponders End"},{"icsId":"1006445","id":"490006445B","lat":51.6227,"lon":-0.06157,"name":"Edmonton Police Station","parentId":"490G00006445","stationId":"490G00006445","stopLetter":"M","topMostParentId":"490G00006445","towards":"Bush Hill Park Or Ponders End"},{"icsId":"1001092","id":"490006442R","lat":51.62451,"lon":-0.06074,"name":"Edmonton Green Station","stopLetter":"N","topMostParentId":"490006442R","towards":"Ponders End Or Bush Hill Park"},{"icsId":"1009983","id":"490009983A","lat":51.62518,"lon":-0.05888,"name":"Edmonton Green Bus Station","parentId":"490G00009983","stationId":"490G00009983","stopLetter":"A","topMostParentId":"490G00009983"}]}]}