{"direction":"inbound","lineId":"15","lineName":"15","mode":"bus","stopPointSequences":[{"stopPoint":[{"icsId":"1000045","id":"490013766F","lat":51.50816,"lon":-0.12619,"name":"Charing Cross Stn  / Trafalgar Square","stopLetter":"F","topMostParentId":"490013766F","towards":"Euston Or St Paul's","zone":"1"},{"icsId":"1012247","id":"490012247A","lat":51.5104,"lon":-0.12182,"name":"Southampton Street / Covent Garden","parentId":"490G00012247","stationId":"490G00012247","stopLetter":"A","topMostParentId":"490G00012247","towards":"Fleet Street, Holborn Or Waterloo"},{"icsId":"1003191","id":"490003191D","lat":51.5127,"lon":-0.11859,"name":"Aldwych","parentId":"490G000385","stationId":"490G000385","stopLetter":"D","topMostParentId":"490G000385","towards":"Ludgate Circus"},{"icsId":"1011757","id":"490011757L","lat":51.51319,"lon":-0.1146,"name":"The Royal Courts of Justice","parentId":"490G000731","stationId":"490G000731","stopLetter":"L","topMostParentId":"490G000731","towards":"St Paul's"},{"icsId":"1006826","id":"490006826E","lat":51.51425,"lon":-0.10875,"name":"Fetter Lane","parentId":"490G00006826","stationId":"490G00006826","stopLetter":"->E","topMostParentId":"490G00006826","towards":"Bank, Clerkenwell Green Or Moorgate"},{"icsId":"1019205","id":"490012105HA","lat":51.51423,"lon":-0.10591,"name":"Ludgate Circus","parentId":"490G00019205","stationId":"490G00019205","stopLetter":"E","topMostParentId":"490G00019205","towards":"Bank, Clerkenwell Green Or Moorgate"},{"icsId":"1009443","id":"490009443G","lat":51.51395,"lon":-0.10189,"name":"Ludgate Hill / Old Bailey","parentId":"490G00009443","stationId":"490G00009443","stopLetter":"G","topMostParentId":"490G00009443","towards":"Bank, Monument Or Moorgate"},{"icsId":"1012873","id":"490012873A","lat":51.51319,"lon":-0.09763,"name":"St Paul's Cathedral","parentId":"490G00012873","stationId":"490G00012873","stopLetter":"SK","topMostParentId":"490G00012873","towards":"Bank, Monument Or Moorgate"},{"icsId":"1000143","id":"490000143E","lat":51.51267,"lon":-0.09488,"name":"Mansion House Station","stopLetter":"ME","topMostParentId":"490000143E","towards":"Liverpool Street Or Monument","zone":"1"},{"icsId":"1000040","id":"490000040B","lat":51.51192,"lon":-0.09106,"name":"Cannon Street Station","stopLetter":"MB","topMostParentId":"490000040B","towards":"Aldgate Or London Bridge","zone":"1"},{"icsId":"1000148","id":"490000148K","lat":51.51077,"lon":-0.08493,"name":"Monument Station","stopLetter":"H","topMostParentId":"490000148K","towards":"Aldgate","zone":"1"},{"icsId":"1007418","id":"490007418E","lat":51.50992,"lon":-0.08117,"name":"Great Tower Street","parentId":"490G000541","stationId":"490G000541","stopLetter":"TU","topMostParentId":"490G000541","towards":"Aldgate"},{"icsId":"1013573","id":"490013573W","lat":51.50969,"lon":-0.07591,"name":"Tower of London","parentId":"490G000795","stationId":"490G000795","stopLetter":"TB","topMostParentId":"490G000795","towards":"Limehouse"},{"icsId":"1003184","id":"490003184L","lat":51.51386,"lon":-0.07532,"name":"Aldgate Bus Station","parentId":"490G000384","stationId":"490G000384","stopLetter":"L","topMostParentId":"490G000384","towards":"Limehouse, Shoreditch Or Whitechapel"},{"icsId":"1000004","id":"490000004Z","lat":51.51532,"lon":-0.07024,"name":"Aldgate East Station","stopLetter":"H","topMostParentId":"490000004Z","towards":"Limehouse","zone":"1"},{"icsId":"1009276","id":"490009276E","lat":51.51495,"lon":-0.06661,"name":"Henriques Street","parentId":"490G00009276","stationId":"490G00009276","stopLetter":"P","topMostParentId":"490G00009276","towards":"Limehouse"},{"icsId":"1010255","id":"490010255E","lat":51.51484,"lon":-0.06268,"name":"New Road","parentId":"490G00010255","stationId":"490G00010255","stopLetter":"Q","topMostParentId":"490G00010255","towards":"Limehouse"},{"icsId":"1014308","id":"490014308F","lat":51.51447,"lon":-0.05605,"name":"Watney Market","parentId":"490G00014308","stationId":"490G00014308","stopLetter":"F","topMostParentId":"490G00014308","towards":"Poplar Or Canary Wharf"},{"icsId":"1012782","id":"490012782E","lat":51.51418,"lon":-0.05234,"name":"St Mary's & St Michael's Church","parentId":"490G00012782","stationId":"490G00012782","topMostParentId":"490G00012782","towards":"Poplar Or Canary Wharf"},{"icsId":"1003353","id":"490003353E","lat":51.51349,"lon":-0.04796,"name":"Arbour Square","parentId":"490G00003353","stationId":"490G00003353","stopLetter":"->E","topMostParentId":"490G00003353","towards":"Poplar Or Canary Wharf"},{"icsId":"1012669","id":"490012669E","lat":51.51328,"lon":-0.04467,"name":"Stepney Methodist Church","parentId":"490G00012669","stationId":"490G00012669","stopLetter":"LA","topMostParentId":"490G00012669","towards":"Poplar Or Canary Wharf"},{"icsId":"1001180","id":"490001180E","lat":51.51284,"lon":-0.04024,"name":"Limehouse Station","stopLetter":"LB","topMostParentId":"490001180E","towards":"Poplar Or Canary Wharf","zone":"2"},{"icsId":"1009403","id":"490009403E","lat":51.51259,"lon":-0.03471,"name":"Lowell Street","parentId":"490G00009403","stationId":"490G00009403","stopLetter":"LC","topMostParentId":"490G00009403","towards":"Poplar Or Canary Wharf"},{"icsId":"1011873","id":"490011873E","lat":51.51247,"lon":-0.03254,"name":"Salmon Lane","parentId":"490G00011873","stationId":"490G00011873","stopLetter":"LD","topMostParentId":"490G00011873","towards":"Poplar Or Canary Wharf"},{"icsId":"1009158","id":"490009158E","lat":51.51245,"lon":-0.02992,"name":"Burdett Road","parentId":"490G000639","stationId":"490G000639","stopLetter":"LE","topMostParentId":"490G000639","towards":"Poplar Or Canary Wharf"},{"icsId":"1013965","id":"490013965E","lat":51.51146,"lon":-0.02512,"name":"University of Cumbria In London","parentId":"490G00013965","stationId":"490G00013965","stopLetter":"WS","topMostParentId":"490G00013965","towards":"Canning Town Or Crossharbour"},{"icsId":"1013936","id":"490013936E","lat":51.5109,"lon":-0.02141,"name":"Upper North Street","parentId":"490G00013936","stationId":"490G00013936","stopLetter":"C","topMostParentId":"490G00013936","towards":"Canning Town Or Crossharbour"},{"icsId":"1011114","id":"490011114BC","lat":51.51103,"lon":-0.01786,"name":"Poplar Recreation Grd / Poplar Stn","parentId":"490G00011114","stationId":"490G00011114","stopLetter":"D","topMostParentId":"490G00011114","towards":"Canning Town Or Crossharbour"},{"icsId":"1002267","id":"490015270B","lat":51.5112,"lon":-0.0149,"name":"Chrisp Street Market / All Saints Dlr","parentId":"490G00002267","stationId":"490G00002267","stopLetter":"B","topMostParentId":"490G00002267","towards":"Canning Town Or Crossharbour"},{"icsId":"1011107","id":"490011107G","lat":51.51089,"lon":-0.01232,"name":"Poplar / All Saints Church","parentId":"490G000708","stationId":"490G000708","stopLetter":"G","topMostParentId":"490G000708","towards":"Canary Wharf Or Island Gardens"},{"icsId":"1011111","id":"490011111T","lat":51.50883,"lon":-0.01078,"name":"Poplar High Street / Blackwall","parentId":"490G00011111","stationId":"490G00011111","stopLetter":"T","topMostParentId":"490G00011111","towards":"Canary Wharf, Crossharbour Or Island Gardens"},{"icsId":"1002018","id":"490002018AP","lat":51.50829,"lon":-0.00697,"name":"Blackwall Station","stopLetter":"AP","topMostParentId":"490002018AP","zone":"2"}]}]}