{"direction":"inbound","lineId":"152","lineName":"152","mode":"bus","stopPointSequences":[{"stopPoint":[{"icsId":"1010235","id":"490010235F","lat":51.39887,"lon":-0.25355,"name":"Walton Avenue","parentId":"490G000677","stationId":"490G000677","stopLetter":"F","topMostParentId":"490G000677","towards":"Kingston Vale Or Raynes Park"},{"icsId":"1011348","id":"490011348E","lat":51.39909,"lon":-0.25013,"name":"Queens Road","parentId":"490G00011348","stationId":"490G00011348","stopLetter":"A","topMostParentId":"490G00011348","towards":"Kingston Vale Or Raynes Park"},{"icsId":"1011674","id":"490011674E","lat":51.39942,"lon":-0.24437,"name":"Shannon Corner / Rookwood Avenue","parentId":"490G00011674","stationId":"490G00011674","stopLetter":"B","topMostParentId":"490G00011674","towards":"Raynes Park Or Kingston Vale"},{"icsId":"1019730","id":"490012037N","lat":51.40105,"lon":-0.24234,"name":"Shannon Corner / Beverley Way","parentId":"490G00019730","stationId":"490G00019730","stopLetter":"H","topMostParentId":"490G00019730","towards":"Raynes Park Or Kingston Vale"},{"icsId":"1004832","id":"490004832E","lat":51.40488,"lon":-0.23719,"name":"Carters Bridge","parentId":"490G00004832","stationId":"490G00004832","stopLetter":"L","topMostParentId":"490G00004832","towards":"Wimbledon Chase"},{"icsId":"1004647","id":"490004647E","lat":51.40719,"lon":-0.23079,"name":"Bushey Road / Grand Drive","parentId":"490G00004647","stationId":"490G00004647","stopLetter":"M","topMostParentId":"490G00004647","towards":"Wimbledon Chase"},{"icsId":"1001237","id":"490001237F","lat":51.40902,"lon":-0.22944,"name":"Raynes Park Station","stopLetter":"P","topMostParentId":"490001237F","towards":"Wimbledon Chase"},{"icsId":"1011454","id":"490011454H","lat":51.40994,"lon":-0.22599,"name":"Raynes Park Library","parentId":"490G00011454","stationId":"490G00011454","stopLetter":"Q","topMostParentId":"490G00011454","towards":"Colliers Wood Or Wimbledon"},{"icsId":"1013134","id":"490013134E","lat":51.41051,"lon":-0.22174,"name":"Sydney Road","parentId":"490G00013134","stationId":"490G00013134","stopLetter":"MQ","topMostParentId":"490G00013134","towards":"Colliers Wood Or Wimbledon"},{"icsId":"1009412","id":"490009412S","lat":51.41051,"lon":-0.21729,"name":"Lower Downs Road","parentId":"490G00009412","stationId":"490G00009412","stopLetter":"MS","topMostParentId":"490G00009412","towards":"Colliers Wood Or Wimbledon"},{"icsId":"1001339","id":"490001339A","lat":51.40964,"lon":-0.21291,"name":"Wimbledon Chase Station","stopLetter":"MT","topMostParentId":"490001339A","towards":"Colliers Wood, Morden Or Wimbledon"},{"icsId":"1010168","id":"490010168E","lat":51.41044,"lon":-0.21063,"name":"The Nelson Health Centre","parentId":"490G00010168","stationId":"490G00010168","stopLetter":"MU","topMostParentId":"490G00010168","towards":"Colliers Wood, Morden Or Wimbledon"},{"icsId":"1010057","id":"490010057E","lat":51.41259,"lon":-0.20668,"name":"Wilton Crescent","parentId":"490G00010057","stationId":"490G00010057","stopLetter":"MV","topMostParentId":"490G00010057","towards":"Colliers Wood, Morden Or Wimbledon"},{"icsId":"1002057","id":"490002057C","lat":51.41509,"lon":-0.20015,"name":"Merton Park Tram Stop","stopLetter":"MC","topMostParentId":"490002057C","towards":"Mitcham"},{"icsId":"1014733","id":"490014733E","lat":51.41543,"lon":-0.19813,"name":"Wimbledon Fire Station","parentId":"490G00014733","stationId":"490G00014733","stopLetter":"SP","topMostParentId":"490G00014733","towards":"Mitcham"},{"icsId":"1010023","id":"490010023K","lat":51.41564,"lon":-0.19347,"name":"Morden Road","parentId":"490G00010023","stationId":"490G00010023","stopLetter":"SK","topMostParentId":"490G00010023","towards":"Mitcham"},{"icsId":"1000216","id":"490000216D","lat":51.41572,"lon":-0.19051,"name":"South Wimbledon Station","stopLetter":"SZ","topMostParentId":"490000216D","towards":"Mitcham Or Tooting","zone":"3+4"},{"icsId":"1007938","id":"490007938F","lat":51.41611,"lon":-0.18536,"name":"Abbey Road","parentId":"490G00007938","stationId":"490G00007938","stopLetter":"SH","topMostParentId":"490G00007938","towards":"Mitcham Or Tooting"},{"icsId":"1009830","id":"490009830E","lat":51.41642,"lon":-0.18153,"name":"Merton Abbey","parentId":"490G00009830","stationId":"490G00009830","stopLetter":"E","topMostParentId":"490G00009830","towards":"Mitcham Or Tooting"},{"icsId":"1000055","id":"490015237B","lat":51.41765,"lon":-0.17795,"name":"Colliers Wood Station","stopLetter":"B","topMostParentId":"490015237B","towards":"Mitcham","zone":"3"},{"icsId":"1005223","id":"490005223K","lat":51.41598,"lon":-0.17807,"name":"Christ Church","parentId":"490G00005223","stationId":"490G00005223","stopLetter":"K","topMostParentId":"490G00005223","towards":"Mitcham Or Morden"},{"icsId":"1011789","id":"490011789H","lat":51.4133,"lon":-0.17851,"name":"Runnymede","parentId":"490G00011789","stationId":"490G00011789","stopLetter":"H","topMostParentId":"490G00011789","towards":"Mitcham"},{"icsId":"1005068","id":"490005068E","lat":51.41142,"lon":-0.17493,"name":"Chelsea Fields","parentId":"490G00005068","stationId":"490G00005068","stopLetter":"->E","topMostParentId":"490G00005068","towards":"Pollards Hill"},{"icsId":"1009003","id":"490009003E","lat":51.41082,"lon":-0.17301,"name":"Lavender Avenue","parentId":"490G00009003","stationId":"490G00009003","stopLetter":"->E","topMostParentId":"490G00009003","towards":"Pollards Hill"},{"icsId":"1009119","id":"490009119E","lat":51.40824,"lon":-0.16982,"name":"Lewis Road","parentId":"490G00009119","stationId":"490G00009119","topMostParentId":"490G00009119","towards":"Pollards Hill"},{"icsId":"1023121","id":"490011847F","lat":51.40665,"lon":-0.16739,"name":"Love Lane","parentId":"490G00023121","stationId":"490G00023121","stopLetter":"C","topMostParentId":"490G00023121","towards":"Pollards Hill"},{"icsId":"1009949","id":"490009949Z","lat":51.40679,"lon":-0.1639,"name":"Mitcham Fair Green","parentId":"490G00009949","stationId":"490G00009949","stopLetter":"D","topMostParentId":"490G00009949","towards":"Pollards Hill, Streatham Or Tooting"},{"icsId":"1006171","id":"490006164A","lat":51.40808,"lon":-0.16339,"name":"Downe Road / Mitcham Library","parentId":"490G00006171","stationId":"490G00006171","stopLetter":"A","topMostParentId":"490G00006171","towards":"Pollards Hill, Streatham Or Tooting"},{"icsId":"1013565","id":"490013565N1","lat":51.41027,"lon":-0.16209,"name":"Eveline Road","parentId":"490G00013565","stationId":"490G00013565","stopLetter":"C","topMostParentId":"490G00013565","towards":"Pollards Hill, Streatham Or Tooting"},{"icsId":"1016801","id":"490016801S","lat":51.40934,"lon":-0.15924,"name":"Locks Lane","parentId":"490G00016801","stationId":"490G00016801","stopLetter":"P","topMostParentId":"490G00016801","towards":"Pollards Hill"},{"icsId":"1016231","id":"490016231S","lat":51.40814,"lon":-0.15533,"name":"Eastfields Rd / Mitcham Eastfields Stn","parentId":"490G00016231","stationId":"490G00016231","stopLetter":"R","topMostParentId":"490G00016231","towards":"Pollards Hill"},{"icsId":"1001555","id":"490006350N","lat":51.40842,"lon":-0.15401,"name":"Mitcham Eastfields Station","stopLetter":"S","topMostParentId":"490006350N","towards":"Pollards Hill"},{"icsId":"1016162","id":"490016162N","lat":51.40948,"lon":-0.15197,"name":"St Mark's C of E Academy Playing Fields","parentId":"490G00016162","stationId":"490G00016162","topMostParentId":"490G00016162","towards":"Pollards Hill"},{"icsId":"1016815","id":"490016815E","lat":51.40991,"lon":-0.14838,"name":"Clay Avenue","parentId":"490G00016815","stationId":"490G00016815","topMostParentId":"490G00016815","towards":"Pollards Hill"},{"icsId":"1016230","id":"490016150E","lat":51.4091,"lon":-0.14596,"name":"Warminster Way","parentId":"490G00016230","stationId":"490G00016230","stopLetter":"->E","topMostParentId":"490G00016230","towards":"Pollards Hill"},{"icsId":"1016816","id":"490016816E","lat":51.41001,"lon":-0.14361,"name":"Meopham Road / Woodstock Way","parentId":"490G00016816","stationId":"490G00016816","stopLetter":"VC","topMostParentId":"490G00016816","towards":"Pollards Hill"},{"icsId":"1012930","id":"490012930S","lat":51.40848,"lon":-0.14221,"name":"Streatham Park Cemetery","parentId":"490G00012930","stationId":"490G00012930","stopLetter":"VP","topMostParentId":"490G00012930","towards":"Mitcham Or Pollards Hill"},{"icsId":"1011758","id":"490011739S","lat":51.40587,"lon":-0.13903,"name":"Rosemead Avenue","parentId":"490G000049","stationId":"490G000049","stopLetter":"VQ","topMostParentId":"490G000049","towards":"Morden Or Thornton Heath"},{"icsId":"1010321","id":"490010321L","lat":51.40358,"lon":-0.13632,"name":"Northborough Road","parentId":"490G00010321","stationId":"490G00010321","stopLetter":"L","topMostParentId":"490G00010321","towards":"Thornton Heath"},{"icsId":"1008527","id":"490008527J","lat":51.40195,"lon":-0.13481,"name":"Ivy Gardens","parentId":"490G00008527","stationId":"490G00008527","stopLetter":"J","topMostParentId":"490G00008527","towards":"Thornton Heath"},{"icsId":"1005148","id":"490005148H","lat":51.39989,"lon":-0.13209,"name":"Pollards Hill Library","parentId":"490G00005148","stationId":"490G00005148","stopLetter":"H","topMostParentId":"490G00005148","towards":"Thornton Heath"},{"icsId":"1016323","id":"490016323E","lat":51.39893,"lon":-0.12809,"name":"South Lodge Avenue / Yorkshire Road","parentId":"490G00016323","stationId":"490G00016323","stopLetter":"U","topMostParentId":"490G00016323","towards":"Eastfields Or Streatham"}]}]}