{"direction":"inbound","lineId":"153","lineName":"153","mode":"bus","stopPointSequences":[{"stopPoint":[{"icsId":"1000138","id":"490000138LS","lat":51.518,"lon":-0.08259,"name":"Liverpool Street Station","stopLetter":"B","topMostParentId":"490000138LS","towards":"Bank","zone":"1"},{"icsId":"1000149","id":"490000149B","lat":51.51862,"lon":-0.08817,"name":"Moorgate Station","stopLetter":"B","topMostParentId":"490000149B","towards":"Barbican Or Old Street","zone":"1"},{"icsId":"1003831","id":"490003831W","lat":51.52069,"lon":-0.08913,"name":"Finsbury Street","parentId":"490G00003831","stationId":"490G00003831","stopLetter":"S","topMostParentId":"490G00003831","towards":"Angel Islington"},{"icsId":"1003824","id":"490003824W","lat":51.52095,"lon":-0.0918,"name":"Silk Street","parentId":"490G00003824","stationId":"490G00003824","stopLetter":"BM","topMostParentId":"490G00003824","towards":"Angel Islington"},{"icsId":"1000014","id":"490000014A","lat":51.5203,"lon":-0.0977,"name":"Barbican Station","stopLetter":"BA","topMostParentId":"490000014A","towards":"Angel Islington Or Sadler's Wells","zone":"1"},{"icsId":"1019002","id":"490003573N","lat":51.52285,"lon":-0.09804,"name":"Clerkenwell Road / Old Street","parentId":"490G00019002","stationId":"490G00019002","stopLetter":"BQ","topMostParentId":"490G00019002","towards":"Angel Islington Or Sadler's Wells"},{"icsId":"1012745","id":"490012745W","lat":51.52261,"lon":-0.10114,"name":"Clerkenwell Road / St John Street","parentId":"490G00012745","stationId":"490G00012745","stopLetter":"->W","topMostParentId":"490G00012745","towards":"Holborn Or Angel Islington"},{"icsId":"1003525","id":"490003525N","lat":51.52374,"lon":-0.10279,"name":"Aylesbury Street","parentId":"490G00003525","stationId":"490G00003525","stopLetter":"->N","topMostParentId":"490G00003525","towards":"Angel Islington"},{"icsId":"1015106","id":"490015106N","lat":51.52528,"lon":-0.1041,"name":"Percival Street","parentId":"490G00015106","stationId":"490G00015106","stopLetter":"UJ","topMostParentId":"490G00015106","towards":"Angel Islington"},{"icsId":"1012388","id":"490012388N","lat":51.52738,"lon":-0.10475,"name":"Spencer Street / City University","parentId":"490G00012388","stationId":"490G00012388","stopLetter":"UK","topMostParentId":"490G00012388","towards":"Angel Islington"},{"icsId":"1011678","id":"490011678SA","lat":51.5295,"lon":-0.10496,"name":"Rosebery Avenue / Sadler's Wells Theatre","parentId":"490G00011678","stationId":"490G00011678","stopLetter":"UL","topMostParentId":"490G00011678","towards":"Barnsbury"},{"icsId":"1013229","id":"490013229P","lat":51.53141,"lon":-0.10628,"name":"St John Street / Goswell Road","parentId":"490G00013229","stationId":"490G00013229","stopLetter":"P","topMostParentId":"490G00013229","towards":"Barnsbury, Highbury Or Essex Road Station"},{"icsId":"1004983","id":"490004983V","lat":51.5344,"lon":-0.10805,"name":"Chapel Market","parentId":"490G00004983","stationId":"490G00004983","stopLetter":"V","topMostParentId":"490G00004983","towards":"Camden Town Or Holloway"},{"icsId":"1008516","id":"490008516W","lat":51.53403,"lon":-0.11093,"name":"Penton Street / Islington Police Station","parentId":"490G00008516","stationId":"490G00008516","stopLetter":"Z","topMostParentId":"490G00008516","towards":"Camden Town Or Holloway"},{"icsId":"1001693","id":"490005581N","lat":51.53552,"lon":-0.11132,"name":"Copenhagen Street","stopLetter":"G","topMostParentId":"490005581N","towards":"Camden Town Or Holloway"},{"icsId":"1011554","id":"490011554N","lat":51.53732,"lon":-0.11398,"name":"Hemingford Road","parentId":"490G00011554","stationId":"490G00011554","stopLetter":"U","topMostParentId":"490G00011554","towards":"Holloway Nags Head"},{"icsId":"1011592","id":"490011592N","lat":51.53934,"lon":-0.11377,"name":"Richmond Avenue","parentId":"490G00011592","stationId":"490G00011592","stopLetter":"V","topMostParentId":"490G00011592","towards":"Holloway Nags Head"},{"icsId":"1013415","id":"490013415N","lat":51.54285,"lon":-0.11345,"name":"The Hemingford Arms","parentId":"490G000786","stationId":"490G000786","stopLetter":"S","topMostParentId":"490G000786","towards":"Holloway Nags Head"},{"icsId":"1002379","id":"490010518N","lat":51.54439,"lon":-0.11088,"name":"Westbourne Road / Arundel Square","parentId":"490G00002379","stationId":"490G00002379","stopLetter":"W","topMostParentId":"490G00002379","towards":"Holloway Nags Head"},{"icsId":"1004316","id":"490004316N","lat":51.54572,"lon":-0.11202,"name":"Ellington Street","parentId":"490G00004316","stationId":"490G00004316","stopLetter":"X","topMostParentId":"490G00004316","towards":"Holloway Nags Head"},{"icsId":"1008597","id":"490014401N","lat":51.54768,"lon":-0.11422,"name":"Westbourne Road / Jupiter Way","parentId":"490G00008597","stationId":"490G00008597","stopLetter":"B","topMostParentId":"490G00008597","towards":"Holloway Nags Head"},{"icsId":"1009377","id":"490009377N","lat":51.54885,"lon":-0.11336,"name":"Lough Road","parentId":"490G00009377","stationId":"490G00009377","stopLetter":"Y","topMostParentId":"490G00009377","towards":"Holloway Nags Head"},{"icsId":"1009226","id":"490015355N","lat":51.54943,"lon":-0.11158,"name":"Lowther Road","parentId":"490G00009226","stationId":"490G00009226","stopLetter":"SR","topMostParentId":"490G00009226","towards":"Holloway Nags Head"},{"icsId":"1009224","id":"490009224Y","lat":51.55142,"lon":-0.11097,"name":"Liverpool Road","parentId":"490G00009224","stationId":"490G00009224","stopLetter":"SV","topMostParentId":"490G00009224","towards":"Holloway Nags Head"},{"icsId":"1000114","id":"490000114U","lat":51.55289,"lon":-0.11282,"name":"Holloway Road Station","stopLetter":"SU","topMostParentId":"490000114U","towards":"Finsbury Park, Archway Or Kentish Town","zone":"2"},{"icsId":"1004720","id":"490004720T","lat":51.55532,"lon":-0.11603,"name":"Camden Road","parentId":"490G00004720","stationId":"490G00004720","stopLetter":"T","topMostParentId":"490G00004720","towards":"Finsbury Park, Archway Or Kentish Town"},{"icsId":"1008296","id":"490008296L","lat":51.55632,"lon":-0.11752,"name":"Holloway / Nags Head","parentId":"490G00008296","stationId":"490G00008296","stopLetter":"L","topMostParentId":"490G00008296","towards":"Archway Or Finsbury Park"},{"icsId":"1019152","id":"490019152ZZ","lat":51.55903,"lon":-0.11741,"name":"Seven Sisters Road / Nags Head","parentId":"490G00019152","stationId":"490G00019152","stopLetter":"->N","topMostParentId":"490G00019152","towards":"Finsbury Park Or Hornsey Rise"},{"icsId":"1008367","id":"490008367J","lat":51.55981,"lon":-0.11595,"name":"Hornsey Road","parentId":"490G00008367","stationId":"490G00008367","stopLetter":"NP","topMostParentId":"490G00008367","towards":"Finsbury Park Or Hornsey Rise"},{"icsId":"1006272","id":"490006272E","lat":51.56208,"lon":-0.11094,"name":"Durham Road","parentId":"490G00006272","stationId":"490G00006272","stopLetter":"NT","topMostParentId":"490G00006272","towards":"Manor House Or Highbury"},{"icsId":"1006891","id":"490000083X","lat":51.56317,"lon":-0.10795,"name":"Fonthill Road","parentId":"490G00006891","stationId":"490G00006891","stopLetter":"X","topMostParentId":"490G00006891","towards":"Manor House Or Highbury Corner"},{"icsId":"1000083","id":"490000083R","lat":51.564,"lon":-0.10624,"name":"Finsbury Park Station","stopLetter":"R","topMostParentId":"490000083R","towards":"Manor House Or Highbury Corner","zone":"2"},{"icsId":"1006849","id":"490000083AP","lat":51.56425,"lon":-0.10571,"name":"Finsbury Park Interchange","parentId":"490G000516","stationId":"490G000516","stopLetter":"AP","topMostParentId":"HUBFPK"}]}]}