{"direction":"inbound","lineId":"156","lineName":"156","mode":"bus","stopPointSequences":[{"stopPoint":[{"icsId":"1020252","id":"490000247E","lat":51.4853,"lon":-0.12445,"name":"Vauxhall Bus Station","stopLetter":"E","topMostParentId":"490000247E"},{"icsId":"1000714","id":"490014193Z","lat":51.48417,"lon":-0.12976,"name":"St George Wharf Pier","parentId":"490G000270","stationId":"490G000270","stopLetter":"Z","topMostParentId":"490G000270","towards":"Clapham Junction"},{"icsId":"1001274","id":"490006515S","lat":51.48271,"lon":-0.1337,"name":"United States Embassy","parentId":"490G000272","stationId":"490G000272","stopLetter":"D","topMostParentId":"490G000272","towards":"Clapham Junction"},{"icsId":"1005777","id":"490005777S","lat":51.48195,"lon":-0.13675,"name":"Riverlight Quay","parentId":"490G00005777","stationId":"490G00005777","stopLetter":"E","topMostParentId":"490G00005777","towards":"Clapham Junction"},{"icsId":"1002195","id":"490012196S","lat":51.47973,"lon":-0.14116,"name":"Battersea Power Station","stopLetter":"F","topMostParentId":"490012196S","towards":"Clapham Junction"},{"icsId":"1003686","id":"490003686S","lat":51.47839,"lon":-0.14458,"name":"Battersea Dogs & Cats Home","parentId":"490G00003686","stationId":"490G00003686","stopLetter":"H","topMostParentId":"490G00003686","towards":"Clapham Junction"},{"icsId":"1001016","id":"490001016B","lat":51.47678,"lon":-0.14714,"name":"Battersea Park Station","stopLetter":"B","topMostParentId":"490001016B","towards":"Clapham Junction"},{"icsId":"1001234","id":"490001234S","lat":51.47413,"lon":-0.14733,"name":"Queenstown Road Station","stopLetter":"L","topMostParentId":"490001234S","towards":"Clapham Common Or Clapham Junction"},{"icsId":"1012161","id":"490012161S2","lat":51.47256,"lon":-0.14849,"name":"Silverthorne Road","parentId":"490G00012161","stationId":"490G00012161","stopLetter":"T","topMostParentId":"490G00012161","towards":"Clapham Common Or Clapham Junction"},{"icsId":"1011163","id":"490011163S","lat":51.46972,"lon":-0.14964,"name":"Prairie Street","parentId":"490G00011163","stationId":"490G00011163","stopLetter":"U","topMostParentId":"490G00011163","towards":"Clapham Common Or Clapham Junction"},{"icsId":"1014192","id":"490014192S","lat":51.46672,"lon":-0.15051,"name":"Queenstown Road / Wandsworth Road","parentId":"490G00014192","stationId":"490G00014192","stopLetter":"V","topMostParentId":"490G00014192","towards":"Clapham Common Or Clapham Junction"},{"icsId":"1013681","id":"490013681S","lat":51.46565,"lon":-0.15513,"name":"Tipthorpe Road","parentId":"490G00013681","stationId":"490G00013681","stopLetter":"C","topMostParentId":"490G00013681","towards":"Battersea Bridge, Earlsfield Or Wandsworth"},{"icsId":"1010524","id":"490010524S","lat":51.46481,"lon":-0.15949,"name":"Battersea Arts Centre","parentId":"490G00010524","stationId":"490G00010524","stopLetter":"D","topMostParentId":"490G00010524","towards":"Battersea Bridge, Earlsfield Or Wandsworth"},{"icsId":"1009007","id":"490009007W","lat":51.46428,"lon":-0.16311,"name":"Lavender Hill Police Station","parentId":"490G00009007","stationId":"490G00009007","stopLetter":"E","topMostParentId":"490G00009007","towards":"Battersea Bridge, Earlsfield Or Wandsworth"},{"icsId":"1001069","id":"490001069M","lat":51.46339,"lon":-0.1687,"name":"Clapham Junction Station","stopLetter":"M","topMostParentId":"490001069M","towards":"Wandsworth"},{"icsId":"1011066","id":"490011066W","lat":51.462,"lon":-0.17268,"name":"Plough Road","parentId":"490G00011066","stationId":"490G00011066","stopLetter":"->W","topMostParentId":"490G00011066","towards":"Wandsworth"},{"icsId":"1004538","id":"490004538W","lat":51.46062,"lon":-0.17553,"name":"Brussels Road","parentId":"490G00004538","stationId":"490G00004538","stopLetter":"SA","topMostParentId":"490G00004538","towards":"Wandsworth"},{"icsId":"1009638","id":"490015372W","lat":51.45972,"lon":-0.17922,"name":"Marcilly Road","parentId":"490G00009638","stationId":"490G00009638","stopLetter":"SB","topMostParentId":"490G00009638","towards":"Wandsworth"},{"icsId":"1008418","id":"490008418W","lat":51.45782,"lon":-0.18352,"name":"Huguenot Place / Alma Road","parentId":"490G00008418","stationId":"490G00008418","stopLetter":"SH","topMostParentId":"490G00008418","towards":"Wandsworth"},{"icsId":"1008093","id":"490008093W","lat":51.45715,"lon":-0.18788,"name":"Herndon Road","parentId":"490G00008093","stationId":"490G00008093","stopLetter":"SJ","topMostParentId":"490G00008093","towards":"Roehampton, Putney Or Southfields"},{"icsId":"1014195","id":"490015546P","lat":51.45673,"lon":-0.19082,"name":"Wandsworth Town Hall","parentId":"490G00014195","stationId":"490G00014195","stopLetter":"P","topMostParentId":"490G00014195","towards":"Southfields, Putney Or Roehampton"},{"icsId":"1014184","id":"490014184U","lat":51.45684,"lon":-0.19356,"name":"Wandsworth / Southside","parentId":"490G00014184","stationId":"490G00014184","stopLetter":"U","topMostParentId":"490G00014184","towards":"Southfields"},{"icsId":"1019402","id":"490019402S","lat":51.45523,"lon":-0.19678,"name":"King George's Park","parentId":"490G00019402","stationId":"490G00019402","stopLetter":"H","topMostParentId":"490G00019402","towards":"Southfields"},{"icsId":"1004492","id":"490004492S","lat":51.4536,"lon":-0.1971,"name":"Broomhill Road","parentId":"490G00004492","stationId":"490G00004492","stopLetter":"->S","topMostParentId":"490G00004492","towards":"Southfields"},{"icsId":"1013493","id":"490013493S","lat":51.45019,"lon":-0.19938,"name":"The Park Tavern","parentId":"490G00013493","stationId":"490G00013493","stopLetter":"M","topMostParentId":"490G00013493","towards":"Southfields Or Wimbledon Park"},{"icsId":"1012532","id":"490012532S","lat":51.44705,"lon":-0.19867,"name":"Standen Road","parentId":"490G00012532","stationId":"490G00012532","stopLetter":"N","topMostParentId":"490G00012532","towards":"Wimbledon Park"},{"icsId":"1004485","id":"490004485S","lat":51.44369,"lon":-0.19763,"name":"Southfields Academy","parentId":"490G00004485","stationId":"490G00004485","stopLetter":"P","topMostParentId":"490G00004485","towards":"Wimbledon"},{"icsId":"1010930","id":"490010930S","lat":51.44133,"lon":-0.19699,"name":"Penwith Road","parentId":"490G00010930","stationId":"490G00010930","stopLetter":"R","topMostParentId":"490G00010930","towards":"Wimbledon"},{"icsId":"1007311","id":"490007311S","lat":51.43872,"lon":-0.19725,"name":"Gordondale Road","parentId":"490G00007311","stationId":"490G00007311","stopLetter":"Q","topMostParentId":"490G00007311","towards":"Wimbledon"},{"icsId":"1014736","id":"490014736S1","lat":51.43611,"lon":-0.19674,"name":"Wimbledon Park / Arthur Road","parentId":"490G000836","stationId":"490G000836","stopLetter":"R","topMostParentId":"490G000836","towards":"Wimbledon"},{"icsId":"1011030","id":"490011030S","lat":51.43065,"lon":-0.19244,"name":"Pitt Crescent","parentId":"490G00011030","stationId":"490G00011030","stopLetter":"HP","topMostParentId":"490G00011030","towards":"Wimbledon"},{"icsId":"1011060","id":"490011060D","lat":51.42835,"lon":-0.19077,"name":"Plough Lane","parentId":"490G00011060","stationId":"490G00011060","stopLetter":"HQ","topMostParentId":"490G00011060","towards":"Wimbledon"},{"icsId":"1003515","id":"490003515W","lat":51.42774,"lon":-0.19455,"name":"Avondale Road","parentId":"490G00003515","stationId":"490G00003515","stopLetter":"HR","topMostParentId":"490G00003515","towards":"Wimbledon Village"},{"icsId":"1012910","id":"490012910W","lat":51.42634,"lon":-0.20089,"name":"Strathearn Road","parentId":"490G00012910","stationId":"490G00012910","stopLetter":"HS","topMostParentId":"490G00012910","towards":"Wimbledon Or Wimbledon Village"},{"icsId":"1014735","id":"490014735W","lat":51.42363,"lon":-0.20405,"name":"Wimbledon Magistrates Court","parentId":"490G00014735","stationId":"490G00014735","stopLetter":"->W","topMostParentId":"490G00014735","towards":"Wimbledon Or Wimbledon Village"},{"icsId":"1019043","id":"490014734B","lat":51.42181,"lon":-0.20697,"name":"Alexandra Road / Wimbledon","parentId":"490G000930","stationId":"490G000930","stopLetter":"B","topMostParentId":"HUBWIM","towards":"Wimbledon Village"},{"icsId":"1000272","id":"490015472D","lat":51.42066,"lon":-0.20543,"name":"Wimbledon Station","stopLetter":"D","topMostParentId":"490015472D","towards":"Colliers Wood, Morden Or Wimbledon Chase","zone":"3"}]}]}