{"direction":"inbound","lineId":"162","lineName":"162","mode":"bus","stopPointSequences":[{"stopPoint":[{"icsId":"1018704","id":"490001097A","lat":51.45503,"lon":0.05208,"name":"Eltham Bus Station","parentId":"490G000923","stationId":"490G000923","stopLetter":"A","topMostParentId":"490G000923"},{"icsId":"1018654","id":"490006532E","lat":51.45377,"lon":0.0516,"name":"Eltham Station  / Lassa Road","parentId":"490G00018654","stationId":"490G00018654","stopLetter":"E","topMostParentId":"490G00018654","towards":"Bexleyheath, Chislehurst Or Sidcup"},{"icsId":"1018570","id":"490006537G","lat":51.45139,"lon":0.05228,"name":"Eltham Church / Well Hall Road","parentId":"490G00018570","stationId":"490G00018570","stopLetter":"G","topMostParentId":"490G00018570","towards":"Bexleyheath, Chislehurst Or Sidcup"},{"icsId":"1006533","id":"490006537O","lat":51.45076,"lon":0.05552,"name":"Eltham High Street / Roper Street","parentId":"490G00006533","stationId":"490G00006533","stopLetter":"O","topMostParentId":"490G00006533","towards":"Blackfen, Falconwood Or New Eltham"},{"icsId":"1006547","id":"490006534Z","lat":51.45089,"lon":0.0591,"name":"Eltham High Street / Pound Place","parentId":"490G00006547","stationId":"490G00006547","stopLetter":"S","topMostParentId":"490G00006547","towards":"Blackfen, Falconwood Or New Eltham"},{"icsId":"1006555","id":"490006548E","lat":51.45087,"lon":0.06183,"name":"Eltham High Street / Westmount Road","parentId":"490G00006555","stationId":"490G00006555","stopLetter":"V","topMostParentId":"490G00006555","towards":"Bexley, Sidcup Or Chislehurst"},{"icsId":"1007227","id":"490007227E","lat":51.45176,"lon":0.06727,"name":"Bexley Road / Glenesk Road","parentId":"490G00007227","stationId":"490G00007227","stopLetter":"AH","topMostParentId":"490G00007227","towards":"Bexley, Sidcup Or Chislehurst"},{"icsId":"1003505","id":"490003505E","lat":51.4518,"lon":0.07569,"name":"University of Greenwich / Mansion Site","parentId":"490G00003505","stationId":"490G00003505","stopLetter":"AJ","topMostParentId":"490G00003505","towards":"Bexley, Sidcup Or Chislehurst"},{"icsId":"1011582","id":"490011582E","lat":51.45108,"lon":0.07927,"name":"Riefield Road","parentId":"490G00011582","stationId":"490G00011582","stopLetter":"AK","topMostParentId":"490G00011582","towards":"Bexley, Sidcup Or Chislehurst"},{"icsId":"1018996","id":"490003506S","lat":51.44764,"lon":0.08139,"name":"University of Greenwich / Southwood Site","parentId":"490G00018996","stationId":"490G00018996","stopLetter":"AN","topMostParentId":"490G00018996","towards":"Chislehurst Or Sidcup"},{"icsId":"1003507","id":"490003507S","lat":51.44465,"lon":0.08154,"name":"Avery Hill Road / Halfway Street","parentId":"490G00003507","stationId":"490G00003507","stopLetter":"AU","topMostParentId":"490G00003507","towards":"Chislehurst"},{"icsId":"1012146","id":"490012146S1","lat":51.44133,"lon":0.07949,"name":"Sidewood Road","parentId":"490G00012146","stationId":"490G00012146","stopLetter":"AV","topMostParentId":"490G00012146","towards":"Chislehurst"},{"icsId":"1009809","id":"490009809S","lat":51.43907,"lon":0.07485,"name":"Merchland Road","parentId":"490G00009809","stationId":"490G00009809","stopLetter":"K","topMostParentId":"490G00009809","towards":"Chislehurst"},{"icsId":"1001205","id":"490001205E","lat":51.43662,"lon":0.07063,"name":"New Eltham Station  / Southwood Road","stopLetter":"L","topMostParentId":"490001205E","towards":"Chislehurst Or Elmstead Woods"},{"icsId":"1013318","id":"490013318W","lat":51.43509,"lon":0.06496,"name":"Fiveways","parentId":"490G00013318","stationId":"490G00013318","stopLetter":"M","topMostParentId":"490G00013318","towards":"Chislehurst Or Elmstead Woods"},{"icsId":"1014696","id":"490014696S","lat":51.43286,"lon":0.06403,"name":"William Barefoot Drive","parentId":"490G00014696","stationId":"490G00014696","stopLetter":"P","topMostParentId":"490G00014696","towards":"Bromley Or Sidcup"},{"icsId":"1009996","id":"490009996S","lat":51.43024,"lon":0.06408,"name":"Montbelle Road","parentId":"490G00009996","stationId":"490G00009996","stopLetter":"->S","topMostParentId":"490G00009996","towards":"Bromley Or Sidcup"},{"icsId":"1006104","id":"490006103E","lat":51.42578,"lon":0.06532,"name":"Edgebury / Domonic Drive","parentId":"490G00006104","stationId":"490G00006104","stopLetter":"P","topMostParentId":"490G00006104","towards":"Bromley Or Sidcup"},{"icsId":"1009995","id":"490009995N","lat":51.42889,"lon":0.06634,"name":"Shallons Road","parentId":"490G00009995","stationId":"490G00009995","stopLetter":"R","topMostParentId":"490G00009995","towards":"Bromley"},{"icsId":"1004516","id":"490004516S","lat":51.43123,"lon":0.07356,"name":"Brownspring Drive","parentId":"490G00004516","stationId":"490G00004516","stopLetter":"->S","topMostParentId":"490G00004516","towards":"Bromley"},{"icsId":"1012194","id":"490012194S","lat":51.42772,"lon":0.07619,"name":"Slades Drive","parentId":"490G00012194","stationId":"490G00012194","stopLetter":"->S","topMostParentId":"490G00012194","towards":"Bromley"},{"icsId":"1008474","id":"490008474S","lat":51.42606,"lon":0.07343,"name":"Belmont Lane / Imperial Way","parentId":"490G00008474","stationId":"490G00008474","stopLetter":"S","topMostParentId":"490G00008474","towards":"Bromley"},{"icsId":"1019033","id":"490003866S1","lat":51.42489,"lon":0.07266,"name":"Belmont Lane / Edgebury","parentId":"490G00019033","stationId":"490G00019033","stopLetter":"T","topMostParentId":"490G00019033","towards":"Bromley"},{"icsId":"1005198","id":"490005198D","lat":51.42092,"lon":0.06934,"name":"Chislehurst / Gordon Arms","parentId":"490G00005198","stationId":"490G00005198","stopLetter":"W","topMostParentId":"490G00005198","towards":"Bromley Or Sidcup"},{"icsId":"1009356","id":"490009356M","lat":51.41685,"lon":0.07009,"name":"Loop Road","parentId":"490G00009356","stationId":"490G00009356","stopLetter":"M","topMostParentId":"490G00009356","towards":"Bromley, Orpington Or Sidcup"},{"icsId":"1005205","id":"490005205P","lat":51.41302,"lon":0.07351,"name":"Centre Common Road / War Memorial","parentId":"490G00005205","stationId":"490G00005205","stopLetter":"P","topMostParentId":"490G00005205","towards":"Bromley, Petts Wood Or Sidcup"},{"icsId":"1005201","id":"490005201U","lat":51.41095,"lon":0.06947,"name":"Chislehurst Common","parentId":"490G00005201","stationId":"490G00005201","stopLetter":"U","topMostParentId":"490G00005201","towards":"Bromley"},{"icsId":"1004716","id":"490004716W","lat":51.40988,"lon":0.06594,"name":"Camden Park Road","parentId":"490G00004716","stationId":"490G00004716","stopLetter":"->W","topMostParentId":"490G00004716","towards":"Bromley"},{"icsId":"1003578","id":"490003578W","lat":51.40821,"lon":0.06294,"name":"Susan Wood","parentId":"490G00003578","stationId":"490G00003578","stopLetter":"F","topMostParentId":"490G00003578","towards":"Aquila Estate Or Bromley North"},{"icsId":"1001064","id":"490001064B","lat":51.4052,"lon":0.05975,"name":"Chislehurst Station","stopLetter":"B","topMostParentId":"490001064B","towards":"Aquila Estate Or Bromley North"},{"icsId":"1004054","id":"490004054W","lat":51.40191,"lon":0.05422,"name":"Blackbrook Lane","parentId":"490G00004054","stationId":"490G00004054","stopLetter":"D","topMostParentId":"490G00004054","towards":"Bromley North"},{"icsId":"1012692","id":"490012692W","lat":51.40161,"lon":0.0493,"name":"Bickley Park Road / St Georges Church","parentId":"490G00012692","stationId":"490G00012692","stopLetter":"H","topMostParentId":"490G00012692","towards":"Bromley North"},{"icsId":"1012254","id":"490012254A","lat":51.40148,"lon":0.04513,"name":"Southborough Road / Bickley Station","parentId":"490G000749","stationId":"490G000749","stopLetter":"A","topMostParentId":"490G000749","towards":"Bromley North"},{"icsId":"1004029","id":"490004029N","lat":51.40408,"lon":0.03879,"name":"Bird In Hand Lane","parentId":"490G00004029","stationId":"490G00004029","stopLetter":"L","topMostParentId":"490G00004029","towards":"Beckenham"},{"icsId":"1011046","id":"490011046W","lat":51.40616,"lon":0.03253,"name":"Plaistow Lane","parentId":"490G00011046","stationId":"490G00011046","stopLetter":"W","topMostParentId":"490G00011046","towards":"Beckenham"},{"icsId":"1014207","id":"490014207W","lat":51.40665,"lon":0.02838,"name":"Wanstead Road","parentId":"490G00014207","stationId":"490G00014207","stopLetter":"X","topMostParentId":"490G00014207","towards":"Beckenham"},{"icsId":"1007007","id":"490007007W","lat":51.40696,"lon":0.02497,"name":"Freelands Road","parentId":"490G00007007","stationId":"490G00007007","stopLetter":"Y","topMostParentId":"490G00007007","towards":"Beckenham"},{"icsId":"1004426","id":"490004426R","lat":51.40652,"lon":0.01979,"name":"Bromley / Widmore Road","parentId":"490G00004426","stationId":"490G00004426","stopLetter":"R","topMostParentId":"490G00004426","towards":"Beckenham"},{"icsId":"1008665","id":"490008665T","lat":51.40531,"lon":0.0188,"name":"Bromley Civic Centre","parentId":"490G00008665","stationId":"490G00008665","stopLetter":"T","topMostParentId":"490G00008665","towards":"Beckenham, Bromley Common Or Hayes"},{"icsId":"1006507","id":"4900006507W","lat":51.40197,"lon":0.01594,"name":"Bromley High Street / the Mall","parentId":"490G00006507","stationId":"490G00006507","stopLetter":"W","topMostParentId":"490G00006507","towards":"Beckenham Or Hayes"},{"icsId":"1001037","id":"490001037X","lat":51.40066,"lon":0.01694,"name":"Bromley South Station","stopLetter":"Y","topMostParentId":"490001037X","towards":"Beckenham Or Hayes"},{"icsId":"1012775","id":"4900012775K","lat":51.39858,"lon":0.0162,"name":"St Mark's Church","parentId":"490G00012775","stationId":"490G00012775","stopLetter":"K","topMostParentId":"490G00012775","towards":"Beckenham Or Hayes"},{"icsId":"1011304","id":"490011304L","lat":51.39752,"lon":0.0132,"name":"Queen Anne Avenue","parentId":"490G00011304","stationId":"490G00011304","stopLetter":"L","topMostParentId":"490G00011304","towards":"Beckenham Or Hayes"},{"icsId":"1004897","id":"490004897W","lat":51.3954,"lon":0.00843,"name":"Cumberland Road","parentId":"490G00004897","stationId":"490G00004897","stopLetter":"H","topMostParentId":"490G00004897","towards":"Beckenham Or Hayes"},{"icsId":"1004376","id":"490004376W","lat":51.39346,"lon":0.00447,"name":"Broadoaks Way","parentId":"490G00004376","stationId":"490G00004376","stopLetter":"J","topMostParentId":"490G00004376","towards":"Beckenham Or Hayes"},{"icsId":"1003644","id":"490003644W","lat":51.39223,"lon":0.00093,"name":"Westmoreland Road / Barnfield Wood Road","parentId":"490G00003644","stationId":"490G00003644","stopLetter":"K","topMostParentId":"490G00003644","towards":"Beckenham Or Hayes"},{"icsId":"1004224","id":"490004224N","lat":51.39555,"lon":-0.00338,"name":"Brabourne Rise","parentId":"490G00004224","stationId":"490G00004224","stopLetter":"PP","topMostParentId":"490G00004224","towards":"Beckenham Junction"},{"icsId":"1008844","id":"490008844N","lat":51.39692,"lon":-0.00453,"name":"Hayes Lane / Kingswood Road","parentId":"490G00008844","stationId":"490G00008844","stopLetter":"PQ","topMostParentId":"490G00008844","towards":"Beckenham Junction"},{"icsId":"1006029","id":"490006029N","lat":51.39821,"lon":-0.00657,"name":"Den Close","parentId":"490G00006029","stationId":"490G00006029","stopLetter":"PR","topMostParentId":"490G00006029","towards":"Beckenham Junction"},{"icsId":"1011958","id":"490011958W","lat":51.39906,"lon":-0.00959,"name":"Scotts Lane","parentId":"490G00011958","stationId":"490G00011958","stopLetter":"PS","topMostParentId":"490G00011958","towards":"Beckenham Or Elmers End"},{"icsId":"1008674","id":"490008674W","lat":51.39929,"lon":-0.01347,"name":"Kenwood Drive","parentId":"490G00008674","stationId":"490G00008674","stopLetter":"PT","topMostParentId":"490G00008674","towards":"Beckenham Or Elmers End"},{"icsId":"1013296","id":"490013296N","lat":51.39971,"lon":-0.01829,"name":"The Chinese Garage","parentId":"490G00013296","stationId":"490G00013296","stopLetter":"PU","topMostParentId":"490G00013296","towards":"Beckenham Junction"},{"icsId":"1010668","id":"490010668N","lat":51.40217,"lon":-0.01885,"name":"Overbury Avenue","parentId":"490G00010668","stationId":"490G00010668","stopLetter":"PV","topMostParentId":"490G00010668","towards":"Beckenham Junction"},{"icsId":"1004975","id":"490004975N1","lat":51.4057,"lon":-0.01986,"name":"Chancery Lane","parentId":"490G00004975","stationId":"490G00004975","stopLetter":"M","topMostParentId":"490G00004975","towards":"Beckenham Junction"},{"icsId":"1012691","id":"490012691F","lat":51.40867,"lon":-0.02463,"name":"Bromley Road / St George's Church","parentId":"490G00012691","stationId":"490G00012691","stopLetter":"F","topMostParentId":"490G00012691","towards":"Elmers End Or Penge"},{"icsId":"1001018","id":"490015222C","lat":51.40933,"lon":-0.0253,"name":"Beckenham Junction Station","parentId":"910GBCKNHMJ","stationId":"910GBCKNHMJ","stopLetter":"C","topMostParentId":"HUBBEK","towards":"Catford"},{"icsId":"1001018","id":"490001018A","lat":51.41079,"lon":-0.02552,"name":"Beckenham Junction Stn  / Rectory Rd","stopLetter":"A","topMostParentId":"490001018A","towards":"Bromley"}]}]}