{"direction":"inbound","lineId":"165","lineName":"165","mode":"bus","stopPointSequences":[{"stopPoint":[{"icsId":"1003037","id":"490003037E","lat":51.52947,"lon":0.21338,"name":"Abbey Wood Lane","parentId":"490G00003037","stationId":"490G00003037","stopLetter":"->E","topMostParentId":"490G00003037","towards":"Rainham Village"},{"icsId":"1003940","id":"490003940S","lat":51.5265,"lon":0.21443,"name":"Thorn Lane","parentId":"490G00003940","stationId":"490G00003940","stopLetter":"->S","topMostParentId":"490G00003940","towards":"Rainham Village"},{"icsId":"1008907","id":"490008907S","lat":51.52547,"lon":0.21755,"name":"Lake Avenue","parentId":"490G00008907","stationId":"490G00008907","stopLetter":"->S","topMostParentId":"490G00008907","towards":"Rainham Village"},{"icsId":"1003066","id":"490003066W","lat":51.52272,"lon":0.21748,"name":"Acer Avenue","parentId":"490G00003066","stationId":"490G00003066","stopLetter":"->W","topMostParentId":"490G00003066","towards":"Rainham Village"},{"icsId":"1008923","id":"490008923W","lat":51.52177,"lon":0.21212,"name":"Lambs Lane North","parentId":"490G00008923","stationId":"490G00008923","stopLetter":"->W","topMostParentId":"490G00008923","towards":"Rainham Village"},{"icsId":"1003232","id":"490003232W","lat":51.52105,"lon":0.20905,"name":"Allen Road","parentId":"490G00003232","stationId":"490G00003232","stopLetter":"->W","topMostParentId":"490G00003232","towards":"Rainham Village"},{"icsId":"1010254","id":"490010254W","lat":51.52037,"lon":0.20469,"name":"New Road","parentId":"490G00010254","stationId":"490G00010254","stopLetter":"->W","topMostParentId":"490G00010254","towards":"Dagenham Or Elm Park"},{"icsId":"1004341","id":"490004341W","lat":51.52007,"lon":0.20246,"name":"Brights Avenue","parentId":"490G00004341","stationId":"490G00004341","stopLetter":"->W","topMostParentId":"490G00004341","towards":"Dagenham Or Elm Park"},{"icsId":"1011395","id":"490011395W","lat":51.51936,"lon":0.19619,"name":"Rainham Village School","parentId":"490G00011395","stationId":"490G00011395","stopLetter":"P","topMostParentId":"490G00011395","towards":"Dagenham Or Elm Park"},{"icsId":"1020119","id":"490020119W","lat":51.51837,"lon":0.192,"name":"St Helen's Court","parentId":"490G00020119","stationId":"490G00020119","stopLetter":"R","topMostParentId":"490G00020119","towards":"Dagenham Or Elm Park"},{"icsId":"1011396","id":"490011396C","lat":51.51853,"lon":0.18996,"name":"Rainham War Memorial","parentId":"490G00011396","stationId":"490G00011396","stopLetter":"C","topMostParentId":"490G00011396","towards":"Dagenham Or Elm Park"},{"icsId":"1011394","id":"490011394F","lat":51.51948,"lon":0.19088,"name":"Rainham Tesco","parentId":"490G00011394","stationId":"490G00011394","stopLetter":"F","topMostParentId":"490G00011394","towards":"Abbey Wood Lane, Dagenham Or Elm Park"},{"icsId":"1006152","id":"490006152G","lat":51.52174,"lon":0.18844,"name":"Dovers Corner","parentId":"490G00006152","stationId":"490G00006152","stopLetter":"G","topMostParentId":"490G00006152","towards":"Dagenham Or Elm Park"},{"icsId":"1015718","id":"490015718W","lat":51.52209,"lon":0.18511,"name":"Cherry Tree Lane","parentId":"490G00015718","stationId":"490G00015718","stopLetter":"Q","topMostParentId":"490G00015718","towards":"Dagenham Or Elm Park"},{"icsId":"1006247","id":"490006247N","lat":51.52344,"lon":0.18161,"name":"Dunedin Road","parentId":"490G00006247","stationId":"490G00006247","stopLetter":"M","topMostParentId":"490G00006247","towards":"Elm Park"},{"icsId":"1006446","id":"490006446N","lat":51.52425,"lon":0.1822,"name":"Edmund Road","parentId":"490G00006446","stationId":"490G00006446","stopLetter":"N","topMostParentId":"490G00006446","towards":"Elm Park"},{"icsId":"1012560","id":"490012560N","lat":51.52648,"lon":0.18614,"name":"Stanley Road South","parentId":"490G00012560","stationId":"490G00012560","stopLetter":"P","topMostParentId":"490G00012560","towards":"Elm Park"},{"icsId":"1011393","id":"490011393N","lat":51.52874,"lon":0.18905,"name":"Rainham Road","parentId":"490G00011393","stationId":"490G00011393","stopLetter":"F","topMostParentId":"490G00011393","towards":"Elm Park"},{"icsId":"1003216","id":"490003216N","lat":51.53051,"lon":0.19068,"name":"Alexandra Road","parentId":"490G00003216","stationId":"490G00003216","stopLetter":"G","topMostParentId":"490G00003216","towards":"Elm Park"},{"icsId":"1006902","id":"490006902N","lat":51.53404,"lon":0.19214,"name":"Ford Lane","parentId":"490G00006902","stationId":"490G00006902","stopLetter":"H","topMostParentId":"490G00006902","towards":"Elm Park"},{"icsId":"1011671","id":"490011671N","lat":51.53677,"lon":0.19748,"name":"Mungo Park Road / South End Road","parentId":"490G00011671","stationId":"490G00011671","stopLetter":"U","topMostParentId":"490G00011671","towards":"Elm Park"},{"icsId":"1008731","id":"490008731N","lat":51.53825,"lon":0.19485,"name":"Kingaby Gardens","parentId":"490G00008731","stationId":"490G00008731","stopLetter":"V","topMostParentId":"490G00008731","towards":"Elm Park"},{"icsId":"1007004","id":"490007004N","lat":51.54139,"lon":0.19325,"name":"Freeborne Gardens","parentId":"490G00007004","stationId":"490G00007004","stopLetter":"W","topMostParentId":"490G00007004","towards":"Elm Park"},{"icsId":"1014872","id":"490014872N","lat":51.54376,"lon":0.1947,"name":"Wood Lane","parentId":"490G00014872","stationId":"490G00014872","stopLetter":"X","topMostParentId":"490G00014872","towards":"Romford"},{"icsId":"1003185","id":"490003185F","lat":51.54518,"lon":0.19592,"name":"Aldingham Gardens","parentId":"490G00003185","stationId":"490G00003185","stopLetter":"A","topMostParentId":"490G00003185","towards":"Romford"},{"icsId":"1003291","id":"490003291N","lat":51.54791,"lon":0.1992,"name":"Ambleside Avenue","parentId":"490G00003291","stationId":"490G00003291","stopLetter":"B","topMostParentId":"490G00003291","towards":"Romford Or Hornchurch"},{"icsId":"1000074","id":"490000074B","lat":51.55029,"lon":0.19905,"name":"Elm Park Station","stopLetter":"C","topMostParentId":"490000074B","towards":"Romford and Hornchurch","zone":"6"},{"icsId":"1013471","id":"490013471F","lat":51.55142,"lon":0.19993,"name":"Elm Parade","parentId":"490G000788","stationId":"490G000788","stopLetter":"D","topMostParentId":"490G000788","towards":"Romford Or Hornchurch"},{"icsId":"1004307","id":"490004307E","lat":51.55234,"lon":0.20267,"name":"Brian Close","parentId":"490G00004307","stationId":"490G00004307","stopLetter":"->E","topMostParentId":"490G00004307","towards":"Romford Or Hornchurch"},{"icsId":"1003050","id":"490003050E","lat":51.55362,"lon":0.20641,"name":"Abbs Cross Academy","parentId":"490G00003050","stationId":"490G00003050","stopLetter":"->E","topMostParentId":"490G00003050","towards":"Romford Or Hornchurch"},{"icsId":"1013083","id":"490013083N","lat":51.5553,"lon":0.20771,"name":"Suttons Avenue","parentId":"490G00013083","stationId":"490G00013083","stopLetter":"S","topMostParentId":"490G00013083","towards":"Romford Or Hornchurch"},{"icsId":"1012555","id":"490012555N","lat":51.55828,"lon":0.20883,"name":"Stanley Road","parentId":"490G00012555","stationId":"490G00012555","stopLetter":"T","topMostParentId":"490G00012555","towards":"Romford Or Hornchurch"},{"icsId":"1003049","id":"490003049E","lat":51.56309,"lon":0.21461,"name":"Abbs Cross Lane","parentId":"490G00003049","stationId":"490G00003049","stopLetter":"X","topMostParentId":"490G00003049","towards":"Upminster Or Gidea Park"},{"icsId":"1004001","id":"490004001A","lat":51.56313,"lon":0.21654,"name":"Billet Lane","parentId":"490G00004001","stationId":"490G00004001","stopLetter":"A","topMostParentId":"490G00004001","towards":"County Park Estate Or Upminster"},{"icsId":"1015350","id":"490015350F","lat":51.56164,"lon":0.22133,"name":"Hornchurch Town Centre","parentId":"490G00015350","stationId":"490G00015350","stopLetter":"F","topMostParentId":"490G00015350","towards":"County Park Estate, Elm Park Or Upminster"},{"icsId":"1015350","id":"490008347G","lat":51.56161,"lon":0.22058,"name":"Hornchurch Town Centre","parentId":"490G00015350","stationId":"490G00015350","stopLetter":"G","topMostParentId":"490G00015350","towards":"Harold Wood, Elm Park Or Romford"},{"icsId":"1011359","id":"490011359C","lat":51.56396,"lon":0.22009,"name":"Queen's Theatre","parentId":"490G00011359","stationId":"490G00011359","stopLetter":"C","topMostParentId":"490G00011359","towards":"Harold Wood Or Romford"},{"icsId":"1004623","id":"490004623D","lat":51.56655,"lon":0.22003,"name":"Burnway","parentId":"490G00004623","stationId":"490G00004623","stopLetter":"EA","topMostParentId":"490G00004623","towards":"Harold Wood Or Romford"},{"icsId":"1001098","id":"490001098A","lat":51.56826,"lon":0.21926,"name":"Emerson Park Station","stopLetter":"EB","topMostParentId":"490001098A","towards":"Harold Wood Or Romford"},{"icsId":"1014973","id":"490014973N","lat":51.57174,"lon":0.21898,"name":"Wykeham Avenue","parentId":"490G00014973","stationId":"490G00014973","stopLetter":"EC","topMostParentId":"490G00014973","towards":"Harold Wood Or Romford"},{"icsId":"1014125","id":"490014125S","lat":51.57355,"lon":0.21651,"name":"Walden Way","parentId":"490G00014125","stationId":"490G00014125","stopLetter":"EP","topMostParentId":"490G00014125","towards":"Romford"},{"icsId":"1020285","id":"490004465N","lat":51.57522,"lon":0.21117,"name":"Kinfauns Avenue","parentId":"490G00020285","stationId":"490G00020285","stopLetter":"AE","topMostParentId":"490G00020285","towards":"Romford"},{"icsId":"1013327","id":"490013327S2","lat":51.57745,"lon":0.20754,"name":"The Drill Roundabout","parentId":"490G00013327","stationId":"490G00013327","stopLetter":"AH","topMostParentId":"490G00013327","towards":"Romford"},{"icsId":"1011870","id":"490011870S","lat":51.57603,"lon":0.2064,"name":"Salisbury Road","parentId":"490G00011870","stationId":"490G00011870","stopLetter":"AJ","topMostParentId":"490G00011870","towards":"Romford"},{"icsId":"1005709","id":"490005709W","lat":51.57449,"lon":0.20357,"name":"Cranham Road","parentId":"490G00005709","stationId":"490G00005709","stopLetter":"AK","topMostParentId":"490G00005709","towards":"Romford"},{"icsId":"1006980","id":"490006980W","lat":51.5743,"lon":0.1989,"name":"Frances Bardsley Academy","parentId":"490G00006980","stationId":"490G00006980","stopLetter":"->W","topMostParentId":"490G00006980","towards":"Romford Market"},{"icsId":"1011214","id":"490011214W","lat":51.57313,"lon":0.19496,"name":"Princes Road","parentId":"490G00011214","stationId":"490G00011214","stopLetter":"->W","topMostParentId":"490G00011214","towards":"Romford Market"},{"icsId":"1015118","id":"490015118W","lat":51.57209,"lon":0.19067,"name":"Albert Road","parentId":"490G00015118","stationId":"490G00015118","stopLetter":"G","topMostParentId":"490G00015118","towards":"Romford Market"},{"icsId":"1013482","id":"490013482W","lat":51.57078,"lon":0.18658,"name":"South Street","parentId":"490G00013482","stationId":"490G00013482","stopLetter":"H","topMostParentId":"490G00013482","towards":"Romford Market"},{"icsId":"1013483","id":"490013483N","lat":51.5708,"lon":0.18569,"name":"Brentwood Road","parentId":"490G00013483","stationId":"490G00013483","stopLetter":"J","topMostParentId":"490G00013483","towards":"Romford Market"},{"icsId":"1001243","id":"490015182X","lat":51.57375,"lon":0.18388,"name":"Romford Station","stopLetter":"X","topMostParentId":"490015182X","towards":"Collier Row"},{"icsId":"1014452","id":"490014452E","lat":51.57738,"lon":0.18436,"name":"Western Road","parentId":"490G00014452","stationId":"490G00014452","stopLetter":"PP","topMostParentId":"490G00014452","towards":"The Brewery and Queens Hospital"},{"icsId":"1011659","id":"490011659L","lat":51.58037,"lon":0.18269,"name":"Romford Market","parentId":"490G00011659","stationId":"490G00011659","stopLetter":"L","topMostParentId":"490G00011659","towards":"Chadwell Heath, Queen's Hosp. Or Becontree"},{"icsId":"1010407","id":"490010407D","lat":51.57938,"lon":0.17788,"name":"North Street","parentId":"490G00010407","stationId":"490G00010407","stopLetter":"D","topMostParentId":"490G00010407","towards":"Becontree Heath, Chadwell Heath Or Collier Row"},{"icsId":"1009721","id":"490009721B","lat":51.57703,"lon":0.17728,"name":"Mawney Road","parentId":"490G00009721","stationId":"490G00009721","stopLetter":"B","topMostParentId":"490G00009721","towards":"Becontree Heath Or Chadwell Heath"},{"icsId":"1013271","id":"490013271W","lat":51.57582,"lon":0.17836,"name":"The Brewery","parentId":"490G00013271","stationId":"490G00013271","stopLetter":"->W","topMostParentId":"490G00013271"}]}]}