{"direction":"inbound","lineId":"176","lineName":"176","mode":"bus","stopPointSequences":[{"stopPoint":[{"icsId":"1000235","id":"490000235W1","lat":51.51556,"lon":-0.12843,"name":"Tottenham Court Road Station","stopLetter":"S","topMostParentId":"490000235W1","towards":"Piccadilly Circus Or Trafalgar Square","zone":"1"},{"icsId":"1004695","id":"490004695D","lat":51.51341,"lon":-0.12921,"name":"Cambridge Circus","parentId":"490G00004695","stationId":"490G00004695","stopLetter":"D","topMostParentId":"490G00004695","towards":"Piccadilly Circus, Parliament Sq. Or Waterloo"},{"icsId":"1000135","id":"490000135B","lat":51.51159,"lon":-0.12833,"name":"Leicester Square Station","stopLetter":"J","topMostParentId":"490000135B","towards":"Waterloo Or Westminster","zone":"1"},{"icsId":"1016161","id":"490016161S","lat":51.50985,"lon":-0.12787,"name":"St Martin's Place","parentId":"490G00016161","stationId":"490G00016161","stopLetter":"K","topMostParentId":"490G00016161","towards":"Waterloo Or Westminster"},{"icsId":"1013766","id":"490013766G","lat":51.50864,"lon":-0.12623,"name":"Trafalgar Square / Charing Cross Stn","parentId":"490G000803","stationId":"490G000803","stopLetter":"G","topMostParentId":"HUBCHX","towards":"Aldwych"},{"icsId":"1012247","id":"490012247A","lat":51.5104,"lon":-0.12182,"name":"Southampton Street / Covent Garden","parentId":"490G00012247","stationId":"490G00012247","stopLetter":"A","topMostParentId":"490G00012247","towards":"Fleet Street, Holborn Or Waterloo"},{"icsId":"1020255","id":"490020255S","lat":51.51054,"lon":-0.11844,"name":"Lancaster Place / Somerset House","parentId":"490G00020255","stationId":"490G00020255","stopLetter":"B","topMostParentId":"490G00020255","towards":"Waterloo"},{"icsId":"1014271","id":"490014271N","lat":51.5065,"lon":-0.11492,"name":"Waterloo Bridge / South Bank","parentId":"490G000819","stationId":"490G000819","stopLetter":"N","topMostParentId":"490G000819","towards":"Elephant & Castle Or Kennington"},{"icsId":"1003705","id":"490000254D","lat":51.50273,"lon":-0.11044,"name":"Waterloo Station   / Waterloo Road","parentId":"490G000401","stationId":"490G000401","stopLetter":"D","topMostParentId":"HUBWAT","towards":"Elephant & Castle Or Kennington"},{"icsId":"1013485","id":"490013485S1","lat":51.50134,"lon":-0.10875,"name":"The Old Vic","parentId":"490G00013485","stationId":"490G00013485","stopLetter":"S","topMostParentId":"490G00013485","towards":"Camberwell Or Bricklayers Arms"},{"icsId":"1012693","id":"490012693S2","lat":51.49916,"lon":-0.10628,"name":"St George's Circus","parentId":"490G00012693","stationId":"490G00012693","stopLetter":"T","topMostParentId":"490G00012693","towards":"Camberwell Or Bricklayers Arms"},{"icsId":"1009281","id":"490009281D","lat":51.49663,"lon":-0.102,"name":"Elephant & Castle / London Road","parentId":"490G000642","stationId":"490G000642","stopLetter":"D","topMostParentId":"490G000642","towards":"Camberwell Green"},{"icsId":"1000073","id":"490000073R","lat":51.49224,"lon":-0.09814,"name":"Elephant & Castle Station","stopLetter":"R","topMostParentId":"490000073R","towards":"Brixton, Peckham Or Camberwell Green","zone":"1+2"},{"icsId":"1008975","id":"490008975S","lat":51.49045,"lon":-0.09696,"name":"Larcom Street","parentId":"490G00008975","stationId":"490G00008975","stopLetter":"B","topMostParentId":"490G00008975","towards":"Camberwell Green"},{"icsId":"1006380","id":"490006380E","lat":51.48705,"lon":-0.09508,"name":"East Street","parentId":"490G00006380","stationId":"490G00006380","stopLetter":"E","topMostParentId":"490G00006380","towards":"Camberwell Green"},{"icsId":"1014501","id":"490014501K","lat":51.48493,"lon":-0.09367,"name":"Westmoreland Road","parentId":"490G00014501","stationId":"490G00014501","stopLetter":"K","topMostParentId":"490G00014501","towards":"Dulwich Or Herne Hill"},{"icsId":"1003138","id":"490003138N","lat":51.48142,"lon":-0.09435,"name":"Camberwell Road / Albany Road","parentId":"490G00003138","stationId":"490G00003138","stopLetter":"N","topMostParentId":"490G00003138","towards":"Brixton, Dulwich Or Herne Hill"},{"icsId":"1004221","id":"490004221S","lat":51.47977,"lon":-0.09419,"name":"Bowyer Place","parentId":"490G00004221","stationId":"490G00004221","stopLetter":"N","topMostParentId":"490G00004221","towards":"Brixton, Dulwich Or Herne Hill"},{"icsId":"1009784","id":"490009784B","lat":51.47769,"lon":-0.0939,"name":"Medlar Street","parentId":"490G00009784","stationId":"490G00009784","stopLetter":"B","topMostParentId":"490G00009784","towards":"Brixton, Herne Hill Or Peckham"},{"icsId":"1004687","id":"490004687P","lat":51.47357,"lon":-0.09295,"name":"Denmark Hill / Camberwell Green","parentId":"490G00004687","stationId":"490G00004687","stopLetter":"P","topMostParentId":"490G00004687","towards":"East Dulwich"},{"icsId":"1005464","id":"490005464V","lat":51.47107,"lon":-0.0929,"name":"Coldharbour Lane","parentId":"490G00005464","stationId":"490G00005464","stopLetter":"V","topMostParentId":"490G00005464","towards":"Tulse Hill Or East Dulwich"},{"icsId":"1008764","id":"490008764H3","lat":51.4684,"lon":-0.09168,"name":"King's College Hospital","parentId":"490G00008764","stationId":"490G00008764","stopLetter":"B","topMostParentId":"490G00008764","towards":"East Dulwich"},{"icsId":"1001083","id":"490001083H7","lat":51.46808,"lon":-0.0888,"name":"Denmark Hill Station","stopLetter":"C","topMostParentId":"490001083H7","towards":"Dulwich Or Peckham Rye"},{"icsId":"1015829","id":"490015829S","lat":51.46792,"lon":-0.08628,"name":"Grove Lane / Champion Park","parentId":"490G00015829","stationId":"490G00015829","stopLetter":"D","topMostParentId":"490G00015829","towards":"Dulwich Or Peckham Rye"},{"icsId":"1004972","id":"490004972S","lat":51.46624,"lon":-0.0853,"name":"Champion Grove","parentId":"490G00004972","stationId":"490G00004972","stopLetter":"E","topMostParentId":"490G00004972","towards":"Dulwich Or Peckham Rye"},{"icsId":"1006094","id":"490006094S","lat":51.46473,"lon":-0.08359,"name":"Champion Hill","parentId":"490G00006094","stationId":"490G00006094","stopLetter":"F","topMostParentId":"490G00006094","towards":"Dulwich Or Peckham Rye"},{"icsId":"1015847","id":"490015830S","lat":51.46277,"lon":-0.08141,"name":"Quorn Road","parentId":"490G00015847","stationId":"490G00015847","stopLetter":"L","topMostParentId":"490G00015847","towards":"North Dulwich, Dulwich Or Peckham Rye"},{"icsId":"1001090","id":"490001090S","lat":51.46157,"lon":-0.0797,"name":"East Dulwich Station","stopLetter":"E","topMostParentId":"490001090S","towards":"North Dulwich, Dulwich Or Peckham Rye"},{"icsId":"1010595","id":"490010595F","lat":51.46143,"lon":-0.07611,"name":"Ondine Road","parentId":"490G00010595","stationId":"490G00010595","stopLetter":"F","topMostParentId":"490G00010595","towards":"North Dulwich, Dulwich Or Peckham Rye"},{"icsId":"1012417","id":"490005723K","lat":51.45932,"lon":-0.07499,"name":"Goose Green","parentId":"490G00012417","stationId":"490G00012417","stopLetter":"K","topMostParentId":"490G00012417","towards":"Dulwich"},{"icsId":"1010346","id":"490010346S","lat":51.45747,"lon":-0.07536,"name":"North Cross Road","parentId":"490G00010346","stationId":"490G00010346","stopLetter":"S","topMostParentId":"490G00010346","towards":"Dulwich"},{"icsId":"1006335","id":"490006335S","lat":51.4551,"lon":-0.07681,"name":"Melbourne Grove","parentId":"490G00006335","stationId":"490G00006335","stopLetter":"DU","topMostParentId":"490G00006335","towards":"Dulwich"},{"icsId":"1008041","id":"490008041S","lat":51.45299,"lon":-0.07721,"name":"Heber Road","parentId":"490G00008041","stationId":"490G00008041","stopLetter":"DV","topMostParentId":"490G00008041","towards":"Forest Hill"},{"icsId":"1005874","id":"490005874S","lat":51.4508,"lon":-0.07595,"name":"Crystal Palace Road","parentId":"490G00005874","stationId":"490G00005874","stopLetter":"DW","topMostParentId":"490G00005874","towards":"Forest Hill"},{"icsId":"1006232","id":"490006232S","lat":51.4487,"lon":-0.07347,"name":"Dulwich Library","parentId":"490G00006232","stationId":"490G00006232","stopLetter":"DE","topMostParentId":"490G00006232","towards":"Forest Hill"},{"icsId":"1013919","id":"490013919S","lat":51.44646,"lon":-0.07202,"name":"Upland Road","parentId":"490G00013919","stationId":"490G00013919","stopLetter":"DF","topMostParentId":"490G00013919","towards":"Forest Hill"},{"icsId":"1010671","id":"490010671S","lat":51.44503,"lon":-0.06978,"name":"Overhill Road","parentId":"490G00010671","stationId":"490G00010671","stopLetter":"DH","topMostParentId":"490G00010671","towards":"Forest Hill"},{"icsId":"1007586","id":"490007586S","lat":51.44378,"lon":-0.06803,"name":"Grove Tavern","parentId":"490G00007586","stationId":"490G00007586","stopLetter":"MA","topMostParentId":"490G00007586","towards":"Forest Hill Or Tulse Hill"},{"icsId":"1009362","id":"490009362S1","lat":51.44185,"lon":-0.06564,"name":"Lordship Lane / Wood Vale","parentId":"490G00009362","stationId":"490G00009362","stopLetter":"MD","topMostParentId":"490G00009362","towards":"Crystal Palace, Forest Hill Or Honor Oak"},{"icsId":"1008350","id":"490008350E","lat":51.44074,"lon":-0.06098,"name":"Horniman Museum","parentId":"490G00008350","stationId":"490G00008350","stopLetter":"ME","topMostParentId":"490G00008350","towards":"Catford, Penge Or Brockley Rise"},{"icsId":"1005314","id":"490001112A","lat":51.43965,"lon":-0.05537,"name":"Forest Hill Station  / London Road","parentId":"490G000456","stationId":"490G000456","stopLetter":"A","topMostParentId":"490G000456","towards":"Penge"},{"icsId":"1000866","id":"490000866Y","lat":51.43759,"lon":-0.05455,"name":"Forest Hill Pools","parentId":"490G000189","stationId":"490G000189","stopLetter":"->S","topMostParentId":"490G000189","towards":"Sydenham"},{"icsId":"1013646","id":"490013646S","lat":51.43569,"lon":-0.05555,"name":"Dartmouth Road / Thorpewood Avenue","parentId":"490G00013646","stationId":"490G00013646","stopLetter":"M","topMostParentId":"490G00013646","towards":"Crystal Palace Or Penge"},{"icsId":"1013131","id":"490013131S","lat":51.43297,"lon":-0.05919,"name":"Sydenham School","parentId":"490G00013131","stationId":"490G00013131","stopLetter":"P","topMostParentId":"490G00013131","towards":"Crystal Palace Or Penge"},{"icsId":"1013125","id":"490013125S","lat":51.43156,"lon":-0.06015,"name":"Sydenham / the Woodman","parentId":"490G00013125","stationId":"490G00013125","stopLetter":"R","topMostParentId":"490G00013125","towards":"Crystal Palace Or Penge"},{"icsId":"1010871","id":"490010871S","lat":51.42953,"lon":-0.05841,"name":"Peak Hill","parentId":"490G00010871","stationId":"490G00010871","stopLetter":"Z","topMostParentId":"490G00010871","towards":"Crystal Palace Or Penge"},{"icsId":"1009034","id":"490005453F","lat":51.4275,"lon":-0.0563,"name":"Sydenham Station  / Kirkdale","parentId":"490G000630","stationId":"490G000630","stopLetter":"F","topMostParentId":"HUBSYD","towards":"Crystal Palace Or Penge"},{"icsId":"1005766","id":"490005766B","lat":51.42567,"lon":-0.05694,"name":"Cricketers Walk","parentId":"490G00005766","stationId":"490G00005766","stopLetter":"B","topMostParentId":"490G00005766","towards":"Penge"},{"icsId":"1005580","id":"490005580S","lat":51.42328,"lon":-0.05802,"name":"St Christopher's Hospice","parentId":"490G00005580","stationId":"490G00005580","stopLetter":"L","topMostParentId":"490G00005580","towards":"Penge"},{"icsId":"1012397","id":"490012397S","lat":51.42111,"lon":-0.05941,"name":"Springfield Road","parentId":"490G00012397","stationId":"490G00012397","stopLetter":"M","topMostParentId":"490G00012397","towards":"Penge"},{"icsId":"1009025","id":"490009025S","lat":51.41912,"lon":-0.06133,"name":"Thicket Road","parentId":"490G000628","stationId":"490G000628","stopLetter":"N","topMostParentId":"490G000628","towards":"Beckenham Or Norwood Junction"},{"icsId":"1009027","id":"490001225C","lat":51.41736,"lon":-0.05766,"name":"High Street / Penge West Station","parentId":"490G00009027","stationId":"490G00009027","stopLetter":"C","topMostParentId":"490G00009027","towards":"Beckenham Or Norwood Junction"},{"icsId":"1010905","id":"490010905D","lat":51.41608,"lon":-0.05433,"name":"High Street / Maple Road","parentId":"490G00010905","stationId":"490G00010905","stopLetter":"D","topMostParentId":"490G00010905","towards":"Beckenham Or Norwood Junction"},{"icsId":"1010910","id":"490010906F","lat":51.41482,"lon":-0.05243,"name":"High Street / Green Lane","parentId":"490G00010910","stationId":"490G00010910","stopLetter":"F","topMostParentId":"490G00010910","towards":"Beckenham Or Norwood Junction"},{"icsId":"1015419","id":"490015419H","lat":51.41331,"lon":-0.05235,"name":"Penge / Pawleyne Arms","parentId":"490G00015419","stationId":"490G00015419","stopLetter":"H","topMostParentId":"490G00015419","towards":"Crystal Palace, Elmers End Or Norwood Junction"}]}]}