{"direction":"inbound","lineId":"178","lineName":"178","mode":"bus","stopPointSequences":[{"stopPoint":[{"icsId":"1001177","id":"490001177X","lat":51.46382,"lon":-0.01242,"name":"Lewisham Station","stopLetter":"D","topMostParentId":"490001177X","towards":"Blackheath Or Lee Green","zone":"2+3"},{"icsId":"1003864","id":"490003864N","lat":51.46181,"lon":-0.00699,"name":"Belmont Hill","parentId":"490G00003864","stationId":"490G00003864","stopLetter":"N","topMostParentId":"490G00003864","towards":"Eltham, Grove Park Or Kidbrooke"},{"icsId":"1003868","id":"490003868E","lat":51.45988,"lon":-0.00403,"name":"Belmont Park","parentId":"490G00003868","stationId":"490G00003868","stopLetter":"P","topMostParentId":"490G00003868","towards":"Eltham, Grove Park Or Kidbrooke"},{"icsId":"1009568","id":"490009568E","lat":51.45872,"lon":-0.00162,"name":"Manor Park","parentId":"490G00009568","stationId":"490G00009568","stopLetter":"Q","topMostParentId":"490G00009568","towards":"Eltham, Grove Park Or Kidbrooke"},{"icsId":"1004257","id":"490004257E","lat":51.45865,"lon":0.00274,"name":"Brandram Road","parentId":"490G00004257","stationId":"490G00004257","stopLetter":"R","topMostParentId":"490G00004257","towards":"Eltham, Grove Park Or Kidbrooke"},{"icsId":"1008924","id":"490008924E","lat":51.45704,"lon":0.00919,"name":"Lampmead Road","parentId":"490G00008924","stationId":"490G00008924","stopLetter":"L","topMostParentId":"490G00008924","towards":"Eltham, Grove Park Or Kidbrooke"},{"icsId":"1009060","id":"490009060E","lat":51.45664,"lon":0.01015,"name":"Lee Green","parentId":"490G00009060","stationId":"490G00009060","stopLetter":"K","topMostParentId":"490G00009060","towards":"Eltham, Kidbrooke Or Shooters Hill"},{"icsId":"1004697","id":"490004697E","lat":51.45537,"lon":0.01603,"name":"Cambridge Drive","parentId":"490G00004697","stationId":"490G00004697","stopLetter":"W","topMostParentId":"490G00004697","towards":"Eltham, Kidbrooke Or Shooters Hill"},{"icsId":"1014334","id":"490014334E","lat":51.45461,"lon":0.01991,"name":"Weigall Road","parentId":"490G00014334","stationId":"490G00014334","stopLetter":"EA","topMostParentId":"490G00014334","towards":"Eltham, Kidbrooke Or Shooters Hill"},{"icsId":"1005664","id":"490005664E","lat":51.45413,"lon":0.02244,"name":"Courtlands Avenue","parentId":"490G00005664","stationId":"490G00005664","stopLetter":"EB","topMostParentId":"490G00005664","towards":"Eltham, Kidbrooke Or Shooters Hill"},{"icsId":"1008704","id":"490008704E","lat":51.45366,"lon":0.02552,"name":"Eltham Road / Kidbrooke Park Road","parentId":"490G00008704","stationId":"490G00008704","stopLetter":"EC","topMostParentId":"490G00008704","towards":"Eltham, Kidbrooke Or Shooters Hill"},{"icsId":"1000300","id":"490000300N","lat":51.45636,"lon":0.02651,"name":"Tudway Road","parentId":"490G00000300","stationId":"490G00000300","stopLetter":"->N","topMostParentId":"490G00000300","towards":"Shooters Hill"},{"icsId":"1019155","id":"490004686Z","lat":51.45684,"lon":0.02814,"name":"Tudway Road / Sutcliffe Park","parentId":"490G00019155","stationId":"490G00019155","stopLetter":"->E","topMostParentId":"490G00019155","towards":"Kidbrooke Station"},{"icsId":"1020276","id":"490020276U","lat":51.4599,"lon":0.03085,"name":"Ryan Close","parentId":"490G00020276","stationId":"490G00020276","stopLetter":"U","topMostParentId":"490G00020276","towards":"Kidbrooke Station"},{"icsId":"1020277","id":"490020277V","lat":51.46045,"lon":0.03036,"name":"Kidbrooke Station  / Tudway Road","parentId":"490G00020277","stationId":"490G00020277","stopLetter":"V","topMostParentId":"490G00020277","towards":"Eltham"},{"icsId":"1016642","id":"490016642N","lat":51.46151,"lon":0.02615,"name":"Cranfield Walk","parentId":"490G00016642","stationId":"490G00016642","stopLetter":"L","topMostParentId":"490G00016642","towards":"Blackheath Or Shooters Hill"},{"icsId":"1013617","id":"490013617N","lat":51.46369,"lon":0.02757,"name":"Kidbrooke Park Road / Aldi Store","parentId":"490G00013617","stationId":"490G00013617","stopLetter":"D","topMostParentId":"490G00013617","towards":"Blackheath Or Shooters Hill"},{"icsId":"1008702","id":"490008707N","lat":51.46665,"lon":0.02685,"name":"Thomas Tallis School","parentId":"490G00008702","stationId":"490G00008702","stopLetter":"E","topMostParentId":"490G00008702","towards":"Woolwich"},{"icsId":"1008703","id":"490008703N","lat":51.47098,"lon":0.02347,"name":"Kidbrooke Park Close","parentId":"490G00008703","stationId":"490G00008703","stopLetter":"Q","topMostParentId":"490G00008703","towards":"Woolwich"},{"icsId":"1003336","id":"490003336N","lat":51.47323,"lon":0.02201,"name":"Annesley Road","parentId":"490G00003336","stationId":"490G00003336","stopLetter":"K","topMostParentId":"490G00003336","towards":"Woolwich"},{"icsId":"1013014","id":"490013014E1","lat":51.47467,"lon":0.02304,"name":"Shooters Hill Road / Kidbrooke Park Road","parentId":"490G00013014","stationId":"490G00013014","stopLetter":"R","topMostParentId":"490G00013014","towards":"Welling Or Woolwich"},{"icsId":"1015427","id":"490015427E","lat":51.47512,"lon":0.02646,"name":"Shooters Hill Road / Eastbrook Road","parentId":"490G00015427","stationId":"490G00015427","stopLetter":"S","topMostParentId":"490G00015427","towards":"Welling Or Woolwich"},{"icsId":"1010537","id":"490010537E","lat":51.47534,"lon":0.03082,"name":"Hervey Road","parentId":"490G00010537","stationId":"490G00010537","stopLetter":"T","topMostParentId":"490G00010537","towards":"Welling Or Queen Elizabeth Hospital"},{"icsId":"1008478","id":"490008478E","lat":51.47474,"lon":0.03488,"name":"Weyman Road","parentId":"490G00008478","stationId":"490G00008478","stopLetter":"U","topMostParentId":"490G00008478","towards":"Welling Or Queen Elizabeth Hospital"},{"icsId":"1005011","id":"490005011E","lat":51.47422,"lon":0.03836,"name":"Charlton Park Lane","parentId":"490G00005011","stationId":"490G00005011","stopLetter":"->E","topMostParentId":"490G00005011","towards":"Welling Or Woolwich"},{"icsId":"1010733","id":"490010733E","lat":51.47343,"lon":0.04367,"name":"Pallet Way","parentId":"490G00010733","stationId":"490G00010733","stopLetter":"SA","topMostParentId":"490G00010733","towards":"Welling Or Woolwich"},{"icsId":"1007509","id":"490007509N","lat":51.47476,"lon":0.04807,"name":"Greenwich Heights","parentId":"490G00007509","stationId":"490G00007509","stopLetter":"H5","topMostParentId":"490G00007509","towards":"Charlton Or Woolwich"},{"icsId":"1011307","id":"490011307H3","lat":51.47691,"lon":0.05068,"name":"Queen Elizabeth Hospital / West Entrance","parentId":"490G00011307","stationId":"490G00011307","stopLetter":"H3","topMostParentId":"490G00011307","towards":"Charlton Or Woolwich"},{"icsId":"1011309","id":"490011309H1","lat":51.47823,"lon":0.05173,"name":"Queen Elizabeth Hospital / Main Entrance","parentId":"490G00011309","stationId":"490G00011309","stopLetter":"H1","topMostParentId":"490G00011309"},{"icsId":"1007640","id":"490007640E","lat":51.48064,"lon":0.05459,"name":"Ha-Ha Road / Repository Road","parentId":"490G00007640","stationId":"490G00007640","stopLetter":"K","topMostParentId":"490G00007640","towards":"Woolwich Town Centre"},{"icsId":"1007601","id":"490010273N","lat":51.48301,"lon":0.06201,"name":"Gunner Lane","parentId":"490G00007601","stationId":"490G00007601","stopLetter":"C","topMostParentId":"490G00007601","towards":"Charlton Or Plumstead"},{"icsId":"1010145","id":"490010145N","lat":51.48637,"lon":0.06298,"name":"Naafi Messing Store","parentId":"490G00010145","stationId":"490G00010145","stopLetter":"D","topMostParentId":"490G00010145","towards":"Charlton Or Plumstead"},{"icsId":"1001344","id":"490014933L","lat":51.48922,"lon":0.06722,"name":"Woolwich Arsenal Station","stopLetter":"L","topMostParentId":"490014933L","towards":"Charlton"},{"icsId":"1013616","id":"490013616W","lat":51.49078,"lon":0.06585,"name":"Thomas Street","parentId":"490G000798","stationId":"490G000798","stopLetter":"W","topMostParentId":"490G000798"}]}]}