{"direction":"inbound","lineId":"179","lineName":"179","mode":"bus","stopPointSequences":[{"stopPoint":[{"icsId":"1007657","id":"490007657W","lat":51.55967,"lon":0.07696,"name":"Hainault Street","parentId":"490G00007657","stationId":"490G00007657","stopLetter":"W","topMostParentId":"490G00007657","towards":"Gants Hill Or Redbridge"},{"icsId":"1008466","id":"490008466Q1","lat":51.55785,"lon":0.07405,"name":"Redbridge Central Library","parentId":"490G00008466","stationId":"490G00008466","stopLetter":"Q","topMostParentId":"490G00008466","towards":"Barking, Gants Hill, Manor Park Or Redbridge"},{"icsId":"1008470","id":"490008470M","lat":51.55814,"lon":0.07174,"name":"High Road Ilford","parentId":"490G000606","stationId":"490G000606","stopLetter":"M","topMostParentId":"490G000606","towards":"Gants Hill Or Redbridge"},{"icsId":"1001157","id":"490001157G","lat":51.5588,"lon":0.06998,"name":"Ilford Station","stopLetter":"G","topMostParentId":"490001157G","towards":"Gants Hill Or Redbridge"},{"icsId":"1013966","id":"490013311U","lat":51.56325,"lon":0.06746,"name":"Beal Road","parentId":"490G00013966","stationId":"490G00013966","stopLetter":"VL","topMostParentId":"490G00013966","towards":"Gants Hill Or Redbridge"},{"icsId":"1013331","id":"490013331W","lat":51.56448,"lon":0.06624,"name":"Northbrook Road","parentId":"490G00013331","stationId":"490G00013331","stopLetter":"VM","topMostParentId":"490G00013331","towards":"Gants Hill Or Redbridge"},{"icsId":"1013988","id":"490013988N","lat":51.56767,"lon":0.06525,"name":"Valentines Park","parentId":"490G00013988","stationId":"490G00013988","stopLetter":"VP","topMostParentId":"490G00013988","towards":"Gants Hill"},{"icsId":"1003947","id":"490003947N","lat":51.57024,"lon":0.06389,"name":"Bethell Avenue","parentId":"490G00003947","stationId":"490G00003947","stopLetter":"VR","topMostParentId":"490G00003947","towards":"Barkingside, Newbury Park Or South Woodford"},{"icsId":"1003828","id":"490003828N","lat":51.57283,"lon":0.06511,"name":"Beehive Lane","parentId":"490G00003828","stationId":"490G00003828","stopLetter":"CM","topMostParentId":"490G00003828","towards":"Barkingside, Newbury Park Or South Woodford"},{"icsId":"1015202","id":"490015202M","lat":51.5759,"lon":0.06604,"name":"Gants Hill Station / Cranbrook Road","parentId":"490G000878","stationId":"490G000878","stopLetter":"CN","topMostParentId":"490G000878","towards":"Barkingside, Newbury Park Or South Woodford"},{"icsId":"1015199","id":"490015199B","lat":51.57739,"lon":0.06526,"name":"Gants Hill Station  / Woodford Avenue","parentId":"490G000876","stationId":"490G000876","stopLetter":"WS","topMostParentId":"490G000876","towards":"Barkingside Or South Woodford"},{"icsId":"1014972","id":"490014972W","lat":51.5794,"lon":0.06217,"name":"Wycombe Road","parentId":"490G00014972","stationId":"490G00014972","stopLetter":"WT","topMostParentId":"490G00014972","towards":"Barkingside Or South Woodford"},{"icsId":"1007388","id":"490008200W","lat":51.58098,"lon":0.05902,"name":"Beehive Lane","parentId":"490G00007388","stationId":"490G00007388","stopLetter":"WJ","topMostParentId":"490G00007388","towards":"Barkingside Or South Woodford"},{"icsId":"1007380","id":"490007380N","lat":51.58266,"lon":0.05683,"name":"Grasmere Gardens","parentId":"490G00007380","stationId":"490G00007380","stopLetter":"WK","topMostParentId":"490G00007380","towards":"South Woodford"},{"icsId":"1014846","id":"490014846N","lat":51.58509,"lon":0.05465,"name":"Woodford Bridge Road","parentId":"490G00014846","stationId":"490G00014846","stopLetter":"WL","topMostParentId":"490G00014846","towards":"South Woodford"},{"icsId":"1011631","id":"490011628W","lat":51.59089,"lon":0.04684,"name":"Woodford / Roding Lane South","parentId":"490G00011631","stationId":"490G00011631","stopLetter":"WN","topMostParentId":"490G00011631","towards":"Walthamstow Or Woodford Green"},{"icsId":"1010419","id":"490010418W","lat":51.59225,"lon":0.04302,"name":"Woodford Trading Estate","parentId":"490G00010419","stationId":"490G00010419","stopLetter":"Q","topMostParentId":"490G00010419","towards":"Walthamstow Or Woodford Green"},{"icsId":"1005002","id":"490005157W","lat":51.59317,"lon":0.03918,"name":"Charlie Browns Roundabout","parentId":"490G00005002","stationId":"490G00005002","stopLetter":"R","topMostParentId":"490G00005002","towards":"Walthamstow Or Woodford Green"},{"icsId":"1012285","id":"490012285S","lat":51.59224,"lon":0.03603,"name":"Southend Road","parentId":"490G00012285","stationId":"490G00012285","stopLetter":"M","topMostParentId":"490G00012285","towards":"Snaresbrook Or Woodford Wells"},{"icsId":"1010601","id":"490010601S","lat":51.59065,"lon":0.03362,"name":"Onslow Gardens","parentId":"490G00010601","stationId":"490G00010601","stopLetter":"R","topMostParentId":"490G00010601","towards":"Snaresbrook Or Woodford Wells"},{"icsId":"1019203","id":"490008091W","lat":51.59019,"lon":0.02996,"name":"George Lane / Chigwell Road","parentId":"490G00019203","stationId":"490G00019203","stopLetter":"Z","topMostParentId":"490G00019203","towards":"Snaresbrook, Woodford Green Or Whipps Cross"},{"icsId":"1000217","id":"490000217E","lat":51.59173,"lon":0.02789,"name":"South Woodford Station","stopLetter":"E","topMostParentId":"490000217E","towards":"Woodford Green","zone":"4"},{"icsId":"1007164","id":"490007164H","lat":51.5944,"lon":0.02411,"name":"George Lane Shopping Centre","parentId":"490G00007164","stationId":"490G00007164","stopLetter":"H","topMostParentId":"490G00007164","towards":"Snaresbrook, Woodford Green Or Whipps Cross"},{"icsId":"1007138","id":"490007137L","lat":51.59629,"lon":0.02151,"name":"Southend Road","parentId":"490G00007138","stationId":"490G00007138","stopLetter":"L","topMostParentId":"490G00007138","towards":"Woodford Wells"},{"icsId":"1005259","id":"490005259N","lat":51.5993,"lon":0.02032,"name":"Chelmsford Road","parentId":"490G00005259","stationId":"490G00005259","stopLetter":"X","topMostParentId":"490G00005259","towards":"Woodford Wells"},{"icsId":"1014845","id":"490014845N","lat":51.60184,"lon":0.01923,"name":"Empress Avenue","parentId":"490G00014845","stationId":"490G00014845","stopLetter":"Y","topMostParentId":"490G00014845","towards":"Woodford Wells"},{"icsId":"1005269","id":"490005270N","lat":51.60363,"lon":0.01892,"name":"Churchill Memorial","parentId":"490G00005269","stationId":"490G00005269","stopLetter":"Z","topMostParentId":"490G00005269","towards":"Woodford Wells"},{"icsId":"1005177","id":"490005269N","lat":51.60636,"lon":0.01885,"name":"Chingford Lane","parentId":"490G00005177","stationId":"490G00005177","stopLetter":"S","topMostParentId":"490G00005177","towards":"Chingford Or Buckhurst Hill"},{"icsId":"1014847","id":"490014847N","lat":51.60908,"lon":0.02106,"name":"Woodford Green / Broadmead Road","parentId":"490G000842","stationId":"490G000842","stopLetter":"U","topMostParentId":"490G000842","towards":"Buckhurst Hill Or Chingford"},{"icsId":"1009973","id":"490009973N","lat":51.61325,"lon":0.02411,"name":"Monkhams Lane","parentId":"490G00009973","stationId":"490G00009973","stopLetter":"V","topMostParentId":"490G00009973","towards":"Buckhurst Hill Or Chingford"},{"icsId":"1015121","id":"490015121N","lat":51.61589,"lon":0.02519,"name":"St Thomas of Canterbury Church","parentId":"490G00015121","stationId":"490G00015121","stopLetter":"FH","topMostParentId":"490G00015121","towards":"Buckhurst Hill Or Chingford"},{"icsId":"1003575","id":"490003575W","lat":51.61874,"lon":0.0259,"name":"Bancroft's School","parentId":"490G00003575","stationId":"490G00003575","stopLetter":"FU","topMostParentId":"490G00003575","towards":"Chingford"},{"icsId":"1006930","id":"490006930N","lat":51.62103,"lon":0.02339,"name":"Forest Road","parentId":"490G00006930","stationId":"490G00006930","stopLetter":"FV","topMostParentId":"490G00006930","towards":"Chingford"},{"icsId":"1014587","id":"490014587N","lat":51.62419,"lon":0.02217,"name":"Whitehall Lane","parentId":"490G00014587","stationId":"490G00014587","stopLetter":"FW","topMostParentId":"490G00014587","towards":"Chingford"},{"icsId":"1012012","id":"490012012W","lat":51.62678,"lon":0.01915,"name":"Seymour Court","parentId":"490G00012012","stationId":"490G00012012","stopLetter":"GM","topMostParentId":"490G00012012","towards":"Chingford Station"},{"icsId":"1013981","id":"490013981W","lat":51.62738,"lon":0.0168,"name":"Valance Avenue","parentId":"490G00013981","stationId":"490G00013981","stopLetter":"GN","topMostParentId":"490G00013981","towards":"Chingford Station"},{"icsId":"1008724","id":"490008724W","lat":51.62745,"lon":0.01287,"name":"Kimberley Road","parentId":"490G00008724","stationId":"490G00008724","stopLetter":"GP","topMostParentId":"490G00008724","towards":"Chingford Station"},{"icsId":"1007022","id":"490007021W","lat":51.62699,"lon":0.00667,"name":"Kings Road / Friday Hill","stopLetter":"GQ","topMostParentId":"490007021W","towards":"Chingford Station"},{"icsId":"1005183","id":"490005183N","lat":51.62858,"lon":0.00288,"name":"Balgonie Road","parentId":"490G00005183","stationId":"490G00005183","stopLetter":"GS","topMostParentId":"490G00005183","towards":"Chingford Station"},{"icsId":"1012619","id":"490012619L","lat":51.63126,"lon":0.00278,"name":"Station Road / the Green","parentId":"490G00012619","stationId":"490G00012619","stopLetter":"L","topMostParentId":"490G00012619","towards":"Loughton"},{"icsId":"1004663","id":"490004663H","lat":51.63205,"lon":0.00557,"name":"Buxton Road","parentId":"490G00004663","stationId":"490G00004663","stopLetter":"H","topMostParentId":"490G00004663","towards":"Loughton"},{"icsId":"1001063","id":"490001063F","lat":51.63374,"lon":0.0101,"name":"Chingford Station","stopLetter":"F","topMostParentId":"490001063F","towards":"Loughton"}]}]}