{"direction":"inbound","lineId":"18","lineName":"18","mode":"bus","stopPointSequences":[{"stopPoint":[{"icsId":"1000077","id":"490000077E","lat":51.52777,"lon":-0.1317,"name":"Euston Station","stopLetter":"E","topMostParentId":"490000077E","zone":"1"},{"icsId":"1000077","id":"490000077H","lat":51.52651,"lon":-0.13289,"name":"Euston Station","stopLetter":"H","topMostParentId":"490000077H","towards":"Baker Street Or Tottenham Court Road","zone":"1"},{"icsId":"1000078","id":"490000078P","lat":51.52569,"lon":-0.13534,"name":"Euston Square Station","stopLetter":"P","topMostParentId":"490000078P","towards":"Baker Street Or Oxford Circus","zone":"1"},{"icsId":"1020147","id":"4900020147W","lat":51.52522,"lon":-0.13671,"name":"University Coll Hosp / Warren St Stn","parentId":"490G00020147","stationId":"490G00020147","stopLetter":"W","topMostParentId":"490G00020147","towards":"Baker Street"},{"icsId":"1000252","id":"490000252V","lat":51.52458,"lon":-0.13919,"name":"Warren Street Stn / Tottenham Court Rd","stopLetter":"V","topMostParentId":"490000252V","towards":"Baker Street","zone":"1"},{"icsId":"1000091","id":"490000091G","lat":51.5239,"lon":-0.14387,"name":"Great Portland Street Station","stopLetter":"G","topMostParentId":"490000091G","towards":"Edgware Road Or Marble Arch","zone":"1"},{"icsId":"1000191","id":"490000191B","lat":51.52362,"lon":-0.14661,"name":"Regent's Park Station","stopLetter":"B","topMostParentId":"490000191B","towards":"Edgware Road, Marble Arch Or Marylebone","zone":"1"},{"icsId":"1007807","id":"490007807W","lat":51.52317,"lon":-0.14957,"name":"Harley Street","parentId":"490G00007807","stationId":"490G00007807","stopLetter":"L","topMostParentId":"490G00007807","towards":"Edgware Road, Paddington Or Marble Arch"},{"icsId":"1000011","id":"490000011E","lat":51.52222,"lon":-0.15626,"name":"Baker Street Station","stopLetter":"E","topMostParentId":"490000011E","towards":"Edgware Road, Paddington Or Marble Arch","zone":"1"},{"icsId":"1015040","id":"490015040Z","lat":51.52184,"lon":-0.15871,"name":"Gloucester Place","parentId":"490G00015040","stationId":"490G00015040","stopLetter":"Z","topMostParentId":"490G00015040","towards":"Kensal Green Or Paddington"},{"icsId":"1000351","id":"490015502P","lat":51.52153,"lon":-0.16037,"name":"Marylebone Station","parentId":"490G00000351","stationId":"490G00000351","stopLetter":"P","topMostParentId":"490G00000351","towards":"Kensal Green Or Paddington"},{"icsId":"1010567","id":"490010567H","lat":51.5205,"lon":-0.16651,"name":"Old Marylebone Road","parentId":"490G000688","stationId":"490G000688","stopLetter":"EU","topMostParentId":"490G000688","towards":"Kensal Green"},{"icsId":"1000072","id":"490000072W","lat":51.5199,"lon":-0.16881,"name":"Edgware Road Station","stopLetter":"EV","topMostParentId":"490000072W","towards":"Kensal Green","zone":"1"},{"icsId":"1010713","id":"490010713F","lat":51.51977,"lon":-0.17173,"name":"Edgware Road","parentId":"490G00010713","stationId":"490G00010713","stopLetter":"EW","topMostParentId":"490G00010713","towards":"Kensal Green Or Paddington Station"},{"icsId":"1014552","id":"490014552W","lat":51.51983,"lon":-0.17553,"name":"Hermitage Street","parentId":"490G00014552","stationId":"490G00014552","stopLetter":"B","topMostParentId":"490G00014552","towards":"Kensal Green Or Paddington Station"},{"icsId":"1014250","id":"490004039S","lat":51.51973,"lon":-0.17842,"name":"Bishops Bridge Road / Little Venice","parentId":"490G00014250","stationId":"490G00014250","stopLetter":"S","topMostParentId":"490G00014250","towards":"Kensal Green"},{"icsId":"1000196","id":"490000196W","lat":51.51963,"lon":-0.18946,"name":"Royal Oak Station","stopLetter":"RD","topMostParentId":"490000196W","towards":"Harlesden Or Queens Park","zone":"2"},{"icsId":"1005320","id":"490005320W","lat":51.52093,"lon":-0.19214,"name":"Westminster Academy / Cirencester Street","parentId":"490G00005320","stationId":"490G00005320","stopLetter":"RE","topMostParentId":"490G00005320","towards":"Harlesden Or Queens Park"},{"icsId":"1013054","id":"490013054W","lat":51.52286,"lon":-0.19455,"name":"Sutherland Avenue","parentId":"490G00013054","stationId":"490G00013054","stopLetter":"RF","topMostParentId":"490G00013054","towards":"Harlesden Or Queens Park"},{"icsId":"1007865","id":"490007865H","lat":51.52365,"lon":-0.19929,"name":"Westminster Registration Office","parentId":"490G00007865","stationId":"490G00007865","stopLetter":"H","topMostParentId":"490G00007865","towards":"Harlesden Or Queens Park"},{"icsId":"1003444","id":"490003444W","lat":51.52481,"lon":-0.20289,"name":"Ashmore Road","parentId":"490G00003444","stationId":"490G00003444","stopLetter":"S","topMostParentId":"490G00003444","towards":"Ladbroke Grove, Kensal Rise Or Harlesden"},{"icsId":"1007666","id":"490007666W","lat":51.52633,"lon":-0.20684,"name":"Second Avenue","parentId":"490G00007666","stationId":"490G00007666","stopLetter":"T","topMostParentId":"490G00007666","towards":"Ladbroke Grove, Kensal Rise Or Harlesden"},{"icsId":"1006832","id":"490006832W","lat":51.52691,"lon":-0.21148,"name":"Fifth Avenue / Queen's Park Library","parentId":"490G00006832","stationId":"490G00006832","stopLetter":"Y","topMostParentId":"490G00006832","towards":"Ladbroke Grove, Kensal Rise Or Harlesden"},{"icsId":"1008711","id":"490008711V","lat":51.52749,"lon":-0.21494,"name":"Ladbroke Grove / Kilburn Lane","parentId":"490G00008711","stationId":"490G00008711","stopLetter":"V","topMostParentId":"490G00008711","towards":"Ladbroke Grove, Kensal Rise Or Harlesden"},{"icsId":"1019178","id":"490014700W","lat":51.52832,"lon":-0.21726,"name":"Kensal Green Cemetery","parentId":"490G00019178","stationId":"490G00019178","stopLetter":"W","topMostParentId":"490G00019178","towards":"Harlesden"},{"icsId":"1000122","id":"490000122W","lat":51.52984,"lon":-0.22353,"name":"Kensal Green Station","stopLetter":"KU","topMostParentId":"490000122W","towards":"Harlesden","zone":"2"},{"icsId":"1012788","id":"490012788W","lat":51.53009,"lon":-0.22727,"name":"St Mary's Cemetery","parentId":"490G00012788","stationId":"490G00012788","stopLetter":"KV","topMostParentId":"490G00012788","towards":"Harlesden"},{"icsId":"1014962","id":"490014962W","lat":51.53211,"lon":-0.23317,"name":"Wrottesley Road","parentId":"490G00014962","stationId":"490G00014962","stopLetter":"R","topMostParentId":"490G00014962","towards":"Harlesden"},{"icsId":"1005491","id":"490005491W","lat":51.53231,"lon":-0.23612,"name":"Scrubs Lane","parentId":"490G00005491","stationId":"490G00005491","stopLetter":"S","topMostParentId":"490G00005491","towards":"Harlesden"},{"icsId":"1000271","id":"490015057H","lat":51.5329,"lon":-0.24018,"name":"Willesden Junction Station","stopLetter":"H","topMostParentId":"490015057H","towards":"Stonebridge","zone":"2+3"},{"icsId":"1008187","id":"490008187F","lat":51.53574,"lon":-0.24445,"name":"Park Parade","parentId":"490G00008187","stationId":"490G00008187","stopLetter":"F","topMostParentId":"490G00008187","towards":"Stonebridge"},{"icsId":"1007803","id":"490007803X","lat":51.53603,"lon":-0.24771,"name":"Harlesden Jubilee Clock","parentId":"490G00007803","stationId":"490G00007803","stopLetter":"X","topMostParentId":"490G00007803","towards":"Wembley or Willesden"},{"icsId":"1012803","id":"490012803Z","lat":51.539,"lon":-0.25109,"name":"St Mary's Road","parentId":"490G00012803","stationId":"490G00012803","stopLetter":"Z","topMostParentId":"490G00012803","towards":"Stonebridge Or Willesden"},{"icsId":"1005720","id":"490005720W","lat":51.54029,"lon":-0.25437,"name":"Craven Park","parentId":"490G00005720","stationId":"490G00005720","stopLetter":"U","topMostParentId":"490G00005720","towards":"Wembley"},{"icsId":"1008865","id":"490008865W","lat":51.54129,"lon":-0.25769,"name":"Knatchbull Road","parentId":"490G00008865","stationId":"490G00008865","stopLetter":"V","topMostParentId":"490G00008865","towards":"Wembley"},{"icsId":"1012848","id":"490012848W","lat":51.54106,"lon":-0.26183,"name":"Shakespeare Road","parentId":"490G00012848","stationId":"490G00012848","stopLetter":"W","topMostParentId":"490G00012848","towards":"Wembley"},{"icsId":"1012847","id":"490012847W","lat":51.54252,"lon":-0.26748,"name":"First Drive","parentId":"490G00012847","stationId":"490G00012847","stopLetter":"X","topMostParentId":"490G00012847","towards":"Wembley"},{"icsId":"1010332","id":"490010332K","lat":51.54367,"lon":-0.27123,"name":"North Circular Road","parentId":"490G00010332","stationId":"490G00010332","stopLetter":"K","topMostParentId":"490G00010332","towards":"Wembley"},{"icsId":"1010337","id":"490009981N","lat":51.54594,"lon":-0.27352,"name":"Stonebridge Park Stn   / Point Place","parentId":"490G000681","stationId":"490G000681","stopLetter":"C","topMostParentId":"490G000681","towards":"Sudbury Or Wembley Stadium"},{"icsId":"1006871","id":"490006871N","lat":51.54843,"lon":-0.27888,"name":"Flamsted Avenue","parentId":"490G00006871","stationId":"490G00006871","stopLetter":"->N","topMostParentId":"490G00006871","towards":"Sudbury Or Wembley Stadium"},{"icsId":"1013797","id":"490013797N","lat":51.54986,"lon":-0.28164,"name":"Tring Avenue","parentId":"490G00013797","stationId":"490G00013797","stopLetter":"->N","topMostParentId":"490G00013797","towards":"Sudbury Or Wembley Stadium"},{"icsId":"1014315","id":"490014315N2","lat":51.55267,"lon":-0.28517,"name":"Waverley Avenue","parentId":"490G00014315","stationId":"490G00014315","stopLetter":"SJ","topMostParentId":"490G00014315","towards":"Sudbury Or Wembley Stadium"},{"icsId":"1005584","id":"490015558W2","lat":51.55365,"lon":-0.28998,"name":"Cecil Avenue","parentId":"490G00005584","stationId":"490G00005584","stopLetter":"SP","topMostParentId":"490G00005584","towards":"Sudbury Town"},{"icsId":"1005588","id":"490014378M","lat":51.55351,"lon":-0.2918,"name":"Ark Elvin Academy / Park Lane","parentId":"490G00005588","stationId":"490G00005588","stopLetter":"ST","topMostParentId":"490G00005588","towards":"Alperton Or Sudbury"},{"icsId":"1000256","id":"490000256H","lat":51.55224,"lon":-0.29779,"name":"Wembley Central Station","stopLetter":"CS","topMostParentId":"490000256H","towards":"Sudbury","zone":"4"},{"icsId":"1006299","id":"490006299B","lat":51.55221,"lon":-0.30151,"name":"Ealing Road","parentId":"490G00006299","stationId":"490G00006299","stopLetter":"CW","topMostParentId":"490G00006299","towards":"Sudbury"},{"icsId":"1005583","id":"490005583W","lat":51.55158,"lon":-0.30752,"name":"Copland Avenue","parentId":"490G00005583","stationId":"490G00005583","stopLetter":"HC","topMostParentId":"490G00005583","towards":"Greenford Or Harrow"},{"icsId":"1004335","id":"490004335F","lat":51.55238,"lon":-0.31266,"name":"Bridgewater Road","parentId":"490G00004335","stationId":"490G00004335","stopLetter":"F","topMostParentId":"490G00004335","towards":"Greenford Or Harrow"},{"icsId":"1001282","id":"490001282N","lat":51.554166,"lon":-0.314914,"name":"Sudbury & Harrow Road Station","topMostParentId":"490001282N"}]}]}