{"direction":"inbound","lineId":"182","lineName":"182","mode":"bus","stopPointSequences":[{"stopPoint":[{"icsId":"1004282","id":"490004282B","lat":51.57574,"lon":-0.22326,"name":"Brent Cross Shopping Centre","parentId":"490G00004282","stationId":"490G00004282","stopLetter":"B","topMostParentId":"490G00004282","towards":"Staples Corner"},{"icsId":"1013675","id":"490013675S","lat":51.57267,"lon":-0.22555,"name":"Tilling Road","parentId":"490G00013675","stationId":"490G00013675","stopLetter":"S","topMostParentId":"490G00013675","towards":"Colindale, Cricklewood Or Neasden"},{"icsId":"1012589","id":"490012589W","lat":51.57033,"lon":-0.23349,"name":"Staples Corner","parentId":"490G00012589","stationId":"490G00012589","stopLetter":"SK","topMostParentId":"490G00012589","towards":"Neasden"},{"icsId":"1005474","id":"490005474W","lat":51.57003,"lon":-0.23521,"name":"Coles Green Road","parentId":"490G00005474","stationId":"490G00005474","stopLetter":"SL","topMostParentId":"490G00005474","towards":"Neasden"},{"icsId":"1005473","id":"490005473S","lat":51.5677,"lon":-0.23455,"name":"Eyhurst Close","parentId":"490G00005473","stationId":"490G00005473","stopLetter":"ST","topMostParentId":"490G00005473","towards":"Neasden Or St Raphael's Estate"},{"icsId":"1003271","id":"49003271DD","lat":51.56622,"lon":-0.23407,"name":"Alder Grove","parentId":"490G00003271","stationId":"490G00003271","stopLetter":"DD","topMostParentId":"490G00003271","towards":"Brent Park, Sudbury Or Wembley"},{"icsId":"1004470","id":"490004470E2","lat":51.5645,"lon":-0.24017,"name":"Brook Road","parentId":"490G00004470","stationId":"490G00004470","stopLetter":"->W","topMostParentId":"490G00004470","towards":"Brent Park, Sudbury Or Wembley"},{"icsId":"1011414","id":"490011414S1","lat":51.56298,"lon":-0.24541,"name":"Randall Avenue","parentId":"490G00011414","stationId":"490G00011414","stopLetter":"->S","topMostParentId":"490G00011414","towards":"Brent Park, Sudbury Or Wembley"},{"icsId":"1005412","id":"490005412HH","lat":51.5588,"lon":-0.24863,"name":"Dudden Hill Lane","parentId":"490G00005412","stationId":"490G00005412","stopLetter":"HH","topMostParentId":"490G00005412","towards":"Brent Park, Sudbury Or Wembley"},{"icsId":"1010163","id":"490010163N","lat":51.55856,"lon":-0.25061,"name":"Neasden Underpass","parentId":"490G00010163","stationId":"490G00010163","stopLetter":"EE","topMostParentId":"490G00010163","towards":"Brent Park, Kingsbury Or Wembley Park"},{"icsId":"1003524","id":"490003524N","lat":51.56214,"lon":-0.25727,"name":"Aylesbury Street","parentId":"490G00003524","stationId":"490G00003524","stopLetter":"BP","topMostParentId":"490G00003524","towards":"Kingsbury, Sudbury Or Wembley"},{"icsId":"1011297","id":"490011297W","lat":51.56329,"lon":-0.26005,"name":"Quainton Street","parentId":"490G00011297","stationId":"490G00011297","stopLetter":"BQ","topMostParentId":"490G00011297","towards":"Kingsbury, Sudbury Or Wembley"},{"icsId":"1004052","id":"490004052N","lat":51.56456,"lon":-0.26299,"name":"Blackbird Hill","parentId":"490G00004052","stationId":"490G00004052","stopLetter":"BR","topMostParentId":"490G00004052","towards":"Kingsbury, Sudbury Or Wembley"},{"icsId":"1004051","id":"490004051W","lat":51.56565,"lon":-0.26653,"name":"Blackbird Cross","parentId":"490G00004051","stationId":"490G00004051","stopLetter":"BS","topMostParentId":"490G00004051","towards":"Sudbury Or Wembley"},{"icsId":"1004301","id":"490004331S","lat":51.56532,"lon":-0.2757,"name":"Lycee International / Kings Drive","parentId":"490G00004301","stationId":"490G00004301","stopLetter":"S","topMostParentId":"490G00004301","towards":"Sudbury Or Wembley"},{"icsId":"1000257","id":"490000257O","lat":51.5637,"lon":-0.27865,"name":"Wembley Park Station","stopLetter":"O","topMostParentId":"490000257O","towards":"Alperton, Harlesden Or Sudbury","zone":"4"},{"icsId":"1007063","id":"490007063H","lat":51.56055,"lon":-0.28333,"name":"Fulton Road","parentId":"490G00007063","stationId":"490G00007063","stopLetter":"H","topMostParentId":"490G00007063","towards":"Alperton Or Sudbury"},{"icsId":"1014376","id":"490014376C","lat":51.55791,"lon":-0.28545,"name":"Lakeside Way","parentId":"490G00014376","stationId":"490G00014376","stopLetter":"C","topMostParentId":"490G00014376","towards":"Alperton, Park Royal Or Sudbury"},{"icsId":"1001320","id":"490001320A","lat":51.55559,"lon":-0.2861,"name":"Wembley Stadium Station","stopLetter":"SA","topMostParentId":"490001320A","towards":"Alperton Or Sudbury"},{"icsId":"1005584","id":"490015558W2","lat":51.55365,"lon":-0.28998,"name":"Cecil Avenue","parentId":"490G00005584","stationId":"490G00005584","stopLetter":"SP","topMostParentId":"490G00005584","towards":"Sudbury Town"},{"icsId":"1005588","id":"490014378M","lat":51.55351,"lon":-0.2918,"name":"Ark Elvin Academy / Park Lane","parentId":"490G00005588","stationId":"490G00005588","stopLetter":"ST","topMostParentId":"490G00005588","towards":"Alperton Or Sudbury"},{"icsId":"1000256","id":"490000256H","lat":51.55224,"lon":-0.29779,"name":"Wembley Central Station","stopLetter":"CS","topMostParentId":"490000256H","towards":"Sudbury","zone":"4"},{"icsId":"1006299","id":"490006299B","lat":51.55221,"lon":-0.30151,"name":"Ealing Road","parentId":"490G00006299","stationId":"490G00006299","stopLetter":"CW","topMostParentId":"490G00006299","towards":"Sudbury"},{"icsId":"1005583","id":"490005583W","lat":51.55158,"lon":-0.30752,"name":"Copland Avenue","parentId":"490G00005583","stationId":"490G00005583","stopLetter":"HC","topMostParentId":"490G00005583","towards":"Greenford Or Harrow"},{"icsId":"1004335","id":"490004335F","lat":51.55238,"lon":-0.31266,"name":"Bridgewater Road","parentId":"490G00004335","stationId":"490G00004335","stopLetter":"F","topMostParentId":"490G00004335","towards":"Greenford Or Harrow"},{"icsId":"1001282","id":"490001282J","lat":51.55474,"lon":-0.31572,"name":"Sudbury & Harrow Road Station","stopLetter":"J","topMostParentId":"490001282J","towards":"Greenford, Harrow Or North Wembley"},{"icsId":"1004658","id":"490004658N","lat":51.5571,"lon":-0.31755,"name":"Butlers Green","parentId":"490G00004658","stationId":"490G00004658","stopLetter":"G","topMostParentId":"490G00004658","towards":"Harrow Or Neasden"},{"icsId":"1012983","id":"490012983N","lat":51.56087,"lon":-0.31996,"name":"Perrin Road","parentId":"490G00012983","stationId":"490G00012983","stopLetter":"H","topMostParentId":"490G00012983","towards":"Harrow Or North Wembley"},{"icsId":"1012979","id":"490012979N","lat":51.56364,"lon":-0.32101,"name":"Sudbury Court Road","parentId":"490G00012979","stationId":"490G00012979","stopLetter":"J","topMostParentId":"490G00012979","towards":"Harrow"},{"icsId":"1013393","id":"490013393N","lat":51.5689,"lon":-0.32176,"name":"The Green / Carlton Avenue West","parentId":"490G00013393","stationId":"490G00013393","stopLetter":"T","topMostParentId":"490G00013393","towards":"Harrow"},{"icsId":"1010425","id":"490010425N","lat":51.57531,"lon":-0.32533,"name":"Northwick Park Hospital","parentId":"490G00010425","stationId":"490G00010425","stopLetter":"->N","topMostParentId":"490G00010425","towards":"Harrow"},{"icsId":"1015197","id":"490015197O","lat":51.57776,"lon":-0.32625,"name":"University of Westminster","parentId":"490G00015197","stationId":"490G00015197","stopLetter":"BB","topMostParentId":"490G00015197","towards":"Harrow Weald"},{"icsId":"1010958","id":"490010958N","lat":51.57765,"lon":-0.33377,"name":"Tyburn Lane","parentId":"490G000702","stationId":"490G000702","stopLetter":"G","topMostParentId":"490G000702","towards":"Wealdstone"},{"icsId":"1015347","id":"490015347L","lat":51.57935,"lon":-0.33404,"name":"Harrow Town Centre","parentId":"490G00015347","stationId":"490G00015347","stopLetter":"L","topMostParentId":"490G00015347","towards":"Belmont, Harrow View Or Wealdstone"},{"icsId":"1007845","id":"490007845D","lat":51.58007,"lon":-0.33796,"name":"Harrow Bus Station","parentId":"490G000574","stationId":"490G000574","stopLetter":"D","topMostParentId":"HUBHOH","towards":"North Harrow, Pinner Or Wealdstone"},{"icsId":"1007458","id":"490007458K","lat":51.58189,"lon":-0.33626,"name":"Greenhill Way","parentId":"490G00007458","stationId":"490G00007458","stopLetter":"K","topMostParentId":"490G00007458","towards":"Harrow Weald"},{"icsId":"1011850","id":"490011850W","lat":51.58663,"lon":-0.33229,"name":"Safari Cinema","parentId":"490G00011850","stationId":"490G00011850","stopLetter":"W","topMostParentId":"490G00011850","towards":"Belmont Circle Or Harrow Weald"},{"icsId":"1007846","id":"490007846K","lat":51.58971,"lon":-0.3329,"name":"Harrow Civic Centre / Harrow Mosque","parentId":"490G00007846","stationId":"490G00007846","stopLetter":"K","topMostParentId":"490G00007846","towards":"Belmont Circle Or Harrow Weald"},{"icsId":"1000101","id":"490015249N","lat":51.59229,"lon":-0.33408,"name":"Harrow & Wealdstone Station","stopLetter":"N","topMostParentId":"490015249N","towards":"Belmont Circle Or Harrow Weald","zone":"5"},{"icsId":"1015250","id":"490015250G","lat":51.59428,"lon":-0.33529,"name":"The Wealdstone Centre","parentId":"490G00015250","stationId":"490G00015250","stopLetter":"G","topMostParentId":"490G00015250","towards":"Bushey, Harrow Weald Or Stanmore"},{"icsId":"1007844","id":"490014328C","lat":51.5962,"lon":-0.33549,"name":"Wealdstone Baptist Church","parentId":"490G00007844","stationId":"490G00007844","stopLetter":"C","topMostParentId":"490G00007844","towards":"Bushey, Harrow Weald Or Stanmore"},{"icsId":"1011882","id":"490011882N","lat":51.60059,"lon":-0.33838,"name":"Salvatorian College / St Joseph's Church","parentId":"490G00011882","stationId":"490G00011882","stopLetter":"WP","topMostParentId":"490G00011882","towards":"Bushey, Harrow Weald Or Stanmore"},{"icsId":"1009302","id":"490009302N","lat":51.60485,"lon":-0.34011,"name":"Long Elmes","parentId":"490G00009302","stationId":"490G00009302","stopLetter":"WS","topMostParentId":"490G00009302","towards":"Bushey Heath, Stanmore Or Belmont Circle"},{"icsId":"1007870","id":"490007870N1","lat":51.60613,"lon":-0.3403,"name":"Harrow Weald Bus Garage","parentId":"490G00007870","stationId":"490G00007870","stopLetter":"WT","topMostParentId":"490G00007870","towards":"Bushey Heath, Stanmore Or Belmont Circle"},{"icsId":"1013972","id":"490013971N","lat":51.60935,"lon":-0.33962,"name":"Monro Gardens","parentId":"490G00013972","stationId":"490G00013972","stopLetter":"WV","topMostParentId":"490G00013972","towards":"Bushey Heath, Stanmore Or Belmont Circle"},{"icsId":"1003847","id":"490003847W","lat":51.60993,"lon":-0.34663,"name":"Belsize Road","parentId":"490G00003847","stationId":"490G00003847","stopLetter":"->W","topMostParentId":"490G00003847","towards":"Bannister Playing Fields"},{"icsId":"1008444","id":"490008444N","lat":51.60991,"lon":-0.34964,"name":"Hutton Walk","parentId":"490G00008444","stationId":"490G00008444","stopLetter":"Q","topMostParentId":"490G00008444","towards":"Bannister Playing Fields"},{"icsId":"1003582","id":"490003582W","lat":51.6092,"lon":-0.35677,"name":"Courtenay Avenue","parentId":"490G00003582","stationId":"490G00003582","stopLetter":"M","topMostParentId":"490G00003582","towards":"Hatch End"},{"icsId":"1003582","id":"490003582C","lat":51.6093,"lon":-0.35724,"name":"Bannister Playing Fields","parentId":"490G00003582","stationId":"490G00003582","stopLetter":"N","topMostParentId":"490G00003582","towards":"Harrow"}]}]}