{"direction":"inbound","lineId":"187","lineName":"187","mode":"bus","stopPointSequences":[{"stopPoint":[{"icsId":"1010471","id":"490010471Z","lat":51.54826,"lon":-0.18342,"name":"O2 Centre / Sainsbury's","parentId":"490G00010471","stationId":"490G00010471","stopLetter":"FC","topMostParentId":"490G00010471","towards":"Hampstead Or St John's Wood"},{"icsId":"1011854","id":"490011854C","lat":51.54799,"lon":-0.1863,"name":"O2 Centre / Homebase","parentId":"490G00011854","stationId":"490G00011854","stopLetter":"FB","topMostParentId":"490G00011854","towards":"Hampstead Or St John's Wood"},{"icsId":"1000307","id":"490007045FH","lat":51.54795,"lon":-0.18049,"name":"O2 Centre","parentId":"490G00000307","stationId":"490G00000307","stopLetter":"FH","topMostParentId":"490G00000307","towards":"Hampstead Or St John's Wood"},{"icsId":"1000082","id":"490000082FJ","lat":51.54635,"lon":-0.17888,"name":"Finchley Road Station","stopLetter":"FJ","topMostParentId":"490000082FJ","towards":"St John's Wood Or Hampstead","zone":"2"},{"icsId":"1019775","id":"490005487B","lat":51.54453,"lon":-0.17565,"name":"Finchley Road / College Crescent","parentId":"490G00019775","stationId":"490G00019775","stopLetter":"B","topMostParentId":"490G00019775","towards":"St John's Wood Or Hampstead"},{"icsId":"1000230","id":"490000230D","lat":51.54289,"lon":-0.17407,"name":"Swiss Cottage Station","stopLetter":"D","topMostParentId":"490000230D","towards":"Baker Street Or Finchley Road O2 Centre","zone":"2"},{"icsId":"1004185","id":"490004185S","lat":51.53933,"lon":-0.17569,"name":"Boundary Road","parentId":"490G00004185","stationId":"490G00004185","stopLetter":"V","topMostParentId":"490G00004185","towards":"Baker Street Or Maida Vale"},{"icsId":"1011336","id":"490011336S","lat":51.53678,"lon":-0.17614,"name":"Queen's Grove","parentId":"490G00011336","stationId":"490G00011336","stopLetter":"U","topMostParentId":"490G00011336","towards":"Baker Street Or Maida Vale"},{"icsId":"1000222","id":"490005318C","lat":51.53409,"lon":-0.17376,"name":"St John's Wood Station","stopLetter":"C","topMostParentId":"490005318C","towards":"Baker Street Or Maida Vale","zone":"2"},{"icsId":"1004883","id":"490004883E","lat":51.53239,"lon":-0.17422,"name":"Cavendish Avenue","parentId":"490G00004883","stationId":"490G00004883","stopLetter":"E","topMostParentId":"490G00004883","towards":"Paddington Or Queens Park"},{"icsId":"1007557","id":"490007557W","lat":51.53016,"lon":-0.17754,"name":"Grove End Road","parentId":"490G00007557","stationId":"490G00007557","stopLetter":"T","topMostParentId":"490G00007557","towards":"Warwick Avenue"},{"icsId":"1007679","id":"490015574D","lat":51.52876,"lon":-0.18042,"name":"Hall Road / Maida Vale","parentId":"490G00007679","stationId":"490G00007679","stopLetter":"D","topMostParentId":"490G00007679","towards":"Warwick Avenue"},{"icsId":"1008926","id":"490007679R","lat":51.52797,"lon":-0.18076,"name":"Sutherland Avenue","parentId":"490G00008926","stationId":"490G00008926","stopLetter":"R","topMostParentId":"490G00008926","towards":"Marble Arch, Maida Hill Or Paddington"},{"icsId":"1005427","id":"490005427W2","lat":51.52547,"lon":-0.17947,"name":"Clifton Road / Maida Vale","parentId":"490G00005427","stationId":"490G00005427","stopLetter":"G","topMostParentId":"490G00005427","towards":"Maida Hill Or Paddington"},{"icsId":"1000253","id":"490000253H","lat":51.52361,"lon":-0.18342,"name":"Warwick Avenue Station","stopLetter":"H","topMostParentId":"490000253H","towards":"Paddington Or Queen's Park","zone":"2"},{"icsId":"1019111","id":"490004990W","lat":51.52423,"lon":-0.18891,"name":"Sutherland Avenue","parentId":"490G00019111","stationId":"490G00019111","stopLetter":"MJ","topMostParentId":"490G00019111","towards":"Queens Park"},{"icsId":"1006471","id":"490006471W","lat":51.5261,"lon":-0.19284,"name":"Elgin Avenue","parentId":"490G00006471","stationId":"490G00006471","stopLetter":"MK","topMostParentId":"490G00006471","towards":"Queens Park"},{"icsId":"1005188","id":"490005188W","lat":51.52755,"lon":-0.19653,"name":"Chippenham Road","parentId":"490G00005188","stationId":"490G00005188","stopLetter":"ML","topMostParentId":"490G00005188","towards":"Queens Park"},{"icsId":"1006901","id":"490006901N","lat":51.52897,"lon":-0.20162,"name":"Fordingley Road","parentId":"490G00006901","stationId":"490G00006901","stopLetter":"MS","topMostParentId":"490G00006901","towards":"Queen's Park"},{"icsId":"1004806","id":"490004806N","lat":51.53254,"lon":-0.20305,"name":"Carlton Vale","parentId":"490G00004806","stationId":"490G00004806","stopLetter":"F","topMostParentId":"490G00004806","towards":"Kensal Rise"},{"icsId":"1000186","id":"490013353E","lat":51.53291,"lon":-0.20575,"name":"Queen's Park Station","stopLetter":"H","topMostParentId":"490013353E","towards":"Kensal Rise Or Ladbroke Grove","zone":"2"},{"icsId":"1003125","id":"490003125W","lat":51.53189,"lon":-0.21134,"name":"Fifth Avenue","parentId":"490G00003125","stationId":"490G00003125","stopLetter":"J","topMostParentId":"490G00003125","towards":"Kensal Rise Or Ladbroke Grove"},{"icsId":"1003577","id":"490003577W","lat":51.5311,"lon":-0.21613,"name":"Wakeman Road","parentId":"490G00003577","stationId":"490G00003577","stopLetter":"KL","topMostParentId":"490G00003577","towards":"Harlesden Or Willesden"},{"icsId":"1001161","id":"490001161N","lat":51.5337,"lon":-0.21915,"name":"Kensal Rise Station","stopLetter":"KR","topMostParentId":"490001161N","towards":"Harlesden Or Willesden"},{"icsId":"1014620","id":"490001161N1","lat":51.53532,"lon":-0.22011,"name":"Wrentham Avenue","parentId":"490G00014620","stationId":"490G00014620","stopLetter":"KP","topMostParentId":"490G00014620","towards":"Harlesden Or Willesden"},{"icsId":"1009148","id":"490009148W","lat":51.53664,"lon":-0.22166,"name":"Liddell Gardens","parentId":"490G00009148","stationId":"490G00009148","stopLetter":"KF","topMostParentId":"490G00009148","towards":"Harlesden"},{"icsId":"1005496","id":"490005496W","lat":51.53589,"lon":-0.22599,"name":"College Road","parentId":"490G00005496","stationId":"490G00005496","stopLetter":"KE","topMostParentId":"490G00005496","towards":"Harlesden"},{"icsId":"1003255","id":"490003255S","lat":51.53621,"lon":-0.23022,"name":"Doyle Gardens","parentId":"490G00003255","stationId":"490G00003255","stopLetter":"KD","topMostParentId":"490G00003255","towards":"Harlesden"},{"icsId":"1003257","id":"490003257S2","lat":51.53385,"lon":-0.23338,"name":"All Souls Avenue","parentId":"490G00003257","stationId":"490G00003257","stopLetter":"Y","topMostParentId":"490G00003257","towards":"Harlesden"},{"icsId":"1007067","id":"490007067N","lat":51.53513,"lon":-0.23764,"name":"Furness Road","parentId":"490G00007067","stationId":"490G00007067","stopLetter":"Z","topMostParentId":"490G00007067","towards":"Park Royal"},{"icsId":"1014969","id":"490014969L","lat":51.53668,"lon":-0.24035,"name":"Harlesden Road","parentId":"490G00014969","stationId":"490G00014969","stopLetter":"L","topMostParentId":"490G00014969","towards":"Park Royal"},{"icsId":"1008187","id":"490010792D","lat":51.53694,"lon":-0.24322,"name":"Park Parade","parentId":"490G00008187","stationId":"490G00008187","stopLetter":"D","topMostParentId":"490G00008187","towards":"Park Royal Or Stonebridge"},{"icsId":"1014690","id":"490014690S","lat":51.53569,"lon":-0.24946,"name":"Willesden County Court","parentId":"490G00014690","stationId":"490G00014690","stopLetter":"S","topMostParentId":"490G00014690","towards":"North Acton, Park Royal Or Brent Park"},{"icsId":"1006717","id":"490006717W","lat":51.53654,"lon":-0.2533,"name":"Fairlight Avenue","parentId":"490G00006717","stationId":"490G00006717","stopLetter":"HF","topMostParentId":"490G00006717","towards":"North Acton, Park Royal Or Brent Park"},{"icsId":"1000100","id":"490000100S","lat":51.53627,"lon":-0.25699,"name":"Harlesden Station","stopLetter":"HA","topMostParentId":"490000100S","towards":"Alperton, East Acton Or Park Royal","zone":"3"},{"icsId":"1014319","id":"490014319S","lat":51.53487,"lon":-0.25862,"name":"Waxlow Road","parentId":"490G00014319","stationId":"490G00014319","stopLetter":"PA","topMostParentId":"490G00014319","towards":"Alperton, East Acton Or Park Royal"},{"icsId":"1003652","id":"490003652S","lat":51.53251,"lon":-0.26335,"name":"Barretts Green Road","parentId":"490G00003652","stationId":"490G00003652","stopLetter":"W","topMostParentId":"490G00003652","towards":"Alperton, East Acton Or Park Royal"},{"icsId":"1004925","id":"490004925A","lat":51.53033,"lon":-0.26903,"name":"Central Middlesex Hospital","parentId":"490G00004925","stationId":"490G00004925","stopLetter":"A","topMostParentId":"490G00004925","towards":"Harlesden Or Stonebridge Park"}]}]}