{"direction":"inbound","lineId":"194","lineName":"194","mode":"bus","stopPointSequences":[{"stopPoint":[{"icsId":"1014420","id":"490014420V","lat":51.37916,"lon":-0.10112,"name":"West Croydon Bus Station","parentId":"490G000824","stationId":"490G000824","stopLetter":"B1","topMostParentId":"HUBWCY"},{"icsId":"1009452","id":"490009452W3","lat":51.37778,"lon":-0.09931,"name":"Lunar House","parentId":"490G00009452","stationId":"490G00009452","stopLetter":"WH","topMostParentId":"490G00009452","towards":"Shirley"},{"icsId":"1014614","id":"490014614E11","lat":51.37701,"lon":-0.09865,"name":"Whitgift Centre","parentId":"490G00014614","stationId":"490G00014614","stopLetter":"WJ","topMostParentId":"490G00014614","towards":"Selsdon, Shirley Or Waddon"},{"icsId":"1019808","id":"490001089E8","lat":51.3749,"lon":-0.09414,"name":"Dingwall Road / East Croydon Station","parentId":"490G000951","stationId":"490G000951","stopLetter":"E8","topMostParentId":"490G000951","towards":"Norwood Junction, Selsdon Or Shirley"},{"icsId":"1001089","id":"490001089E1","lat":51.37494,"lon":-0.09174,"name":"East Croydon Bus Station","stopLetter":"E1","topMostParentId":"490001089E1","towards":"Shirley"},{"icsId":"1002052","id":"490002052E","lat":51.37523,"lon":-0.08542,"name":"Lebanon Road Tram Stop","stopLetter":"A","topMostParentId":"490002052E","towards":"Addington Or Shirley"},{"icsId":"1002072","id":"490002072B","lat":51.37523,"lon":-0.07897,"name":"Sandilands Tram Stop","stopLetter":"B","topMostParentId":"490002072B","towards":"Addington Or Shirley"},{"icsId":"1003420","id":"490003420E","lat":51.37505,"lon":-0.07583,"name":"Ashburton Road","parentId":"490G00003420","stationId":"490G00003420","stopLetter":"C","topMostParentId":"490G00003420","towards":"Addington Or Shirley"},{"icsId":"1009623","id":"490009623E","lat":51.37425,"lon":-0.07099,"name":"Mapledale Avenue","parentId":"490G00009623","stationId":"490G00009623","stopLetter":"D","topMostParentId":"490G00009623","towards":"Addington Or Shirley"},{"icsId":"1004014","id":"490004014E","lat":51.37521,"lon":-0.06543,"name":"Birch Tree Way","parentId":"490G00004014","stationId":"490G00004014","stopLetter":"E","topMostParentId":"490G00004014","towards":"Addington Or Shirley"},{"icsId":"1012099","id":"490012099E1","lat":51.37624,"lon":-0.06102,"name":"Trinity School","parentId":"490G00012099","stationId":"490G00012099","stopLetter":"F","topMostParentId":"490G00012099","towards":"Addington Or Shirley"},{"icsId":"1002279","id":"490002279ZZ","lat":51.37509,"lon":-0.05745,"name":"Valley Walk","parentId":"490G00002279","stationId":"490G00002279","stopLetter":"->S","topMostParentId":"490G00002279","towards":"Addington Village Interchange Or Shirley"},{"icsId":"1013945","id":"490013945E","lat":51.37392,"lon":-0.05459,"name":"Upper Shirley Road","parentId":"490G00013945","stationId":"490G00013945","stopLetter":"A","topMostParentId":"490G00013945","towards":"Shrublands Or West Wickham"},{"icsId":"1013574","id":"490013551E","lat":51.37469,"lon":-0.04971,"name":"Verdayne Avenue","parentId":"490G00013574","stationId":"490G00013574","stopLetter":"B","topMostParentId":"490G00013574","towards":"Elmers End, Shrublands Or West Wickham"},{"icsId":"1012096","id":"490012096E","lat":51.37526,"lon":-0.04672,"name":"Shirley Library","parentId":"490G00012096","stationId":"490G00012096","stopLetter":"C","topMostParentId":"490G00012096","towards":"Elmers End, Shrublands Or West Wickham"},{"icsId":"1015436","id":"490015436S","lat":51.37483,"lon":-0.04568,"name":"Hartland Way","parentId":"490G00015436","stationId":"490G00015436","stopLetter":"Y","topMostParentId":"490G00015436","towards":"West Wickham"},{"icsId":"1003902","id":"490003902S","lat":51.37291,"lon":-0.04465,"name":"Bennetts Way","parentId":"490G00003902","stationId":"490G00003902","stopLetter":"->S","topMostParentId":"490G00003902","towards":"West Wickham"},{"icsId":"1003908","id":"490003908E","lat":51.37077,"lon":-0.04309,"name":"Benson School","parentId":"490G00003908","stationId":"490G00003908","stopLetter":"->E","topMostParentId":"490G00003908","towards":"West Wickham"},{"icsId":"1003899","id":"490003899E","lat":51.37183,"lon":-0.03981,"name":"Bennetts Avenue","parentId":"490G00003899","stationId":"490G00003899","stopLetter":"->E","topMostParentId":"490G00003899","towards":"West Wickham"},{"icsId":"1009891","id":"490009891E","lat":51.37236,"lon":-0.03465,"name":"Millers Pond","parentId":"490G00009891","stationId":"490G00009891","stopLetter":"->E","topMostParentId":"490G00009891","towards":"West Wickham"},{"icsId":"1012102","id":"490012102S","lat":51.3721,"lon":-0.03082,"name":"Links View Road","parentId":"490G00012102","stationId":"490G00012102","stopLetter":"->S","topMostParentId":"490G00012102","towards":"Shrublands Or West Wickham"},{"icsId":"1020314","id":"490013378S","lat":51.37044,"lon":-0.03119,"name":"Forest Academy","parentId":"490G00020314","stationId":"490G00020314","stopLetter":"->S","topMostParentId":"490G00020314","towards":"Shrublands Or West Wickham"},{"icsId":"1014936","id":"490014936N","lat":51.37312,"lon":-0.03096,"name":"Worcester Close","parentId":"490G00014936","stationId":"490G00014936","stopLetter":"->N","topMostParentId":"490G00014936","towards":"West Wickham Or East Croydon"},{"icsId":"1006070","id":"490006070N","lat":51.37585,"lon":-0.03032,"name":"Devonshire Way","parentId":"490G00006070","stationId":"490G00006070","stopLetter":"->N","topMostParentId":"490G00006070","towards":"East Croydon Or West Wickham"},{"icsId":"1009978","id":"490009978N","lat":51.37647,"lon":-0.02976,"name":"Monks Orchard Road","parentId":"490G00009978","stationId":"490G00009978","stopLetter":"S","topMostParentId":"490G00009978","towards":"East Croydon"},{"icsId":"1009979","id":"490009979P","lat":51.37729,"lon":-0.02742,"name":"West Wickham and Shirley Baptist Church","parentId":"490G00009979","stationId":"490G00009979","stopLetter":"P","topMostParentId":"490G00009979","towards":"Elmers End Or Hayes"},{"icsId":"1014528","id":"490014528L","lat":51.37733,"lon":-0.02206,"name":"High Street / Manor Road","parentId":"490G00014528","stationId":"490G00014528","stopLetter":"L","topMostParentId":"490G00014528","towards":"Elmers End Or Hayes"},{"icsId":"1012087","id":"490012087J","lat":51.37635,"lon":-0.01788,"name":"Sherwood Way","parentId":"490G00012087","stationId":"490G00012087","stopLetter":"J","topMostParentId":"490G00012087","towards":"Elmers End Or Hayes"},{"icsId":"1019894","id":"490014529G","lat":51.37598,"lon":-0.01593,"name":"High Street / the Grove","parentId":"490G00019894","stationId":"490G00019894","stopLetter":"G","topMostParentId":"490G00019894","towards":"Elmers End Or Hayes"},{"icsId":"1014529","id":"490014529E","lat":51.37647,"lon":-0.01468,"name":"Station Road / High Street","parentId":"490G00014529","stationId":"490G00014529","stopLetter":"E","topMostParentId":"490G00014529","towards":"Elmers End"},{"icsId":"1019720","id":"490001334A","lat":51.38023,"lon":-0.0153,"name":"Beckenham Road / West Wickham Station","parentId":"490G000941","stationId":"490G000941","stopLetter":"A","topMostParentId":"490G000941","towards":"Elmers End"},{"icsId":"1012650","id":"490012650N","lat":51.38187,"lon":-0.01817,"name":"St David's Close","parentId":"490G00012650","stationId":"490G00012650","stopLetter":"->N","topMostParentId":"490G00012650","towards":"Elmers End"},{"icsId":"1012277","id":"490012277N","lat":51.3848,"lon":-0.02193,"name":"South Eden Park Road","parentId":"490G00012277","stationId":"490G00012277","stopLetter":"->N","topMostParentId":"490G00012277","towards":"Elmers End"},{"icsId":"1009192","id":"490009192W","lat":51.38694,"lon":-0.02438,"name":"Links Way","parentId":"490G00009192","stationId":"490G00009192","stopLetter":"K","topMostParentId":"490G00009192","towards":"Elmers End"},{"icsId":"1001091","id":"490001091A","lat":51.3896,"lon":-0.02653,"name":"Eden Park Station","stopLetter":"A","topMostParentId":"490001091A","towards":"Anerley Or Beckenham"},{"icsId":"1006408","id":"490006408W","lat":51.39107,"lon":-0.0294,"name":"Eden Park","parentId":"490G00006408","stationId":"490G00006408","stopLetter":"L","topMostParentId":"490G00006408","towards":"Anerley Or Beckenham"},{"icsId":"1009249","id":"490009249W","lat":51.39205,"lon":-0.03386,"name":"Lodge Gardens","parentId":"490G00009249","stationId":"490G00009249","stopLetter":"M","topMostParentId":"490G00009249","towards":"Anerley Or Beckenham"},{"icsId":"1013532","id":"490013532W","lat":51.39178,"lon":-0.03841,"name":"Altyre Way","parentId":"490G00013532","stationId":"490G00013532","stopLetter":"->W","topMostParentId":"490G00013532","towards":"Anerley Or Beckenham"},{"icsId":"1003046","id":"490003046S","lat":51.39323,"lon":-0.04143,"name":"Abbots Way","parentId":"490G00003046","stationId":"490G00003046","stopLetter":"P","topMostParentId":"490G00003046","towards":"Anerley Or Beckenham"},{"icsId":"1012110","id":"490012110N","lat":51.39596,"lon":-0.04314,"name":"Goddard Road","parentId":"490G00012110","stationId":"490G00012110","stopLetter":"R","topMostParentId":"490G00012110","towards":"Anerley Or Beckenham"},{"icsId":"1013302","id":"490013302CA","lat":51.3977,"lon":-0.04365,"name":"The Close","parentId":"490G00013302","stationId":"490G00013302","stopLetter":"S","topMostParentId":"490G00013302","towards":"Anerley Or Beckenham"},{"icsId":"1006506","id":"490006506AB","lat":51.39924,"lon":-0.0432,"name":"Elmers End Green","parentId":"490G00006506","stationId":"490G00006506","stopLetter":"J","topMostParentId":"490G00006506","towards":"Beckenham"},{"icsId":"1006409","id":"490006409N","lat":51.39962,"lon":-0.04062,"name":"Eden Park Avenue","parentId":"490G00006409","stationId":"490G00006409","stopLetter":"K","topMostParentId":"490G00006409","towards":"Catford Or Penge"},{"icsId":"1005796","id":"490005796N","lat":51.40279,"lon":-0.03711,"name":"Cromwell Road","parentId":"490G00005796","stationId":"490G00005796","stopLetter":"->N","topMostParentId":"490G00005796","towards":"Catford Or Penge"},{"icsId":"1003742","id":"490003742N","lat":51.40444,"lon":-0.03461,"name":"Beckenham Hospital","parentId":"490G00003742","stationId":"490G00003742","stopLetter":"L","topMostParentId":"490G00003742","towards":"Catford Or Penge"},{"icsId":"1003743","id":"490003743T","lat":51.40675,"lon":-0.0326,"name":"Croydon Road / War Memorial","parentId":"490G00003743","stationId":"490G00003743","stopLetter":"T","topMostParentId":"490G00003743","towards":"Catford Or Penge"},{"icsId":"1015349","id":"490015349BF","lat":51.40788,"lon":-0.03587,"name":"Hayne Road","parentId":"490G00015349","stationId":"490G00015349","stopLetter":"BP","topMostParentId":"490G00015349","towards":"Penge"},{"icsId":"1001071","id":"490001071A","lat":51.40866,"lon":-0.03949,"name":"Clock House Station","stopLetter":"BN","topMostParentId":"490001071A","towards":"Penge"},{"icsId":"1002010","id":"490002010B","lat":51.40943,"lon":-0.04407,"name":"Beckenham Road Tram Stop","stopLetter":"BK","topMostParentId":"490002010B","towards":"Crystal Palace Or Lower Sydenham"},{"icsId":"1001163","id":"490001163W","lat":51.41088,"lon":-0.04742,"name":"Kent House Station","stopLetter":"BL","topMostParentId":"490001163W","towards":"Crystal Palace Or Lower Sydenham"},{"icsId":"1005393","id":"490005393W","lat":51.4119,"lon":-0.04927,"name":"Clevedon Road","parentId":"490G00005393","stationId":"490G00005393","stopLetter":"->W","topMostParentId":"490G00005393","towards":"Crystal Palace Or Lower Sydenham"},{"icsId":"1010907","id":"490015420K","lat":51.41299,"lon":-0.0511,"name":"Penge / Sainsbury's","parentId":"490G00010907","stationId":"490G00010907","stopLetter":"K","topMostParentId":"490G00010907","towards":"Crystal Palace Or Forest Hill"},{"icsId":"1010906","id":"490010906L","lat":51.41432,"lon":-0.05104,"name":"Green Lane / Raleigh Road","parentId":"490G00010906","stationId":"490G00010906","stopLetter":"L","topMostParentId":"490G00010906","towards":"Lower Sydenham Or Sydenham"},{"icsId":"1013590","id":"490013554W","lat":51.41588,"lon":-0.0489,"name":"Thesiger Road","parentId":"490G00013590","stationId":"490G00013590","stopLetter":"P","topMostParentId":"490G00013590","towards":"Catford Or Lower Sydenham"},{"icsId":"1010908","id":"490010908N","lat":51.41738,"lon":-0.0513,"name":"Penge Lane","parentId":"490G00010908","stationId":"490G00010908","stopLetter":"R","topMostParentId":"490G00010908","towards":"Catford Or Lower Sydenham"},{"icsId":"1001224","id":"490001224A","lat":51.41997,"lon":-0.05327,"name":"Penge East Station","stopLetter":"Q","topMostParentId":"490001224A","towards":"Catford Or Lower Sydenham"},{"icsId":"1012963","id":"490012963N","lat":51.42176,"lon":-0.05223,"name":"Studland Road","parentId":"490G00012963","stationId":"490G00012963","stopLetter":"T","topMostParentId":"490G00012963","towards":"Catford Or Lower Sydenham"},{"icsId":"1010226","id":"490010226G","lat":51.42623,"lon":-0.05184,"name":"Newlands Park","parentId":"490G000676","stationId":"490G000676","stopLetter":"G","topMostParentId":"490G000676","towards":"Catford"},{"icsId":"1009750","id":"490009750N","lat":51.42575,"lon":-0.04752,"name":"Sydenham Road / Mayow Road","parentId":"490G00009750","stationId":"490G00009750","stopLetter":"N","topMostParentId":"490G00009750","towards":"Catford"},{"icsId":"1008147","id":"490008147E","lat":51.42663,"lon":-0.04187,"name":"Highclere Street","parentId":"490G00008147","stationId":"490G00008147","stopLetter":"LU","topMostParentId":"490G00008147","towards":"Catford Or Forest Hill"},{"icsId":"1004974","id":"490004974E","lat":51.42843,"lon":-0.0382,"name":"Kirtley Road","parentId":"490G00004974","stationId":"490G00004974","stopLetter":"LV","topMostParentId":"490G00004974","towards":"Catford Or Forest Hill"},{"icsId":"1003848","id":"490003848N1","lat":51.42949,"lon":-0.0375,"name":"Bell Green / Southend Lane","parentId":"490G00003848","stationId":"490G00003848","stopLetter":"LZ","topMostParentId":"490G00003848","towards":"Catford Or Forest Hill"},{"icsId":"1003849","id":"490003849E1","lat":51.43076,"lon":-0.03463,"name":"Bell Green / Sainsbury's","parentId":"490G00003849","stationId":"490G00003849","stopLetter":"AP","topMostParentId":"490G00003849"}]}]}