{"direction":"inbound","lineId":"198","lineName":"198","mode":"bus","stopPointSequences":[{"stopPoint":[{"icsId":"1013634","id":"490013634L","lat":51.39743,"lon":-0.09353,"name":"Nursery Road","parentId":"490G00013634","stationId":"490G00013634","stopLetter":"L","topMostParentId":"490G00013634","towards":"Thornton Heath Pond"},{"icsId":"1015449","id":"490015449H","lat":51.39871,"lon":-0.09715,"name":"Thornton Heath Clock Tower","parentId":"490G000896","stationId":"490G000896","stopLetter":"H","topMostParentId":"490G000896","towards":"Norbury Or Thornton Heath Pond"},{"icsId":"1001294","id":"490001294C","lat":51.39846,"lon":-0.09946,"name":"Thornton Heath Station","stopLetter":"C","topMostParentId":"490001294C","towards":"West Croydon"},{"icsId":"1004471","id":"490004471A","lat":51.39755,"lon":-0.10277,"name":"Brook Road","parentId":"490G00004471","stationId":"490G00004471","stopLetter":"A","topMostParentId":"490G00004471","towards":"West Croydon"},{"icsId":"1003905","id":"490003905S1","lat":51.3963,"lon":-0.10616,"name":"Bensham Lane","parentId":"490G00003905","stationId":"490G00003905","stopLetter":"X","topMostParentId":"490G00003905","towards":"West Croydon"},{"icsId":"1004342","id":"490004342W","lat":51.39539,"lon":-0.10911,"name":"Whitehorse Manor Brigstock Site","parentId":"490G00004342","stationId":"490G00004342","stopLetter":"N","topMostParentId":"490G00004342","towards":"West Croydon"},{"icsId":"1004343","id":"490004343M","lat":51.39349,"lon":-0.11342,"name":"Brigstock Road / London Road","parentId":"490G00004343","stationId":"490G00004343","stopLetter":"M","topMostParentId":"490G00004343","towards":"West Croydon"},{"icsId":"1013632","id":"490013632G","lat":51.39236,"lon":-0.11334,"name":"Thornton Heath Pond","parentId":"490G00013632","stationId":"490G00013632","stopLetter":"G","topMostParentId":"490G00013632","towards":"Croydon"},{"icsId":"1006250","id":"490006250E","lat":51.39128,"lon":-0.11252,"name":"Dunheved Road North","parentId":"490G00006250","stationId":"490G00006250","stopLetter":"E","topMostParentId":"490G00006250","towards":"Croydon Town Centre"},{"icsId":"1009732","id":"490009732C","lat":51.38877,"lon":-0.11137,"name":"Croydon University Hospital","parentId":"490G00009732","stationId":"490G00009732","stopLetter":"C","topMostParentId":"490G00009732","towards":"Croydon Town Centre"},{"icsId":"1004368","id":"490004368S","lat":51.38545,"lon":-0.1098,"name":"Broad Green Avenue","parentId":"490G00004368","stationId":"490G00004368","stopLetter":"LA","topMostParentId":"490G00004368","towards":"Croydon Town Centre"},{"icsId":"1004367","id":"490004367S","lat":51.3827,"lon":-0.10696,"name":"Sumner Road","parentId":"490G00004367","stationId":"490G00004367","stopLetter":"LB","topMostParentId":"490G00004367","towards":"Croydon Town Centre"},{"icsId":"1005856","id":"490005856W4","lat":51.38127,"lon":-0.10554,"name":"Montague Road","parentId":"490G00005856","stationId":"490G00005856","stopLetter":"LC","topMostParentId":"490G00005856","towards":"Croydon Town Centre"},{"icsId":"1001324","id":"490001324W5","lat":51.37892,"lon":-0.10336,"name":"West Croydon Station","stopLetter":"WA","topMostParentId":"490001324W5","towards":"East Croydon"},{"icsId":"1011116","id":"490011116W7","lat":51.37804,"lon":-0.10144,"name":"Poplar Walk","parentId":"490G000709","stationId":"490G000709","stopLetter":"WD","topMostParentId":"490G000709","towards":"East Croydon"},{"icsId":"1009452","id":"490009452W3","lat":51.37778,"lon":-0.09931,"name":"Lunar House","parentId":"490G00009452","stationId":"490G00009452","stopLetter":"WH","topMostParentId":"490G00009452","towards":"Shirley"},{"icsId":"1014614","id":"490014614E11","lat":51.37701,"lon":-0.09865,"name":"Whitgift Centre","parentId":"490G00014614","stationId":"490G00014614","stopLetter":"WJ","topMostParentId":"490G00014614","towards":"Selsdon, Shirley Or Waddon"},{"icsId":"1019808","id":"490001089E8","lat":51.3749,"lon":-0.09414,"name":"Dingwall Road / East Croydon Station","parentId":"490G000951","stationId":"490G000951","stopLetter":"E8","topMostParentId":"490G000951","towards":"Norwood Junction, Selsdon Or Shirley"},{"icsId":"1001089","id":"490001089E1","lat":51.37494,"lon":-0.09174,"name":"East Croydon Bus Station","stopLetter":"E1","topMostParentId":"490001089E1","towards":"Shirley"},{"icsId":"1002052","id":"490002052E","lat":51.37523,"lon":-0.08542,"name":"Lebanon Road Tram Stop","stopLetter":"A","topMostParentId":"490002052E","towards":"Addington Or Shirley"},{"icsId":"1002072","id":"490002072B","lat":51.37523,"lon":-0.07897,"name":"Sandilands Tram Stop","stopLetter":"B","topMostParentId":"490002072B","towards":"Addington Or Shirley"},{"icsId":"1003420","id":"490003420E","lat":51.37505,"lon":-0.07583,"name":"Ashburton Road","parentId":"490G00003420","stationId":"490G00003420","stopLetter":"C","topMostParentId":"490G00003420","towards":"Addington Or Shirley"},{"icsId":"1009623","id":"490009623E","lat":51.37425,"lon":-0.07099,"name":"Mapledale Avenue","parentId":"490G00009623","stationId":"490G00009623","stopLetter":"D","topMostParentId":"490G00009623","towards":"Addington Or Shirley"},{"icsId":"1004014","id":"490004014E","lat":51.37521,"lon":-0.06543,"name":"Birch Tree Way","parentId":"490G00004014","stationId":"490G00004014","stopLetter":"E","topMostParentId":"490G00004014","towards":"Addington Or Shirley"},{"icsId":"1012099","id":"490012099E1","lat":51.37624,"lon":-0.06102,"name":"Trinity School","parentId":"490G00012099","stationId":"490G00012099","stopLetter":"F","topMostParentId":"490G00012099","towards":"Addington Or Shirley"},{"icsId":"1002279","id":"490002279ZZ","lat":51.37509,"lon":-0.05745,"name":"Valley Walk","parentId":"490G00002279","stationId":"490G00002279","stopLetter":"->S","topMostParentId":"490G00002279","towards":"Addington Village Interchange Or Shirley"},{"icsId":"1013945","id":"490013945E","lat":51.37392,"lon":-0.05459,"name":"Upper Shirley Road","parentId":"490G00013945","stationId":"490G00013945","stopLetter":"A","topMostParentId":"490G00013945","towards":"Shrublands Or West Wickham"},{"icsId":"1013574","id":"490013551E","lat":51.37469,"lon":-0.04971,"name":"Verdayne Avenue","parentId":"490G00013574","stationId":"490G00013574","stopLetter":"B","topMostParentId":"490G00013574","towards":"Elmers End, Shrublands Or West Wickham"},{"icsId":"1012096","id":"490012096E","lat":51.37526,"lon":-0.04672,"name":"Shirley Library","parentId":"490G00012096","stationId":"490G00012096","stopLetter":"C","topMostParentId":"490G00012096","towards":"Elmers End, Shrublands Or West Wickham"},{"icsId":"1005150","id":"490005150E","lat":51.37586,"lon":-0.04289,"name":"Cheston Avenue","parentId":"490G00005150","stationId":"490G00005150","stopLetter":"D","topMostParentId":"490G00005150","towards":"Shrublands Or West Wickham"},{"icsId":"1008946","id":"490008946E","lat":51.3769,"lon":-0.03797,"name":"Langland Gardens","parentId":"490G00008946","stationId":"490G00008946","stopLetter":"E","topMostParentId":"490G00008946","towards":"Shrublands Or West Wickham"},{"icsId":"1009978","id":"490009978S","lat":51.37689,"lon":-0.02904,"name":"Monks Orchard Road","parentId":"490G00009978","stationId":"490G00009978","stopLetter":"R","topMostParentId":"490G00009978","towards":"Shrublands"},{"icsId":"1007335","id":"490007335S","lat":51.3748,"lon":-0.03084,"name":"Ash Road","parentId":"490G00007335","stationId":"490G00007335","topMostParentId":"490G00007335","towards":"East Croydon Or Shrublands"},{"icsId":"1012102","id":"490012102S","lat":51.3721,"lon":-0.03082,"name":"Links View Road","parentId":"490G00012102","stationId":"490G00012102","stopLetter":"->S","topMostParentId":"490G00012102","towards":"Shrublands Or West Wickham"},{"icsId":"1020314","id":"490013378S","lat":51.37044,"lon":-0.03119,"name":"Forest Academy","parentId":"490G00020314","stationId":"490G00020314","stopLetter":"->S","topMostParentId":"490G00020314","towards":"Shrublands Or West Wickham"},{"icsId":"1008995","id":"490008995S","lat":51.36774,"lon":-0.03071,"name":"Laurel Crescent","parentId":"490G00008995","stationId":"490G00008995","stopLetter":"->S","topMostParentId":"490G00008995","towards":"Shrublands"},{"icsId":"1006859","id":"490006859E","lat":51.36636,"lon":-0.02975,"name":"Fir Tree Gardens","parentId":"490G00006859","stationId":"490G00006859","stopLetter":"->E","topMostParentId":"490G00006859","towards":"Shrublands"},{"icsId":"1012136","id":"490012136E","lat":51.36624,"lon":-0.02709,"name":"Shrublands / Bramble Close","parentId":"490G00012136","stationId":"490G00012136","stopLetter":"->E","topMostParentId":"490G00012136","towards":"East Croydon"}]}]}