{"direction":"inbound","lineId":"199","lineName":"199","mode":"bus","stopPointSequences":[{"stopPoint":[{"icsId":"1010248","id":"490010248N","lat":51.43655,"lon":-0.01848,"name":"Newquay Road","parentId":"490G00010248","stationId":"490G00010248","stopLetter":"BC","topMostParentId":"490G00010248","towards":"Brockley Or Lewisham"},{"icsId":"1005020","id":"490005020N","lat":51.4384,"lon":-0.01924,"name":"Inchmery Road","parentId":"490G00005020","stationId":"490G00005020","stopLetter":"BD","topMostParentId":"490G00005020","towards":"Brockley Or Lewisham"},{"icsId":"1003596","id":"490003596N","lat":51.44054,"lon":-0.02071,"name":"Bargery Road","parentId":"490G00003596","stationId":"490G00003596","stopLetter":"->N","topMostParentId":"490G00003596","towards":"Brockley Or Lewisham"},{"icsId":"1015150","id":"490015150W","lat":51.44381,"lon":-0.02046,"name":"Bromley Road / Lewisham Town Hall","parentId":"490G00015150","stationId":"490G00015150","stopLetter":"W","topMostParentId":"490G00015150","towards":"Lewisham"},{"icsId":"1013282","id":"490013282A","lat":51.44711,"lon":-0.01873,"name":"The Catford Centre","parentId":"490G00013282","stationId":"490G00013282","stopLetter":"A","topMostParentId":"490G00013282","towards":"Lewisham"},{"icsId":"1011703","id":"490011703HE","lat":51.44925,"lon":-0.01724,"name":"Rosenthal Road","parentId":"490G00011703","stationId":"490G00011703","stopLetter":"B","topMostParentId":"490G00011703","towards":"Lewisham"},{"icsId":"1000914","id":"490007163HF","lat":51.45184,"lon":-0.01691,"name":"Mount Pleasant Road","parentId":"490G000231","stationId":"490G000231","stopLetter":"HF","topMostParentId":"490G000231","towards":"Blackheath, Deptford Or New Cross"},{"icsId":"1009109","id":"490009109HH","lat":51.45286,"lon":-0.01658,"name":"Lewisham Hospital","parentId":"490G00009109","stationId":"490G00009109","stopLetter":"HH","topMostParentId":"490G00009109","towards":"Blackheath, Deptford Or New Cross"},{"icsId":"1009113","id":"490009113HJ","lat":51.45455,"lon":-0.01611,"name":"Lewisham Park","parentId":"490G00009113","stationId":"490G00009113","stopLetter":"HJ","topMostParentId":"490G00009113","towards":"Blackheath, Deptford Or New Cross"},{"icsId":"1009111","id":"490009111HL","lat":51.4572,"lon":-0.01362,"name":"Lewisham Fire Station","parentId":"490G00009111","stationId":"490G00009111","stopLetter":"HL","topMostParentId":"490G00009111","towards":"Blackheath, Deptford, Lee Or New Cross"},{"icsId":"1016170","id":"490016170N1","lat":51.46055,"lon":-0.01314,"name":"Molesworth Street / Riverdale House","parentId":"490G00016170","stationId":"490G00016170","stopLetter":"O","topMostParentId":"490G00016170","towards":"Blackheath, Deptford Or Greenwich"},{"icsId":"1001177","id":"490009104A","lat":51.46438,"lon":-0.01119,"name":"Lewisham Station","stopLetter":"G","topMostParentId":"490009104A","towards":"Blackheath Or Greenwich","zone":"2+3"},{"icsId":"1004068","id":"490004068N","lat":51.46783,"lon":-0.01203,"name":"Blackheath Rise","parentId":"490G00004068","stationId":"490G00004068","stopLetter":"ED","topMostParentId":"490G00004068","towards":"Greenwich"},{"icsId":"1010022","id":"490010022C","lat":51.46931,"lon":-0.01352,"name":"Morden Hill","parentId":"490G00010022","stationId":"490G00010022","stopLetter":"EC","topMostParentId":"490G00010022","towards":"Greenwich"},{"icsId":"1012371","id":"490012371N","lat":51.47157,"lon":-0.01511,"name":"Sparta Street","parentId":"490G00012371","stationId":"490G00012371","stopLetter":"D","topMostParentId":"490G00012371","towards":"Greenwich"},{"icsId":"1015265","id":"490015265N","lat":51.47379,"lon":-0.01469,"name":"Greenwich South Street / Blackheath Road","parentId":"490G00015265","stationId":"490G00015265","stopLetter":"E","topMostParentId":"490G00015265","towards":"Royal Standard, Charlton Or Surrey Quays"},{"icsId":"1003411","id":"490003411N","lat":51.47526,"lon":-0.01313,"name":"Ashburnham Grove","parentId":"490G00003411","stationId":"490G00003411","stopLetter":"F","topMostParentId":"490G00003411","towards":"Royal Standard, Charlton Or Surrey Quays"},{"icsId":"1001123","id":"490001123R","lat":51.47726,"lon":-0.01248,"name":"Greenwich Station","stopLetter":"R","topMostParentId":"490001123R","towards":"Royal Standard, Charlton Or Surrey Quays","zone":"2+3"},{"icsId":"1007513","id":"490007513H","lat":51.47959,"lon":-0.01001,"name":"Greenwich High Road / Roan Street","parentId":"490G00007513","stationId":"490G00007513","stopLetter":"H","topMostParentId":"490G00007513","towards":"Blackheath, Charlton Or Surrey Quays"},{"icsId":"1007507","id":"490007507B","lat":51.4812,"lon":-0.00998,"name":"Greenwich Church Street","parentId":"490G000547","stationId":"490G000547","stopLetter":"B","topMostParentId":"490G000547","towards":"Surrey Quays and Central London"},{"icsId":"1010309","id":"490010309W","lat":51.48136,"lon":-0.01393,"name":"Creek Road / Norman Road","parentId":"490G00010309","stationId":"490G00010309","stopLetter":"W","topMostParentId":"490G00010309","towards":"Surrey Quays"},{"icsId":"1005736","id":"490005736W","lat":51.48122,"lon":-0.01815,"name":"Creekside","parentId":"490G00005736","stationId":"490G00005736","stopLetter":"G","topMostParentId":"490G00005736","towards":"Surrey Quays"},{"icsId":"1011687","id":"490011687H","lat":51.4808,"lon":-0.02205,"name":"Macmillan Students Village","parentId":"490G00011687","stationId":"490G00011687","stopLetter":"H","topMostParentId":"490G00011687","towards":"Surrey Quays"},{"icsId":"1006050","id":"490006050A","lat":51.48179,"lon":-0.02763,"name":"Deptford High Street","parentId":"490G00006050","stationId":"490G00006050","stopLetter":"A","topMostParentId":"490G00006050","towards":"Surrey Quays"},{"icsId":"1007585","id":"490007585W","lat":51.48364,"lon":-0.03149,"name":"Abinger Grove","parentId":"490G00007585","stationId":"490G00007585","stopLetter":"N","topMostParentId":"490G00007585","towards":"Surrey Quays"},{"icsId":"1006049","id":"490006049N","lat":51.48534,"lon":-0.03433,"name":"Deptford Fire Station","parentId":"490G00006049","stationId":"490G00006049","stopLetter":"P","topMostParentId":"490G00006049","towards":"Surrey Quays"},{"icsId":"1006052","id":"490006052N","lat":51.48831,"lon":-0.03704,"name":"Deptford Park School","parentId":"490G00006052","stationId":"490G00006052","stopLetter":"R","topMostParentId":"490G00006052","towards":"Canada Water"},{"icsId":"1011605","id":"490011605N","lat":51.48894,"lon":-0.03468,"name":"Riverside Youth Club","parentId":"490G00011605","stationId":"490G00011605","stopLetter":"S","topMostParentId":"490G00011605","towards":"Canada Water"},{"icsId":"1007582","id":"490007582N","lat":51.49049,"lon":-0.03444,"name":"Windlass Place","parentId":"490G00007582","stationId":"490G00007582","stopLetter":"->N","topMostParentId":"490G00007582","towards":"Canada Water"},{"icsId":"1016665","id":"490016665N","lat":51.49233,"lon":-0.03456,"name":"Grove Street / Plough Way","parentId":"490G00016665","stationId":"490G00016665","stopLetter":"->N","topMostParentId":"490G00016665","towards":"Surrey Quays"},{"icsId":"1006258","id":"490006258W","lat":51.49236,"lon":-0.03632,"name":"Dunnage Crescent","parentId":"490G00006258","stationId":"490G00006258","stopLetter":"->W","topMostParentId":"490G00006258","towards":"Canada Water"},{"icsId":"1015001","id":"490015001W","lat":51.49258,"lon":-0.04115,"name":"Yeoman Street","parentId":"490G00015001","stationId":"490G00015001","stopLetter":"->W","topMostParentId":"490G00015001","towards":"Canada Water"},{"icsId":"1000229","id":"490000229O","lat":51.49295,"lon":-0.04792,"name":"Surrey Quays Station","stopLetter":"S","topMostParentId":"490000229O","towards":"London Bridge Or Elephant & Castle"},{"icsId":"1011723","id":"490011723P","lat":51.49546,"lon":-0.05135,"name":"Rotherhithe Police Station","parentId":"490G00011723","stationId":"490G00011723","stopLetter":"P","topMostParentId":"490G00011723","towards":"Canada Water"},{"icsId":"1004733","id":"490004733D","lat":51.49814,"lon":-0.04994,"name":"Canada Water Bus Station","parentId":"490G000438","stationId":"490G000438","stopLetter":"D","topMostParentId":"HUBZCW"}]}]}