{"direction":"inbound","lineId":"202","lineName":"202","mode":"bus","stopPointSequences":[{"stopPoint":[{"icsId":"1004065","id":"490015264W1","lat":51.47771,"lon":0.02041,"name":"Blackheath / Royal Standard","parentId":"490G00004065","stationId":"490G00004065","stopLetter":"BD","topMostParentId":"490G00004065","towards":"Deptford, Lee, Kidbrooke Or Lewisham"},{"icsId":"1019070","id":"490004065BL","lat":51.47697,"lon":0.01802,"name":"Vanbrugh Park / Stratheden Road","parentId":"490G00019070","stationId":"490G00019070","stopLetter":"BL","topMostParentId":"490G00019070","towards":"Lee Green Or Lewisham"},{"icsId":"1003708","id":"490003708W1","lat":51.47666,"lon":0.01386,"name":"Vanbrugh Park / Beaconsfield Road","parentId":"490G00003708","stationId":"490G00003708","stopLetter":"BX","topMostParentId":"490G00003708","towards":"Deptford, Lee Green Or Lewisham"},{"icsId":"1009755","id":"490009755Q","lat":51.47415,"lon":0.00983,"name":"Maze Hill","parentId":"490G00009755","stationId":"490G00009755","stopLetter":"Q","topMostParentId":"490G00009755","towards":"Deptford, Lee Green Or Lewisham"},{"icsId":"1013300","id":"490013300J","lat":51.46923,"lon":0.00915,"name":"The Clarendon Hotel","parentId":"490G00013300","stationId":"490G00013300","stopLetter":"J","topMostParentId":"490G00013300","towards":"Lee Green Or Lewisham"},{"icsId":"1001029","id":"490001029E","lat":51.46546,"lon":0.00925,"name":"Blackheath Station","stopLetter":"E","topMostParentId":"490001029E","towards":"Lee Green Or Lewisham"},{"icsId":"1011233","id":"490011233S","lat":51.4617,"lon":0.00989,"name":"Priory Park","parentId":"490G00011233","stationId":"490G00011233","stopLetter":"D","topMostParentId":"490G00011233","towards":"Catford"},{"icsId":"1009599","id":"490009599S","lat":51.45888,"lon":0.0102,"name":"Manor Way","parentId":"490G00009599","stationId":"490G00009599","stopLetter":"E","topMostParentId":"490G00009599","towards":"Catford"},{"icsId":"1009063","id":"490009060B","lat":51.45584,"lon":0.01159,"name":"Burnt Ash Road / Lee Road","parentId":"490G00009063","stationId":"490G00009063","stopLetter":"F","topMostParentId":"490G00009063","towards":"Catford Or Grove Park"},{"icsId":"1007747","id":"490007747S","lat":51.45303,"lon":0.01192,"name":"Handen Road","parentId":"490G00007747","stationId":"490G00007747","stopLetter":"E","topMostParentId":"490G00007747","towards":"Catford Or Grove Park"},{"icsId":"1001176","id":"490001176B","lat":51.44951,"lon":0.01285,"name":"Lee Station","stopLetter":"B","topMostParentId":"490001176B","towards":"Catford Or Grove Park"},{"icsId":"1014480","id":"490014480S","lat":51.44688,"lon":0.01427,"name":"Westhorne Avenue","parentId":"490G00014480","stationId":"490G00014480","stopLetter":"D","topMostParentId":"490G00014480","towards":"Catford Or Grove Park"},{"icsId":"1003599","id":"490003599W","lat":51.44586,"lon":0.01318,"name":"Baring Road","parentId":"490G00003599","stationId":"490G00003599","stopLetter":"T","topMostParentId":"490G00003599","towards":"Catford"},{"icsId":"1010762","id":"490010762W","lat":51.44557,"lon":0.00832,"name":"Parkcroft Road","parentId":"490G00010762","stationId":"490G00010762","stopLetter":"K","topMostParentId":"490G00010762","towards":"Catford"},{"icsId":"1014025","id":"490014025W","lat":51.44515,"lon":0.0032,"name":"Brownhill Road / Wellmeadow Road","parentId":"490G00014025","stationId":"490G00014025","stopLetter":"L","topMostParentId":"490G00014025","towards":"Lower Sydenham"},{"icsId":"1013717","id":"490013717W","lat":51.44502,"lon":-0.00291,"name":"Torridon Road","parentId":"490G00013717","stationId":"490G00013717","stopLetter":"M","topMostParentId":"490G00013717","towards":"Lower Sydenham"},{"icsId":"1016592","id":"490016592W","lat":51.44497,"lon":-0.00574,"name":"Stainton Road","parentId":"490G00016592","stationId":"490G00016592","stopLetter":"N","topMostParentId":"490G00016592","towards":"Lower Sydenham"},{"icsId":"1015457","id":"490015457W","lat":51.44505,"lon":-0.01055,"name":"Brownhill Road / St Fillans Road","parentId":"490G00015457","stationId":"490G00015457","stopLetter":"B","topMostParentId":"490G00015457","towards":"Lower Sydenham"},{"icsId":"1008598","id":"490008598W","lat":51.44544,"lon":-0.01426,"name":"Laleham Road","parentId":"490G00008598","stationId":"490G00008598","stopLetter":"A","topMostParentId":"490G00008598","towards":"Lower Sydenham"},{"icsId":"1011056","id":"490011056F","lat":51.44524,"lon":-0.01743,"name":"Plassy Road","parentId":"490G00011056","stationId":"490G00011056","stopLetter":"F","topMostParentId":"490G00011056","towards":"Lower Sydenham, Grove Park Or Hither Green"},{"icsId":"1009117","id":"490009117T","lat":51.44476,"lon":-0.02102,"name":"Catford Road / Lewisham Town Hall","parentId":"490G00009117","stationId":"490G00009117","stopLetter":"T","topMostParentId":"490G00009117","towards":"Ladywell Or Sydenham"},{"icsId":"1004862","id":"490004862R","lat":51.44442,"lon":-0.02411,"name":"Catford & Catford Bridge Stations","parentId":"490G000444","stationId":"490G000444","stopLetter":"R","topMostParentId":"490G000444","towards":"Lower Sydenham Or Sydenham"},{"icsId":"1003812","id":"490003812W","lat":51.44101,"lon":-0.02895,"name":"Beechfield Road","parentId":"490G00003812","stationId":"490G00003812","stopLetter":"W","topMostParentId":"490G00003812","towards":"Lower Sydenham Or Sydenham"},{"icsId":"1006510","id":"490006510W","lat":51.43829,"lon":-0.03334,"name":"Elm Lane","parentId":"490G00006510","stationId":"490G00006510","stopLetter":"X","topMostParentId":"490G00006510","towards":"Crystal Palace Or Downham"},{"icsId":"1004846","id":"490004846S","lat":51.43537,"lon":-0.03446,"name":"Castlands Road","parentId":"490G00004846","stationId":"490G00004846","stopLetter":"Y","topMostParentId":"490G00004846","towards":"Crystal Palace Or Downham"},{"icsId":"1008404","id":"490008404S","lat":51.43421,"lon":-0.03579,"name":"Houston Road","parentId":"490G00008404","stationId":"490G00008404","stopLetter":"->S","topMostParentId":"490G00008404","towards":"Crystal Palace Or Downham"},{"icsId":"1003368","id":"490003368S","lat":51.43152,"lon":-0.03752,"name":"Ardley Close","parentId":"490G00003368","stationId":"490G00003368","stopLetter":"LX","topMostParentId":"490G00003368","towards":"Crystal Palace Or Downham"},{"icsId":"1003848","id":"490003848S","lat":51.42961,"lon":-0.03724,"name":"Bell Green / Southend Lane","parentId":"490G00003848","stationId":"490G00003848","stopLetter":"LQ","topMostParentId":"490G00003848","towards":"Beckenham Or Downham"},{"icsId":"1012281","id":"490012281F","lat":51.42823,"lon":-0.038,"name":"Southend Lane","parentId":"490G00012281","stationId":"490G00012281","stopLetter":"LP","topMostParentId":"490G00012281","towards":"Crystal Palace Or Penge"},{"icsId":"1008147","id":"490008147W","lat":51.42669,"lon":-0.04134,"name":"Highclere Street","parentId":"490G00008147","stationId":"490G00008147","stopLetter":"LR","topMostParentId":"490G00008147","towards":"Crystal Palace Or Penge"},{"icsId":"1008872","id":"490008872W","lat":51.42559,"lon":-0.04541,"name":"Knighton Park Road","parentId":"490G00008872","stationId":"490G00008872","stopLetter":"R","topMostParentId":"490G00008872","towards":"Crystal Palace Or Penge"},{"icsId":"1009750","id":"490009750P","lat":51.42566,"lon":-0.04836,"name":"Sydenham Road / Mayow Road","parentId":"490G00009750","stationId":"490G00009750","stopLetter":"P","topMostParentId":"490G00009750","towards":"Crystal Palace Or Penge"},{"icsId":"1010226","id":"490010226H","lat":51.42615,"lon":-0.05228,"name":"Newlands Park","parentId":"490G000676","stationId":"490G000676","stopLetter":"H","topMostParentId":"490G000676","towards":"Crystal Palace Or Penge"},{"icsId":"1009034","id":"490005453E","lat":51.42772,"lon":-0.05671,"name":"Sydenham Station  / Kirkdale","parentId":"490G000630","stationId":"490G000630","stopLetter":"E","topMostParentId":"HUBSYD","towards":"Forest Hill"},{"icsId":"1010871","id":"490010871N","lat":51.42991,"lon":-0.05886,"name":"Peak Hill","parentId":"490G00010871","stationId":"490G00010871","stopLetter":"Y","topMostParentId":"490G00010871","towards":"Forest Hill"},{"icsId":"1005278","id":"490005278W","lat":51.4306,"lon":-0.06092,"name":"Churchley Road","parentId":"490G00005278","stationId":"490G00005278","stopLetter":"A","topMostParentId":"490G00005278","towards":"Crystal Palace"},{"icsId":"1005576","id":"490005576W","lat":51.4309,"lon":-0.06558,"name":"Coombe Road","parentId":"490G00005576","stationId":"490G00005576","stopLetter":"B","topMostParentId":"490G00005576","towards":"Crystal Palace"},{"icsId":"1013129","id":"490013129W","lat":51.43129,"lon":-0.06833,"name":"Sydenham Hill Estate","parentId":"490G00013129","stationId":"490G00013129","stopLetter":"C","topMostParentId":"490G00013129","towards":"Crystal Palace"},{"icsId":"1004742","id":"490004742W","lat":51.43164,"lon":-0.07121,"name":"Canbury Mews","parentId":"490G00004742","stationId":"490G00004742","stopLetter":"D","topMostParentId":"490G00004742","towards":"Crystal Palace"},{"icsId":"1014370","id":"490014370B","lat":51.43154,"lon":-0.07331,"name":"Wells Park Road","parentId":"490G00014370","stationId":"490G00014370","stopLetter":"J","topMostParentId":"490G00014370","towards":"Crystal Palace"},{"icsId":"1006101","id":"490006101S","lat":51.42922,"lon":-0.07495,"name":"Dome Hill Park","parentId":"490G00006101","stationId":"490G00006101","stopLetter":"K","topMostParentId":"490G00006101","towards":"Crystal Palace"},{"icsId":"1014532","id":"490014532S1","lat":51.42729,"lon":-0.07417,"name":"Sydenham Hill / Bluebell Close","parentId":"490G00014532","stationId":"490G00014532","stopLetter":"L","topMostParentId":"490G00014532","towards":"Crystal Palace"},{"icsId":"1006963","id":"490006963S","lat":51.42525,"lon":-0.07513,"name":"Crystal Palace Parade / Fountain Drive","parentId":"490G00006963","stationId":"490G00006963","stopLetter":"T","topMostParentId":"490G00006963","towards":"Crystal Palace"},{"icsId":"1005494","id":"490005494S2","lat":51.4232,"lon":-0.07651,"name":"Crystal Palace Parade / College Road","parentId":"490G00005494","stationId":"490G00005494","stopLetter":"S","topMostParentId":"490G00005494","towards":"Upper Norwood"},{"icsId":"1005869","id":"490005869A","lat":51.42107,"lon":-0.07771,"name":"Crystal Palace Parade","parentId":"490G00005869","stationId":"490G00005869","stopLetter":"A","topMostParentId":"490G00005869","towards":"Upper Norwood"}]}]}