{"direction":"inbound","lineId":"215","lineName":"215","mode":"bus","stopPointSequences":[{"stopPoint":[{"icsId":"1014164","id":"490014164C","lat":51.584,"lon":-0.02052,"name":"Walthamstow Bus Station","parentId":"490G000817","stationId":"490G000817","stopLetter":"C","topMostParentId":"490G000817","towards":"Crooked Billet Or Highams Park"},{"icsId":"1014165","id":"490014165G","lat":51.58548,"lon":-0.0197,"name":"Walthamstow Market","parentId":"490G00014165","stationId":"490G00014165","stopLetter":"G","topMostParentId":"490G00014165","towards":"Chingford Mount, Highams Park Or Edmonton"},{"icsId":"1004518","id":"490008553N","lat":51.58835,"lon":-0.02059,"name":"Jewel Road","parentId":"490G00004518","stationId":"490G00004518","stopLetter":"BA","topMostParentId":"490G00004518","towards":"Chingford Mount, Edmonton Or Highams Park"},{"icsId":"1014163","id":"490014163N","lat":51.5897,"lon":-0.01825,"name":"Forest Road / Bell Corner","parentId":"490G00014163","stationId":"490G00014163","stopLetter":"BH","topMostParentId":"490G00014163","towards":"Chingford Mount, Edmonton Or Highams Park"},{"icsId":"1014158","id":"490014158N","lat":51.59404,"lon":-0.01688,"name":"Aveling Park Road","parentId":"490G00014158","stationId":"490G00014158","stopLetter":"BJ","topMostParentId":"490G00014158","towards":"Chingford Mount Or Edmonton"},{"icsId":"1004899","id":"490004899N","lat":51.59734,"lon":-0.01551,"name":"Cazenove Road","parentId":"490G00004899","stationId":"490G00004899","stopLetter":"->N","topMostParentId":"490G00004899","towards":"Chingford Mount Or Edmonton"},{"icsId":"1005781","id":"490005781N","lat":51.59941,"lon":-0.01609,"name":"Walthamstow / Crooked Billet Roundabout","parentId":"490G00005781","stationId":"490G00005781","stopLetter":"CH","topMostParentId":"490G00005781","towards":"Chingford Mount Or Edmonton"},{"icsId":"1014170","id":"490014170N","lat":51.60246,"lon":-0.01667,"name":"Walthamstow Stadium","parentId":"490G00014170","stationId":"490G00014170","stopLetter":"CS","topMostParentId":"490G00014170","towards":"Chingford Mount"},{"icsId":"1011742","id":"490011742N","lat":51.60562,"lon":-0.01676,"name":"Rowden Road","parentId":"490G00011742","stationId":"490G00011742","stopLetter":"CT","topMostParentId":"490G00011742","towards":"Chingford Station Or Yardley Lane Estate"},{"icsId":"1008132","id":"490008132N","lat":51.60705,"lon":-0.01722,"name":"Higham Station Avenue","parentId":"490G00008132","stationId":"490G00008132","stopLetter":"->N","topMostParentId":"490G00008132","towards":"Chingford Station Or Yardley Lane Estate"},{"icsId":"1009091","id":"490009091N","lat":51.60973,"lon":-0.0178,"name":"Leonard Road","parentId":"490G00009091","stationId":"490G00009091","stopLetter":"->N","topMostParentId":"490G00009091","towards":"Chingford Station Or Yardley Lane Estate"},{"icsId":"1007737","id":"490007737N","lat":51.61302,"lon":-0.01809,"name":"Hampton Road","parentId":"490G00007737","stationId":"490G00007737","stopLetter":"W","topMostParentId":"490G00007737","towards":"Chingford Station Or Yardley Lane Estate"},{"icsId":"1007676","id":"490007676L","lat":51.61608,"lon":-0.01753,"name":"Hall Lane","parentId":"490G000561","stationId":"490G000561","stopLetter":"L","topMostParentId":"490G000561","towards":"Chingford Station Or Yardley Lane Estate"},{"icsId":"1005180","id":"490005180E","lat":51.61732,"lon":-0.01761,"name":"Chingford Mount","parentId":"490G000452","stationId":"490G000452","stopLetter":"E","topMostParentId":"490G000452","towards":"Chingford Station Or Yardley Lane Estate"},{"icsId":"1003270","id":"490003270A","lat":51.61981,"lon":-0.01723,"name":"Alpha Road","parentId":"490G00003270","stationId":"490G00003270","stopLetter":"A","topMostParentId":"490G00003270","towards":"Chingford Station Or Yardley Lane Estate"},{"icsId":"1005181","id":"490005181N","lat":51.62299,"lon":-0.01674,"name":"Chingford Old Church","parentId":"490G00005181","stationId":"490G00005181","stopLetter":"X","topMostParentId":"490G00005181","towards":"Chingford Station Or Yardley Lane Estate"},{"icsId":"1005169","id":"490005169N","lat":51.62606,"lon":-0.01419,"name":"Ridgeway Park","parentId":"490G00005169","stationId":"490G00005169","stopLetter":"P","topMostParentId":"490G00005169","towards":"Chingford Station Or Yardley Lane Estate"},{"icsId":"1009612","id":"490009612N","lat":51.62685,"lon":-0.01256,"name":"Mansfield Park","parentId":"490G00009612","stationId":"490G00009612","stopLetter":"R","topMostParentId":"490G00009612","towards":"Chingford Station Or Yardley Lane Estate"},{"icsId":"1010077","id":"490010077N","lat":51.63124,"lon":-0.01339,"name":"Mount Echo Drive","parentId":"490G00010077","stationId":"490G00010077","stopLetter":"S","topMostParentId":"490G00010077","towards":"Yardley Lane Estate"},{"icsId":"1014175","id":"490014175N","lat":51.63398,"lon":-0.01336,"name":"Maida Avenue","parentId":"490G00014175","stationId":"490G00014175","stopLetter":"T","topMostParentId":"490G00014175","towards":"Yardley Lane Estate"},{"icsId":"1009050","id":"490009050N","lat":51.63649,"lon":-0.01292,"name":"Lea Valley Road","parentId":"490G00009050","stationId":"490G00009050","stopLetter":"U","topMostParentId":"490G00009050","towards":"Yardley Lane Estate"},{"icsId":"1003299","id":"490003299N","lat":51.63851,"lon":-0.01215,"name":"Amesbury Drive","parentId":"490G00003299","stationId":"490G00003299","stopLetter":"V","topMostParentId":"490G00003299","towards":"Yardley Lane Estate"},{"icsId":"1007926","id":"490007926N","lat":51.6397,"lon":-0.01176,"name":"Hawkwood Crescent","parentId":"490G00007926","stationId":"490G00007926","stopLetter":"W","topMostParentId":"490G00007926","towards":"Yardley Lane Estate"},{"icsId":"1014987","id":"490014987N","lat":51.64144,"lon":-0.01164,"name":"Yardley Lane","parentId":"490G00014987","stationId":"490G00014987","stopLetter":"->N","topMostParentId":"490G00014987","towards":"Yardley Lane Estate"},{"icsId":"1012008","id":"490012008N","lat":51.64341,"lon":-0.0113,"name":"Sewardstone Gardens","parentId":"490G00012008","stationId":"490G00012008","stopLetter":"->N","topMostParentId":"490G00012008","towards":"Yardley Lane Estate"},{"icsId":"1014988","id":"490014988N","lat":51.64648,"lon":-0.0104,"name":"Yardley Lane Estate","parentId":"490G00014988","stationId":"490G00014988","stopLetter":"->N","topMostParentId":"490G00014988","towards":"Lee Valley Campsite"},{"icsId":"1009071","id":"1500617","lat":51.655087,"lon":-0.006276,"name":"Lee Valley Campsite","topMostParentId":"1500617","towards":"Chingford Mount"}]}]}