{"direction":"inbound","lineId":"219","lineName":"219","mode":"bus","stopPointSequences":[{"stopPoint":[{"icsId":"1016275","id":"490016275J","lat":51.46434,"lon":-0.16565,"name":"Falcon Lane","parentId":"490G00016275","stationId":"490G00016275","stopLetter":"J","topMostParentId":"490G00016275","towards":"Wandsworth Common"},{"icsId":"1005332","id":"490005332T","lat":51.46308,"lon":-0.16769,"name":"Clapham Junction Stn  / the Falcon","parentId":"490G000462","stationId":"490G000462","stopLetter":"T","topMostParentId":"HUBCLJ","towards":"Clapham Common Or Wandsworth Common"},{"icsId":"1005333","id":"490005333Y","lat":51.46128,"lon":-0.16726,"name":"Clapham Junction / the Northcote","parentId":"490G00005333","stationId":"490G00005333","stopLetter":"Y","topMostParentId":"HUBCLJ","towards":"Clapham Common Or Wandsworth Common"},{"icsId":"1004133","id":"490004133W","lat":51.46008,"lon":-0.17057,"name":"Bolingbroke Grove","parentId":"490G00004133","stationId":"490G00004133","stopLetter":"SC","topMostParentId":"490G00004133","towards":"Earlsfield or Tooting Bec"},{"icsId":"1012386","id":"490012386W","lat":51.45845,"lon":-0.1755,"name":"Spencer Road","parentId":"490G00012386","stationId":"490G00012386","stopLetter":"SD","topMostParentId":"490G00012386","towards":"Tooting Bec"},{"icsId":"1009638","id":"490009638W1","lat":51.45814,"lon":-0.18024,"name":"Marcilly Road","parentId":"490G00009638","stationId":"490G00009638","stopLetter":"SE","topMostParentId":"490G00009638","towards":"Tooting Bec"},{"icsId":"1014515","id":"490014515S","lat":51.45499,"lon":-0.17869,"name":"West Side","parentId":"490G00014515","stationId":"490G00014515","stopLetter":"SP","topMostParentId":"490G00014515","towards":"Tooting Bec"},{"icsId":"1015485","id":"490015485S","lat":51.45288,"lon":-0.17657,"name":"Windmill Road","parentId":"490G00015485","stationId":"490G00015485","stopLetter":"SR","topMostParentId":"490G00015485","towards":"Tooting Bec"},{"icsId":"1005643","id":"490005643S","lat":51.44993,"lon":-0.17381,"name":"County Arms","parentId":"490G00005643","stationId":"490G00005643","stopLetter":"ST","topMostParentId":"490G00005643","towards":"Tooting Bec"},{"icsId":"1011735","id":"490011735S","lat":51.44751,"lon":-0.1712,"name":"Routh Road","parentId":"490G00011735","stationId":"490G00011735","stopLetter":"S","topMostParentId":"490G00011735","towards":"Tooting Bec"},{"icsId":"1013044","id":"490013044D","lat":51.44438,"lon":-0.16845,"name":"Burntwood Lane","parentId":"490G00013044","stationId":"490G00013044","stopLetter":"D","topMostParentId":"490G00013044","towards":"Tooting Bec"},{"icsId":"1004406","id":"490004406S","lat":51.44188,"lon":-0.16609,"name":"Brodrick Road","parentId":"490G00004406","stationId":"490G00004406","stopLetter":"T","topMostParentId":"490G00004406","towards":"Streatham Or Tooting Broadway"},{"icsId":"1013948","id":"490013948S","lat":51.43998,"lon":-0.16425,"name":"Upper Tooting Park","parentId":"490G00013948","stationId":"490G00013948","stopLetter":"->S","topMostParentId":"490G00013948","towards":"Streatham Or Tooting Broadway"},{"icsId":"1006395","id":"490006395S","lat":51.43848,"lon":-0.16279,"name":"Eatonville Road","parentId":"490G00006395","stationId":"490G00006395","stopLetter":"T","topMostParentId":"490G00006395","towards":"Streatham Or Tooting Broadway"},{"icsId":"1000233","id":"490000233A","lat":51.43587,"lon":-0.15996,"name":"Tooting Bec Station","stopLetter":"A","topMostParentId":"490000233A","towards":"Streatham Or Tooting Broadway","zone":"3"},{"icsId":"1008612","id":"490008612D","lat":51.43472,"lon":-0.16143,"name":"Dafforne Road","parentId":"490G00008612","stationId":"490G00008612","stopLetter":"D","topMostParentId":"490G00008612","towards":"Colliers Wood Or Mitcham"},{"icsId":"1009484","id":"490009484S","lat":51.43287,"lon":-0.16355,"name":"Lynwood Road","parentId":"490G00009484","stationId":"490G00009484","stopLetter":"P","topMostParentId":"490G00009484","towards":"Colliers Wood Or Mitcham"},{"icsId":"1005921","id":"490005921J","lat":51.43029,"lon":-0.16559,"name":"Broadwater Road","parentId":"490G00005921","stationId":"490G00005921","stopLetter":"J","topMostParentId":"490G00005921","towards":"Colliers Wood Or Mitcham"},{"icsId":"1000234","id":"490015512B","lat":51.42856,"lon":-0.16743,"name":"Tooting Broadway Station","stopLetter":"B","topMostParentId":"490015512B","towards":"Colliers Wood Or Mitcham","zone":"3"},{"icsId":"1015513","id":"490015513K","lat":51.42723,"lon":-0.16879,"name":"Tooting Broadway  / Sth Thames College","parentId":"490G000906","stationId":"490G000906","stopLetter":"K","topMostParentId":"490G000906","towards":"Colliers Wood Or Wandsworth Common"},{"icsId":"1010468","id":"490010468H10","lat":51.42587,"lon":-0.16993,"name":"Nutwell Street","parentId":"490G00010468","stationId":"490G00010468","stopLetter":"HF","topMostParentId":"490G00010468","towards":"Colliers Wood Or Wandsworth Common"},{"icsId":"1009332","id":"490009332H9","lat":51.42436,"lon":-0.17148,"name":"Longley Road","parentId":"490G00009332","stationId":"490G00009332","stopLetter":"HG","topMostParentId":"490G00009332","towards":"Colliers Wood Or Wandsworth Common"},{"icsId":"1014149","id":"490014149S","lat":51.42139,"lon":-0.17491,"name":"Walpole Road","parentId":"490G00014149","stationId":"490G00014149","stopLetter":"M","topMostParentId":"490G00014149","towards":"South Wimbledon"},{"icsId":"1000055","id":"490000055A","lat":51.41856,"lon":-0.17771,"name":"Colliers Wood Station","stopLetter":"A","topMostParentId":"490000055A","towards":"South Wimbledon","zone":"3"},{"icsId":"1009830","id":"490009830G","lat":51.41612,"lon":-0.18339,"name":"Merton Abbey","parentId":"490G00009830","stationId":"490G00009830","stopLetter":"G","topMostParentId":"490G00009830","towards":"Wimbledon"},{"icsId":"1007938","id":"490007938E","lat":51.41598,"lon":-0.18575,"name":"Abbey Road","parentId":"490G00007938","stationId":"490G00007938","stopLetter":"SE","topMostParentId":"490G00007938","towards":"Wimbledon Or Wimbledon Chase"},{"icsId":"1000216","id":"490000216C","lat":51.41557,"lon":-0.19158,"name":"South Wimbledon Station","stopLetter":"SF","topMostParentId":"490000216C","towards":"Wimbledon Or Wimbledon Chase","zone":"3+4"},{"icsId":"1009835","id":"490009835I","lat":51.41702,"lon":-0.19261,"name":"Merton Road","parentId":"490G00009835","stationId":"490G00009835","stopLetter":"ST","topMostParentId":"490G00009835","towards":"Raynes Park Or Wimbledon Village"},{"icsId":"1013807","id":"490013807W","lat":51.41938,"lon":-0.19527,"name":"The Polka Theatre","parentId":"490G00013807","stationId":"490G00013807","stopLetter":"SW","topMostParentId":"490G00013807","towards":"Putney Heath Or Raynes Park"},{"icsId":"1014742","id":"490014742Y","lat":51.41929,"lon":-0.201,"name":"Wimbledon Theatre","parentId":"490G00014742","stationId":"490G00014742","stopLetter":"Y","topMostParentId":"490G00014742","towards":"Putney Heath Or Raynes Park"},{"icsId":"1014731","id":"490014731G","lat":51.4188,"lon":-0.20333,"name":"Wimbledon Bus Station","parentId":"490G00014731","stationId":"490G00014731","stopLetter":"G","topMostParentId":"490G00014731"},{"icsId":"1000272","id":"490015472L","lat":51.42029,"lon":-0.20659,"name":"Wimbledon Station","stopLetter":"L","topMostParentId":"490015472L","towards":"Putney Heath Or Raynes Park","zone":"3"},{"icsId":"1006987","id":"490006987W","lat":51.42028,"lon":-0.20986,"name":"Francis Grove","parentId":"490G00006987","stationId":"490G00006987","stopLetter":"->W","topMostParentId":"490G00006987"}]}]}