{"direction":"inbound","lineId":"221","lineName":"221","mode":"bus","stopPointSequences":[{"stopPoint":[{"icsId":"1013852","id":"490013852S","lat":51.59036,"lon":-0.10226,"name":"Turnpike Lane Bus Station","parentId":"490G000808","stationId":"490G000808","stopLetter":"S","topMostParentId":"490G000808","towards":"Wood Green"},{"icsId":"1009461","id":"490000241L","lat":51.59203,"lon":-0.10532,"name":"Brampton Park Road","parentId":"490G00009461","stationId":"490G00009461","stopLetter":"L","topMostParentId":"490G00009461","towards":"Edmonton and Bounds Green"},{"icsId":"1009469","id":"490009461J","lat":51.5941,"lon":-0.10819,"name":"Wood Green Shopping City","parentId":"490G00009469","stationId":"490G00009469","stopLetter":"J","topMostParentId":"490G00009469","towards":"Bounds Green, Edmonton Or Palmers Green"},{"icsId":"1000275","id":"490015567H","lat":51.59659,"lon":-0.10995,"name":"Wood Green Station","stopLetter":"H","topMostParentId":"490015567H","towards":"Bounds Green Or Palmers Green","zone":"3"},{"icsId":"1014852","id":"490015568C","lat":51.5978,"lon":-0.11042,"name":"Wood Green Bus Garage","parentId":"490G000844","stationId":"490G000844","stopLetter":"C","topMostParentId":"490G000844","towards":"Bounds Green Or Palmers Green"},{"icsId":"1007797","id":"490007797W","lat":51.59938,"lon":-0.11232,"name":"Haringey Civic Centre","parentId":"490G00007797","stationId":"490G00007797","stopLetter":"BH","topMostParentId":"490G00007797","towards":"Bounds Green"},{"icsId":"1010753","id":"490010753W","lat":51.60073,"lon":-0.11602,"name":"Park Avenue","parentId":"490G00010753","stationId":"490G00010753","stopLetter":"BJ","topMostParentId":"490G00010753","towards":"Bounds Green"},{"icsId":"1010277","id":"490010277W","lat":51.6023,"lon":-0.12013,"name":"Nightingale Road","parentId":"490G00010277","stationId":"490G00010277","stopLetter":"BK","topMostParentId":"490G00010277","towards":"Bounds Green"},{"icsId":"1010729","id":"490010729F","lat":51.60541,"lon":-0.12241,"name":"Palace Road","parentId":"490G00010729","stationId":"490G00010729","stopLetter":"BL","topMostParentId":"490G00010729","towards":"Friern Barnet"},{"icsId":"1000028","id":"490000028B","lat":51.60727,"lon":-0.12535,"name":"Bounds Green Station","stopLetter":"BM","topMostParentId":"490000028B","towards":"Friern Barnet","zone":"3+4"},{"icsId":"1014255","id":"490014255W","lat":51.60853,"lon":-0.12744,"name":"Warwick Road","parentId":"490G00014255","stationId":"490G00014255","stopLetter":"GM","topMostParentId":"490G00014255","towards":"Friern Barnet"},{"icsId":"1009852","id":"490009852W","lat":51.61023,"lon":-0.13255,"name":"Cline Road","parentId":"490G00009852","stationId":"490G00009852","stopLetter":"GE","topMostParentId":"490G00009852","towards":"Friern Barnet"},{"icsId":"1008265","id":"490008265N","lat":51.61147,"lon":-0.13666,"name":"Hobart Corner","parentId":"490G00008265","stationId":"490G00008265","stopLetter":"GF","topMostParentId":"490G00008265","towards":"North Finchley Or Palmers Green"},{"icsId":"1009427","id":"490009427N","lat":51.61194,"lon":-0.13965,"name":"Lower Park Road","parentId":"490G00009427","stationId":"490G00009427","stopLetter":"->W","topMostParentId":"490G00009427","towards":"Arnos Grove Or North Finchley"},{"icsId":"1014618","id":"490014618W","lat":51.6138,"lon":-0.14226,"name":"Whitmore Close","parentId":"490G000833","stationId":"490G000833","stopLetter":"M","topMostParentId":"490G000833","towards":"Arnos Grove Or North Finchley"},{"icsId":"1001207","id":"490001207N","lat":51.61496,"lon":-0.14334,"name":"New Southgate Station","stopLetter":"K","topMostParentId":"490001207N","towards":"North Finchley Or Palmers Green"},{"icsId":"1003712","id":"490003712W","lat":51.61498,"lon":-0.14679,"name":"Beaconsfield Road / New Southgate Stn","parentId":"490G00003712","stationId":"490G00003712","stopLetter":"->W","topMostParentId":"490G00003712","towards":"North Finchley Or Finchley Central"},{"icsId":"1003846","id":"490003846W","lat":51.61454,"lon":-0.14955,"name":"Bellevue Road","parentId":"490G00003846","stationId":"490G00003846","stopLetter":"->W","topMostParentId":"490G00003846","towards":"North Finchley Or Finchley Central"},{"icsId":"1012733","id":"490012733W","lat":51.61328,"lon":-0.15419,"name":"St John's Church","parentId":"490G00012733","stationId":"490G00012733","stopLetter":"FB","topMostParentId":"490G00012733","towards":"North Finchley;finchley Central Or Muswell Hill"},{"icsId":"1002373","id":"490007030W1","lat":51.61305,"lon":-0.15784,"name":"Friern Barnet Town Hall","parentId":"490G00002373","stationId":"490G00002373","stopLetter":"FC","topMostParentId":"490G00002373","towards":"Finchley Or North Finchley"},{"icsId":"1007030","id":"490007030W","lat":51.61252,"lon":-0.15921,"name":"Colney Hatch Lane","parentId":"490G00007030","stationId":"490G00007030","stopLetter":"FL","topMostParentId":"490G00007030","towards":"Finchley Or North Finchley"},{"icsId":"1012994","id":"490012994W","lat":51.61159,"lon":-0.16277,"name":"Summers Lane","parentId":"490G00012994","stationId":"490G00012994","stopLetter":"FP","topMostParentId":"490G00012994","towards":"North Finchley"},{"icsId":"1005749","id":"490005749W","lat":51.6114,"lon":-0.16555,"name":"Crescent Way","parentId":"490G00005749","stationId":"490G00005749","stopLetter":"FQ","topMostParentId":"490G00005749","towards":"North Finchley Or Mill Hill"},{"icsId":"1008250","id":"490008250W","lat":51.61111,"lon":-0.16799,"name":"Woodhouse College","parentId":"490G00008250","stationId":"490G00008250","stopLetter":"FR","topMostParentId":"490G00008250","towards":"North Finchley Or Mill Hill"},{"icsId":"1007581","id":"490007575W","lat":51.61186,"lon":-0.17264,"name":"Churchfield Avenue","parentId":"490G00007581","stationId":"490G00007581","stopLetter":"G","topMostParentId":"490G00007581","towards":"North Finchley Or Mill Hill East"},{"icsId":"1010369","id":"490010369H","lat":51.61232,"lon":-0.17499,"name":"North Finchley High Road","parentId":"490G00010369","stationId":"490G00010369","stopLetter":"H","topMostParentId":"490G00010369","towards":"Mill Hill"},{"icsId":"1015443","id":"490015443P","lat":51.61266,"lon":-0.17691,"name":"North Finchley Bus Station","parentId":"490G00015443","stationId":"490G00015443","stopLetter":"P","topMostParentId":"490G00015443"},{"icsId":"1013660","id":"490013660W","lat":51.61112,"lon":-0.18152,"name":"Thyra Grove","parentId":"490G00013660","stationId":"490G00013660","stopLetter":"N","topMostParentId":"490G00013660","towards":"Mill Hill"},{"icsId":"1010182","id":"490010182W","lat":51.6131,"lon":-0.18488,"name":"Nether Street","parentId":"490G00010182","stationId":"490G00010182","stopLetter":"PP","topMostParentId":"490G00010182","towards":"Mill Hill"},{"icsId":"1003373","id":"490003373W","lat":51.61337,"lon":-0.18614,"name":"Argyle Road / Avondale Avenue","parentId":"490G000392","stationId":"490G000392","stopLetter":"RR","topMostParentId":"490G000392","towards":"Mill Hill"},{"icsId":"1013049","id":"490013049W","lat":51.61478,"lon":-0.18984,"name":"Sussex Ring","parentId":"490G00013049","stationId":"490G00013049","stopLetter":"->W","topMostParentId":"490G00013049","towards":"Mill Hill Or Whetstone"},{"icsId":"1012174","id":"490012174E","lat":51.61563,"lon":-0.19287,"name":"Singleton Scarp","parentId":"490G00012174","stationId":"490G00012174","stopLetter":"->W","topMostParentId":"490G00012174","towards":"Mill Hill"},{"icsId":"1005321","id":"490005321W","lat":51.61624,"lon":-0.1972,"name":"Cissbury Ring / Western Arm","parentId":"490G00005321","stationId":"490G00005321","stopLetter":"->W","topMostParentId":"490G00005321","towards":"Mill Hill"},{"icsId":"1010862","id":"490010862W","lat":51.6149,"lon":-0.20286,"name":"Partingdale Lane","parentId":"490G00010862","stationId":"490G00010862","topMostParentId":"490G00010862","towards":"Mill Hill"},{"icsId":"1006835","id":"490006835W","lat":51.61086,"lon":-0.20487,"name":"Finchley Golf Club","parentId":"490G00006835","stationId":"490G00006835","stopLetter":"->W","topMostParentId":"490G00006835","towards":"Mill Hill"},{"icsId":"1000147","id":"490000147A","lat":51.60855,"lon":-0.21016,"name":"Mill Hill East Station","stopLetter":"A","topMostParentId":"490000147A","towards":"Edgware or Millbrook Park","zone":"4"},{"icsId":"1011892","id":"490011892N","lat":51.6098,"lon":-0.21196,"name":"Sanders Lane","parentId":"490G00011892","stationId":"490G00011892","topMostParentId":"490G00011892","towards":"Edgware Or Millbrook Park"},{"icsId":"1004049","id":"490004049S","lat":51.61274,"lon":-0.21606,"name":"Bittacy Hill","parentId":"490G00004049","stationId":"490G00004049","stopLetter":"->S","topMostParentId":"490G00004049","towards":"Edgware"},{"icsId":"1011794","id":"490011794S","lat":51.61135,"lon":-0.21812,"name":"Rushden Gardens","parentId":"490G00011794","stationId":"490G00011794","stopLetter":"->S","topMostParentId":"490G00011794","towards":"Edgware"},{"icsId":"1004050","id":"490004050S","lat":51.60928,"lon":-0.21974,"name":"Bittacy Rise","parentId":"490G00004050","stationId":"490G00004050","stopLetter":"->S","topMostParentId":"490G00004050","towards":"Edgware"},{"icsId":"1011859","id":"490011859W","lat":51.60868,"lon":-0.22237,"name":"Salcombe Gardens","parentId":"490G00011859","stationId":"490G00011859","topMostParentId":"490G00011859","towards":"Edgware"},{"icsId":"1005596","id":"490005596W","lat":51.60826,"lon":-0.22765,"name":"Barnet Copthall Leisure Centre","parentId":"490G00005596","stationId":"490G00005596","stopLetter":"->W","topMostParentId":"490G00005596","towards":"Edgware"},{"icsId":"1010722","id":"490010722W","lat":51.60778,"lon":-0.23234,"name":"Page Street","parentId":"490G00010722","stationId":"490G00010722","stopLetter":"->W","topMostParentId":"490G00010722","towards":"Edgware"},{"icsId":"1005595","id":"490005595W","lat":51.60772,"lon":-0.23541,"name":"Copthall Gardens / Page Street","parentId":"490G00005595","stationId":"490G00005595","stopLetter":"->W","topMostParentId":"490G00005595","towards":"Edgware"},{"icsId":"1004580","id":"490004580W","lat":51.60754,"lon":-0.23947,"name":"Bunns Lane Bridge","parentId":"490G00004580","stationId":"490G00004580","stopLetter":"->W","topMostParentId":"490G00004580","towards":"Edgware"},{"icsId":"1010791","id":"490010791N","lat":51.61167,"lon":-0.2444,"name":"Parkmead Gardens","parentId":"490G00010791","stationId":"490G00010791","stopLetter":"->N","topMostParentId":"490G00010791","towards":"Edgware"},{"icsId":"1006881","id":"490006881H","lat":51.61506,"lon":-0.24589,"name":"Flower Lane / Sacred Heart Church","parentId":"490G00006881","stationId":"490G00006881","stopLetter":"H","topMostParentId":"490G00006881","towards":"Edgware Or Brent Cross"},{"icsId":"1001193","id":"490001193D","lat":51.61351,"lon":-0.24911,"name":"Mill Hill Broadway Station","stopLetter":"D","topMostParentId":"490001193D","towards":"Edgware"},{"icsId":"1003819","id":"490003819W","lat":51.61429,"lon":-0.25348,"name":"Beech Walk","parentId":"490G00003819","stationId":"490G00003819","stopLetter":"E","topMostParentId":"490G00003819","towards":"Edgware"},{"icsId":"1006175","id":"490006175W","lat":51.61556,"lon":-0.25589,"name":"Downhurst Avenue","parentId":"490G00006175","stationId":"490G00006175","stopLetter":"F","topMostParentId":"490G00006175","towards":"Edgware"},{"icsId":"1005442","id":"490005442W","lat":51.61704,"lon":-0.26118,"name":"Cloister Gardens","parentId":"490G00005442","stationId":"490G00005442","stopLetter":"G","topMostParentId":"490G00005442","towards":"Edgware"},{"icsId":"1006748","id":"490006748W","lat":51.61765,"lon":-0.26637,"name":"Farm Road","parentId":"490G00006748","stationId":"490G00006748","stopLetter":"H","topMostParentId":"490G00006748","towards":"Edgware"},{"icsId":"1004366","id":"490004366W","lat":51.61757,"lon":-0.2729,"name":"Broadfields Avenue","parentId":"490G00004366","stationId":"490G00004366","stopLetter":"L","topMostParentId":"490G00004366","towards":"Edgware"},{"icsId":"1006426","id":"490006426W","lat":51.61616,"lon":-0.2747,"name":"Edgware Library","parentId":"490G00006426","stationId":"490G00006426","stopLetter":"M","topMostParentId":"490G00006426","towards":"Edgware"},{"icsId":"1000070","id":"490000070G","lat":51.6134,"lon":-0.27552,"name":"Edgware Station","stopLetter":"G","topMostParentId":"490000070G","zone":"5"}]}]}