{"direction":"inbound","lineId":"223","lineName":"223","mode":"bus","stopPointSequences":[{"stopPoint":[{"icsId":"1000256","id":"490000256","lat":51.55159,"lon":-0.29717,"name":"Wembley Central Station","stopLetter":"CP","topMostParentId":"490000256","towards":"Sudbury Or Harrow","zone":"4"},{"icsId":"1016092","id":"490015430W","lat":51.55006,"lon":-0.29751,"name":"Ealing Road","parentId":"490G00016092","stationId":"490G00016092","stopLetter":"CR","topMostParentId":"490G00016092","towards":"Sudbury Hill Or Kenton"},{"icsId":"1008177","id":"490008177C","lat":51.55161,"lon":-0.29903,"name":"High Road Wembley","parentId":"490G00008177","stationId":"490G00008177","stopLetter":"CV","topMostParentId":"490G00008177","towards":"North Wembley, Kingsbury Or Wembley Park"},{"icsId":"1000256","id":"490000256F","lat":51.55243,"lon":-0.29755,"name":"Wembley Central Station","stopLetter":"CN","topMostParentId":"490000256F","towards":"Kingsbury, Wembley Park Or Harlesden","zone":"4"},{"icsId":"1005588","id":"490005584K","lat":51.55365,"lon":-0.29214,"name":"Ark Elvin Academy / Park Lane","parentId":"490G00005588","stationId":"490G00005588","stopLetter":"SG","topMostParentId":"490G00005588","towards":"Wembley Park, Brent Park Or Harlesden"},{"icsId":"1014387","id":"490014387E1","lat":51.55365,"lon":-0.28857,"name":"Wembley Triangle","parentId":"490G00014387","stationId":"490G00014387","stopLetter":"SM","topMostParentId":"490G00014387","towards":"Wembley Park Or Brent Park"},{"icsId":"1001320","id":"490001320B","lat":51.55521,"lon":-0.28654,"name":"Wembley Stadium Station","stopLetter":"SD","topMostParentId":"490001320B","towards":"Kingsbury Green, Brent Pk Or Wembley Pk"},{"icsId":"1014376","id":"490014376D","lat":51.5578,"lon":-0.28567,"name":"Lakeside Way","parentId":"490G00014376","stationId":"490G00014376","stopLetter":"D","topMostParentId":"490G00014376","towards":"Kingsbury Green, Brent Park Or Neasden"},{"icsId":"1014375","id":"490014375G","lat":51.5594,"lon":-0.2846,"name":"Wembley Arena","parentId":"490G00014375","stationId":"490G00014375","stopLetter":"G","topMostParentId":"490G00014375","towards":"Kingsbury Green Or Neasden"},{"icsId":"1006565","id":"490014384J","lat":51.56195,"lon":-0.28217,"name":"Empire Way","parentId":"490G00006565","stationId":"490G00006565","stopLetter":"J","topMostParentId":"490G00006565","towards":"Kingsbury Green, Kenton Or Neasden"},{"icsId":"1000257","id":"490000257M","lat":51.56367,"lon":-0.2789,"name":"Wembley Park Station","stopLetter":"M","topMostParentId":"490000257M","towards":"Preston Road, Kenton Or Willesden","zone":"4"},{"icsId":"1005621","id":"490005621P","lat":51.56576,"lon":-0.28074,"name":"Corringham Road","parentId":"490G00005621","stationId":"490G00005621","stopLetter":"P","topMostParentId":"490G00005621","towards":"Kenton Or Sudbury"},{"icsId":"1009756","id":"490009744N1","lat":51.56826,"lon":-0.28575,"name":"Mayfields","parentId":"490G00009756","stationId":"490G00009756","stopLetter":"W","topMostParentId":"490G00009756","towards":"Kenton"},{"icsId":"1003962","id":"490003962N","lat":51.57046,"lon":-0.2878,"name":"Beverley Gardens","parentId":"490G00003962","stationId":"490G00003962","stopLetter":"->N","topMostParentId":"490G00003962","towards":"South Kenton"},{"icsId":"1011440","id":"490011440N","lat":51.57295,"lon":-0.29276,"name":"Ravenscroft Avenue","parentId":"490G00011440","stationId":"490G00011440","stopLetter":"PC","topMostParentId":"490G00011440","towards":"South Kenton"},{"icsId":"1000183","id":"490000183B","lat":51.57189,"lon":-0.29468,"name":"Preston Road Station","stopLetter":"PB","topMostParentId":"490000183B","towards":"Wembley Or Kenton","zone":"4"},{"icsId":"1000988","id":"490000988Z","lat":51.56995,"lon":-0.2955,"name":"Fernleigh Court","parentId":"490G000268","stationId":"490G000268","stopLetter":"->W","topMostParentId":"490G000268","towards":"Kenton"},{"icsId":"1016606","id":"490016606W","lat":51.56876,"lon":-0.30273,"name":"Third Avenue / Carlton Avenue East","parentId":"490G00016606","stationId":"490G00016606","stopLetter":"->W","topMostParentId":"490G00016606"},{"icsId":"1001986","id":"490001986Z","lat":51.5685,"lon":-0.30431,"name":"Montpelier Rise","parentId":"490G000310","stationId":"490G000310","stopLetter":"->W","topMostParentId":"490G000310","towards":"Kenton"},{"icsId":"1000213","id":"490000213B","lat":51.57052,"lon":-0.3074,"name":"South Kenton Station","stopLetter":"U","topMostParentId":"490000213B","towards":"Harrow","zone":"4"},{"icsId":"1015854","id":"490015854Z","lat":51.57528,"lon":-0.30943,"name":"Grasmere Avenue","parentId":"490G00015854","stationId":"490G00015854","stopLetter":"->N","topMostParentId":"490G00015854"},{"icsId":"1014825","id":"490014825N","lat":51.57751,"lon":-0.30619,"name":"Draycott Avenue/ Woodcock Hill","parentId":"490G00014825","stationId":"490G00014825","stopLetter":"->N","topMostParentId":"490G00014825"},{"icsId":"1006145","id":"490006145Z","lat":51.5818,"lon":-0.30652,"name":"Dovedale Avenue","parentId":"490G00006145","stationId":"490G00006145","stopLetter":"->N","topMostParentId":"490G00006145","towards":"Harrow"},{"icsId":"1000984","id":"490000984Y","lat":51.5843,"lon":-0.30608,"name":"Sedgecombe Avenue","parentId":"490G000264","stationId":"490G000264","stopLetter":"->N","topMostParentId":"490G000264","towards":"Harrow"},{"icsId":"1018635","id":"490018635W","lat":51.58598,"lon":-0.30736,"name":"Woodgrange Avenue","parentId":"490G00018635","stationId":"490G00018635","stopLetter":"G","topMostParentId":"490G00018635","towards":"Harrow"},{"icsId":"1012760","id":"490012760W","lat":51.58502,"lon":-0.31089,"name":"St Leonards Avenue","parentId":"490G00012760","stationId":"490G00012760","stopLetter":"L","topMostParentId":"490G00012760","towards":"Harrow"},{"icsId":"1013956","id":"490013956LL","lat":51.58334,"lon":-0.31453,"name":"Upton Gardens","parentId":"490G00013956","stationId":"490G00013956","stopLetter":"LL","topMostParentId":"490G00013956","towards":"Harrow"},{"icsId":"1000124","id":"490000124II","lat":51.58109,"lon":-0.31859,"name":"Kenton Station","stopLetter":"II","topMostParentId":"490000124II","towards":"Harrow","zone":"4"},{"icsId":"1010424","id":"490010424FF","lat":51.57956,"lon":-0.32248,"name":"Northwick Avenue","parentId":"490G00010424","stationId":"490G00010424","stopLetter":"FF","topMostParentId":"490G00010424","towards":"Harrow"},{"icsId":"1010425","id":"490010425HS","lat":51.57647,"lon":-0.32369,"name":"Northwick Park Hospital","parentId":"490G00010425","stationId":"490G00010425","stopLetter":"HS","topMostParentId":"490G00010425","towards":"Harrow Bus Station"},{"icsId":"1010958","id":"490010958N","lat":51.57765,"lon":-0.33377,"name":"Tyburn Lane","parentId":"490G000702","stationId":"490G000702","stopLetter":"G","topMostParentId":"490G000702","towards":"Wealdstone"},{"icsId":"1015347","id":"490015347L","lat":51.57935,"lon":-0.33404,"name":"Harrow Town Centre","parentId":"490G00015347","stationId":"490G00015347","stopLetter":"L","topMostParentId":"490G00015347","towards":"Belmont, Harrow View Or Wealdstone"},{"icsId":"1007845","id":"490007845D","lat":51.58007,"lon":-0.33796,"name":"Harrow Bus Station","parentId":"490G000574","stationId":"490G000574","stopLetter":"D","topMostParentId":"HUBHOH","towards":"North Harrow, Pinner Or Wealdstone"},{"icsId":"1008254","id":"490008254N","lat":51.58404,"lon":-0.34142,"name":"Hindes Road","parentId":"490G00008254","stationId":"490G00008254","stopLetter":"->N","topMostParentId":"490G00008254","towards":"Hatch End Or Harrow Weald"},{"icsId":"1005907","id":"490005907N","lat":51.58851,"lon":-0.34373,"name":"Cunningham Park","parentId":"490G00005907","stationId":"490G00005907","stopLetter":"->N","topMostParentId":"490G00005907","towards":"Hatch End"},{"icsId":"1013383","id":"490013383N","lat":51.592,"lon":-0.34601,"name":"Headstone Drive","parentId":"490G00013383","stationId":"490G00013383","stopLetter":"W","topMostParentId":"490G00013383","towards":"Hatch End Or Harrow Weald"},{"icsId":"1008888","id":"490008888N","lat":51.59585,"lon":-0.34864,"name":"Harrow View West","parentId":"490G00008888","stationId":"490G00008888","stopLetter":"->N","topMostParentId":"490G00008888","towards":"Hatch End"}]}]}