{"direction":"inbound","lineId":"224","lineName":"224","mode":"bus","stopPointSequences":[{"stopPoint":[{"icsId":"1009953","id":"490009953W","lat":51.54824,"lon":-0.26807,"name":"Mitchell Way","parentId":"490G00009953","stationId":"490G00009953","stopLetter":"->W","topMostParentId":"490G00009953","towards":"Brent Cross Or Park Royal"},{"icsId":"1009152","id":"490009152N","lat":51.54924,"lon":-0.2655,"name":"Lilburne Walk","parentId":"490G00009152","stationId":"490G00009152","stopLetter":"->N","topMostParentId":"490G00009152","towards":"Brent Cross, Park Royal Or Wembley"},{"icsId":"1010676","id":"490010676N2","lat":51.55102,"lon":-0.26501,"name":"Owen Way","parentId":"490G00010676","stationId":"490G00010676","stopLetter":"->N","topMostParentId":"490G00010676","towards":"Brent Cross, Park Royal Or Wembley"},{"icsId":"1006205","id":"490006205E","lat":51.5526,"lon":-0.263,"name":"Lovett Way","parentId":"490G00006205","stationId":"490G00006205","stopLetter":"Q","topMostParentId":"490G00006205","towards":"Brent Cross Or Park Royal"},{"icsId":"1008463","id":"490008456N","lat":51.55328,"lon":-0.26178,"name":"Ikea Brent Park / Drury Way","parentId":"490G00008463","stationId":"490G00008463","stopLetter":"B","topMostParentId":"490G00008463","towards":"Park Royal Or St Raphael's Estate"},{"icsId":"1008460","id":"490014032N","lat":51.55398,"lon":-0.26175,"name":"Ikea Brent Park / Panther Drive","parentId":"490G00008460","stationId":"490G00008460","stopLetter":"A","topMostParentId":"490G00008460","towards":"Brent Park Tesco Or St Raphael's Estate"},{"icsId":"1004297","id":"490004297W","lat":51.55343,"lon":-0.2576,"name":"Brent Park Tesco","parentId":"490G00004297","stationId":"490G00004297","stopLetter":"T","topMostParentId":"490G00004297","towards":"Kilburn, Wembley Or St Raphael's Estate"},{"icsId":"1010334","id":"490014997N","lat":51.55221,"lon":-0.25383,"name":"Yeats Close","parentId":"490G00010334","stationId":"490G00010334","stopLetter":"E","topMostParentId":"490G00010334","towards":"Park Royal Or Harlesden"},{"icsId":"1014856","id":"490014856G","lat":51.55225,"lon":-0.25756,"name":"Woodheyes Road","parentId":"490G00014856","stationId":"490G00014856","stopLetter":"G","topMostParentId":"490G00014856","towards":"Ealing, Harlesden Or Park Royal"},{"icsId":"1008746","id":"490008746S","lat":51.55054,"lon":-0.26097,"name":"Kingfisher Way","parentId":"490G00008746","stationId":"490G00008746","stopLetter":"D","topMostParentId":"490G00008746","towards":"Harlesden Or Park Royal"},{"icsId":"1013098","id":"490013098S","lat":51.5473,"lon":-0.25996,"name":"Swaminarayan Temple","parentId":"490G00013098","stationId":"490G00013098","stopLetter":"J","topMostParentId":"490G00013098","towards":"Harlesden Or Park Royal"},{"icsId":"1012018","id":"490012018S","lat":51.54528,"lon":-0.25959,"name":"Gloucester Close","parentId":"490G00012018","stationId":"490G00012018","stopLetter":"S","topMostParentId":"490G00012018","towards":"Harlesden Or Park Royal"},{"icsId":"1006769","id":"490006769S","lat":51.54303,"lon":-0.25952,"name":"Fawood Avenue","parentId":"490G00006769","stationId":"490G00006769","stopLetter":"T","topMostParentId":"490G00006769","towards":"Harlesden Or Park Royal"},{"icsId":"1008865","id":"490008865S","lat":51.54054,"lon":-0.2581,"name":"Knatchbull Road","parentId":"490G00008865","stationId":"490G00008865","stopLetter":"A","topMostParentId":"490G00008865","towards":"Willesden Or Park Royal"},{"icsId":"1014798","id":"490014798S","lat":51.53779,"lon":-0.25728,"name":"Winchelsea Road / Harlesden Station","parentId":"490G00014798","stationId":"490G00014798","stopLetter":"HD","topMostParentId":"490G00014798","towards":"Willesden Or Park Royal"},{"icsId":"1000100","id":"490000100S","lat":51.53627,"lon":-0.25699,"name":"Harlesden Station","stopLetter":"HA","topMostParentId":"490000100S","towards":"Alperton, East Acton Or Park Royal","zone":"3"},{"icsId":"1014319","id":"490014319S","lat":51.53487,"lon":-0.25862,"name":"Waxlow Road","parentId":"490G00014319","stationId":"490G00014319","stopLetter":"PA","topMostParentId":"490G00014319","towards":"Alperton, East Acton Or Park Royal"},{"icsId":"1003652","id":"490003652S","lat":51.53251,"lon":-0.26335,"name":"Barretts Green Road","parentId":"490G00003652","stationId":"490G00003652","stopLetter":"W","topMostParentId":"490G00003652","towards":"Alperton, East Acton Or Park Royal"},{"icsId":"1004925","id":"490004925B1","lat":51.53063,"lon":-0.26875,"name":"Central Middlesex Hospital","parentId":"490G00004925","stationId":"490G00004925","stopLetter":"B","topMostParentId":"490G00004925","towards":"Alperton Or Hanger Lane"},{"icsId":"1003028","id":"490003028E","lat":51.52935,"lon":-0.2699,"name":"Abbey Road","parentId":"490G00003028","stationId":"490G00003028","stopLetter":"H","topMostParentId":"490G00003028","towards":"Hanger Lane Or Kensal Rise"},{"icsId":"1015414","id":"490015414F1","lat":51.52823,"lon":-0.26952,"name":"Park Royal Asda / Western Road","parentId":"490G00015414","stationId":"490G00015414","stopLetter":"K","topMostParentId":"490G00015414","towards":"Harlesden"},{"icsId":"1018985","id":"490015414G","lat":51.52954,"lon":-0.26851,"name":"Park Royal Asda","parentId":"490G00018985","stationId":"490G00018985","stopLetter":"G","topMostParentId":"490G00018985","towards":"Harlesden Or Stonebridge Park"},{"icsId":"1005896","id":"490005896N","lat":51.53165,"lon":-0.27202,"name":"Cumberland Avenue","parentId":"490G00005896","stationId":"490G00005896","stopLetter":"N","topMostParentId":"490G00005896","towards":"Alperton Or Wembley"},{"icsId":"1014571","id":"490014571N","lat":51.53252,"lon":-0.27439,"name":"Whitby Avenue","parentId":"490G00014571","stationId":"490G00014571","stopLetter":"->N","topMostParentId":"490G00014571","towards":"Alperton Or Wembley"},{"icsId":"1011397","id":"490011397N","lat":51.5335,"lon":-0.27828,"name":"Rainsford Road","parentId":"490G00011397","stationId":"490G00011397","stopLetter":"A","topMostParentId":"490G00011397","towards":"Alperton"},{"icsId":"1008521","id":"490008521N","lat":51.53488,"lon":-0.28243,"name":"Iveagh Avenue","parentId":"490G00008521","stationId":"490G00008521","stopLetter":"C","topMostParentId":"490G00008521","towards":"Alperton Or Harlesden"},{"icsId":"1013877","id":"490013877E","lat":51.53478,"lon":-0.28002,"name":"Twyford Abbey Road","parentId":"490G00013877","stationId":"490G00013877","stopLetter":"D","topMostParentId":"490G00013877","towards":"Alperton Or Harlesden"},{"icsId":"1011397","id":"490011397Z","lat":51.53499,"lon":-0.27685,"name":"Rainsford Road","parentId":"490G00011397","stationId":"490G00011397","stopLetter":"->E","topMostParentId":"490G00011397","towards":"Alperton"},{"icsId":"1003914","id":"490003914P","lat":51.54027,"lon":-0.2785,"name":"Beresford Avenue","parentId":"490G00003914","stationId":"490G00003914","stopLetter":"P","topMostParentId":"490G00003914","towards":"Alperton, Brent Cross Or Wembley"},{"icsId":"1007990","id":"490007990W","lat":51.54137,"lon":-0.28062,"name":"Heather Park Drive","parentId":"490G00007990","stationId":"490G00007990","stopLetter":"N","topMostParentId":"490G00007990","towards":"Alperton"},{"icsId":"1010363","id":"490010363W","lat":51.54124,"lon":-0.28413,"name":"Kenmere Gardens","parentId":"490G00010363","stationId":"490G00010363","stopLetter":"->W","topMostParentId":"490G00010363","towards":"Alperton Station Or Wembley"},{"icsId":"1003913","id":"490003913W","lat":51.54109,"lon":-0.28845,"name":"Beresford Avenue","parentId":"490G00003913","stationId":"490G00003913","stopLetter":"->W","topMostParentId":"490G00003913","towards":"Alperton"},{"icsId":"1010088","id":"490010088W","lat":51.54201,"lon":-0.29516,"name":"Mount Pleasant","parentId":"490G00010088","stationId":"490G00010088","stopLetter":"->W","topMostParentId":"490G00010088","towards":"Alperton"},{"icsId":"1000005","id":"490000005A","lat":51.54054,"lon":-0.29893,"name":"Alperton Station","stopLetter":"A","topMostParentId":"490000005A","towards":"Ealing Or Perivale","zone":"4"},{"icsId":"1003268","id":"490003268E2","lat":51.53802,"lon":-0.3021,"name":"Alperton Sainsbury's","parentId":"490G00003268","stationId":"490G00003268","stopLetter":"H","topMostParentId":"490G00003268","towards":"Park Royal"}]}]}