{"direction":"inbound","lineId":"225","lineName":"225","mode":"bus","stopPointSequences":[{"stopPoint":[{"icsId":"1004733","id":"490000037S","lat":51.49795,"lon":-0.05,"name":"Canada Water Bus Station","parentId":"490G000438","stationId":"490G000438","stopLetter":"B2","topMostParentId":"HUBZCW"},{"icsId":"1011723","id":"490011723E","lat":51.49494,"lon":-0.05048,"name":"Rotherhithe Police Station","parentId":"490G00011723","stationId":"490G00011723","stopLetter":"E","topMostParentId":"490G00011723","towards":"South Bermondsey, Deptford Or New Cross"},{"icsId":"1013042","id":"490013042K","lat":51.494,"lon":-0.04587,"name":"Surrey Quays Shopping Centre","parentId":"490G000775","stationId":"490G000775","stopLetter":"K","topMostParentId":"490G000775","towards":"Greenwich Or Peckham"},{"icsId":"1000229","id":"490000229L","lat":51.49342,"lon":-0.04601,"name":"Surrey Quays Station","stopLetter":"L","topMostParentId":"490000229L","towards":"Southwark Park Road, New Cross Or Lewisham"},{"icsId":"1008572","id":"490008572S","lat":51.4896,"lon":-0.04471,"name":"John Silkin Lane","parentId":"490G00008572","stationId":"490G00008572","stopLetter":"G","topMostParentId":"490G00008572","towards":"New Cross"},{"icsId":"1003241","id":"490003241S","lat":51.48779,"lon":-0.04369,"name":"Alloa Road","parentId":"490G00003241","stationId":"490G00003241","stopLetter":"H","topMostParentId":"490G00003241","towards":"New Cross"},{"icsId":"1007534","id":"490007534S","lat":51.48567,"lon":-0.04235,"name":"Grinstead Road","parentId":"490G00007534","stationId":"490G00007534","stopLetter":"J","topMostParentId":"490G00007534","towards":"New Cross"},{"icsId":"1005460","id":"490005460S","lat":51.48274,"lon":-0.04166,"name":"Cold Blow Lane","parentId":"490G00005460","stationId":"490G00005460","stopLetter":"K","topMostParentId":"490G00005460","towards":"Deptford"},{"icsId":"1012674","id":"490012674S","lat":51.48133,"lon":-0.04166,"name":"Sterling Gardens","parentId":"490G00012674","stationId":"490G00012674","stopLetter":"L","topMostParentId":"490G00012674","towards":"Deptford"},{"icsId":"1005634","id":"490005634S","lat":51.47967,"lon":-0.04082,"name":"Cottesbrook Street","parentId":"490G00005634","stationId":"490G00005634","stopLetter":"M","topMostParentId":"490G00005634","towards":"Deptford"},{"icsId":"1006451","id":"490006451E","lat":51.47866,"lon":-0.03673,"name":"Edward Street","parentId":"490G00006451","stationId":"490G00006451","stopLetter":"Z","topMostParentId":"490G00006451","towards":"Deptford"},{"icsId":"1006688","id":"490006688U","lat":51.47701,"lon":-0.03407,"name":"Exeter Way","parentId":"490G00006688","stationId":"490G00006688","stopLetter":"U","topMostParentId":"490G00006688","towards":"Deptford"},{"icsId":"1000155","id":"490000155V","lat":51.47586,"lon":-0.03135,"name":"New Cross Station","stopLetter":"V","topMostParentId":"490000155V","towards":"Blackheath, Greenwich Or Lewisham"},{"icsId":"1006051","id":"490006051E","lat":51.47517,"lon":-0.02736,"name":"Deptford High Street","parentId":"490G00006051","stationId":"490G00006051","stopLetter":"E","topMostParentId":"490G00006051","towards":"Blackheath, Greenwich Or Lewisham"},{"icsId":"1007024","id":"490007024R","lat":51.47276,"lon":-0.02332,"name":"Friendly Street","parentId":"490G00007024","stationId":"490G00007024","stopLetter":"R","topMostParentId":"490G00007024","towards":"Lewisham"},{"icsId":"1005696","id":"490005696S","lat":51.47064,"lon":-0.02144,"name":"Cranbrook Road","parentId":"490G000470","stationId":"490G000470","stopLetter":"SV","topMostParentId":"490G000470","towards":"Catford Or Hither Green"},{"icsId":"1002035","id":"490002035B","lat":51.46814,"lon":-0.0185,"name":"Elverson Road","stopLetter":"EB","topMostParentId":"490002035B","towards":"Catford Or Hither Green","zone":"2+3"},{"icsId":"1008550","id":"490008550E","lat":51.46616,"lon":-0.01645,"name":"Jerrard Street","parentId":"490G00008550","stationId":"490G00008550","stopLetter":"ST","topMostParentId":"490G00008550","towards":"Catford Or Hither Green"},{"icsId":"1009234","id":"490009234E","lat":51.46529,"lon":-0.01455,"name":"Loampit Vale","parentId":"490G000640","stationId":"490G000640","stopLetter":"->E","topMostParentId":"490G000640","towards":"Catford Or Hither Green"},{"icsId":"1001177","id":"490001177V","lat":51.46405,"lon":-0.01247,"name":"Lewisham Station","stopLetter":"C","topMostParentId":"490001177V","towards":"Hither Green Or Ladywell","zone":"2+3"},{"icsId":"1009105","id":"490009105X","lat":51.46064,"lon":-0.01082,"name":"Lewisham Centre","parentId":"490G00009105","stationId":"490G00009105","stopLetter":"X","topMostParentId":"490G00009105","towards":"Brockley Or Catford"},{"icsId":"1010038","id":"490010038Y","lat":51.45886,"lon":-0.01232,"name":"Morley Road","parentId":"490G00010038","stationId":"490G00010038","stopLetter":"Y","topMostParentId":"490G00010038","towards":"Brockley Or Catford"},{"icsId":"1020225","id":"490020225E","lat":51.45677,"lon":-0.0128,"name":"Longbridge Way","parentId":"490G00020225","stationId":"490G00020225","stopLetter":"HM","topMostParentId":"490G00020225","towards":"Catford Or Hither Green"},{"icsId":"1013624","id":"490013624S","lat":51.45451,"lon":-0.0089,"name":"Thornford Road","parentId":"490G00013624","stationId":"490G00013624","stopLetter":"->S","topMostParentId":"490G00013624","towards":"Hither Green"},{"icsId":"1013479","id":"490013479S","lat":51.45137,"lon":-0.0062,"name":"Theodore Road","parentId":"490G00013479","stationId":"490G00013479","stopLetter":"B","topMostParentId":"490G00013479","towards":"Hither Green"},{"icsId":"1008259","id":"490008259S","lat":51.4498,"lon":-0.00367,"name":"George Lane","parentId":"490G00008259","stationId":"490G00008259","stopLetter":"C","topMostParentId":"490G00008259","towards":"Catford Or Hither Green Station"},{"icsId":"1015429","id":"490015429S","lat":51.44969,"lon":0.00041,"name":"Springbank Road / Hither Green Station","parentId":"490G00015429","stationId":"490G00015429","stopLetter":"A","topMostParentId":"490G00015429","towards":"Lewisham"}]}]}