{"direction":"inbound","lineId":"226","lineName":"226","mode":"bus","stopPointSequences":[{"stopPoint":[{"icsId":"1000087","id":"490000087GB","lat":51.57198,"lon":-0.19392,"name":"Golders Green Station","stopLetter":"GB","topMostParentId":"490000087GB","zone":"3"},{"icsId":"1008268","id":"490008268GO","lat":51.57178,"lon":-0.19668,"name":"Hodford Road","parentId":"490G00008268","stationId":"490G00008268","stopLetter":"GO","topMostParentId":"490G00008268","towards":"Brent Cross Or Cricklewood"},{"icsId":"1006263","id":"490006263W","lat":51.56862,"lon":-0.20287,"name":"Dunstan Road","parentId":"490G00006263","stationId":"490G00006263","stopLetter":"->W","topMostParentId":"490G00006263","towards":"Brent Cross Or Cricklewood"},{"icsId":"1013578","id":"490013578W","lat":51.56738,"lon":-0.20524,"name":"The Vale / Hendon Way","parentId":"490G00013578","stationId":"490G00013578","stopLetter":"->W","topMostParentId":"490G00013578","towards":"Brent Cross Or Cricklewood"},{"icsId":"1008059","id":"490008059W","lat":51.5684,"lon":-0.20848,"name":"Hendon Way","parentId":"490G00008059","stationId":"490G00008059","stopLetter":"N","topMostParentId":"490G00008059","towards":"Brent Cross Or Cricklewood"},{"icsId":"1010916","id":"490010916W","lat":51.56707,"lon":-0.21111,"name":"Cleveland Gardens","parentId":"490G00010916","stationId":"490G00010916","stopLetter":"P","topMostParentId":"490G00010916","towards":"Brent Cross Or Cricklewood"},{"icsId":"1010914","id":"490010914S","lat":51.56381,"lon":-0.21557,"name":"Pennine Drive","parentId":"490G00010914","stationId":"490G00010914","stopLetter":"D","topMostParentId":"490G00010914","towards":"Dollis Hill, Kilburn Or West Hampstead"},{"icsId":"1012230","id":"490012230S","lat":51.56108,"lon":-0.21344,"name":"Somerton Road","parentId":"490G00012230","stationId":"490G00012230","stopLetter":"CK","topMostParentId":"490G00012230","towards":"Dollis Hill, Kilburn Or West Hampstead"},{"icsId":"1001075","id":"490001075Q","lat":51.5595,"lon":-0.21222,"name":"Cricklewood Station","stopLetter":"CL","topMostParentId":"490001075Q","towards":"Dollis  Hill,  Kilburn Or West Hampstead"},{"icsId":"1005773","id":"490005773D","lat":51.55708,"lon":-0.21478,"name":"Cricklewood Broadway","parentId":"490G000473","stationId":"490G000473","stopLetter":"CW","topMostParentId":"490G000473","towards":"Kilburn, Neasden Or Willesden"},{"icsId":"1005771","id":"490005771E","lat":51.55537,"lon":-0.21613,"name":"Sheldon Road","parentId":"490G000472","stationId":"490G000472","stopLetter":"CX","topMostParentId":"490G000472","towards":"Willesden"},{"icsId":"1003337","id":"490003337W","lat":51.55385,"lon":-0.21832,"name":"Anson Primary School","parentId":"490G00003337","stationId":"490G00003337","stopLetter":"CB","topMostParentId":"490G00003337","towards":"Willesden"},{"icsId":"1005993","id":"490005993W","lat":51.55425,"lon":-0.22238,"name":"Dawson Road","parentId":"490G00005993","stationId":"490G00005993","stopLetter":"->W","topMostParentId":"490G00005993","towards":"Willesden"},{"icsId":"1008077","id":"490008077W","lat":51.55461,"lon":-0.22607,"name":"Henson Avenue","parentId":"490G00008077","stationId":"490G00008077","stopLetter":"->W","topMostParentId":"490G00008077","towards":"Willesden"},{"icsId":"1013372","id":"490013372W","lat":51.55494,"lon":-0.22904,"name":"The Gladstone Centre","parentId":"490G00013372","stationId":"490G00013372","stopLetter":"->W","topMostParentId":"490G00013372","towards":"Willesden"},{"icsId":"1008620","id":"490008620W","lat":51.55524,"lon":-0.23445,"name":"Cullingworth Road","parentId":"490G00008620","stationId":"490G00008620","stopLetter":"->W","topMostParentId":"490G00008620","towards":"Willesden"},{"icsId":"1007150","id":"490007150S","lat":51.55458,"lon":-0.23741,"name":"Geary Road","parentId":"490G00007150","stationId":"490G00007150","stopLetter":"->S","topMostParentId":"490G00007150","towards":"Willesden"},{"icsId":"1000061","id":"490000061A","lat":51.55281,"lon":-0.23831,"name":"Dollis Hill Station","stopLetter":"DA","topMostParentId":"490000061A","towards":"Willesden","zone":"3"},{"icsId":"1003054","id":"490003054W","lat":51.55306,"lon":-0.2425,"name":"Aberdeen Road","parentId":"490G00003054","stationId":"490G00003054","stopLetter":"DH","topMostParentId":"490G00003054","towards":"Willesden"},{"icsId":"1004989","id":"490004989C","lat":51.55039,"lon":-0.24064,"name":"Chapter Road","parentId":"490G000447","stationId":"490G000447","stopLetter":"DG","topMostParentId":"490G000447","towards":"Harlesden Or Kensal Rise"},{"icsId":"1014701","id":"490014687W1","lat":51.5486,"lon":-0.23995,"name":"Pound Lane","parentId":"490G00014701","stationId":"490G00014701","stopLetter":"WU","topMostParentId":"490G00014701","towards":"Harlesden"},{"icsId":"1003935","id":"490003935Z","lat":51.5471,"lon":-0.2393,"name":"Bertie Road","parentId":"490G00003935","stationId":"490G00003935","stopLetter":"WY","topMostParentId":"490G00003935","towards":"Harlesden Or Kensal Rise Station"},{"icsId":"1010834","id":"490010834S","lat":51.54604,"lon":-0.23787,"name":"Clare Road","parentId":"490G00010834","stationId":"490G00010834","stopLetter":"HK","topMostParentId":"490G00010834","towards":"Harlesden Or Kensal Rise"},{"icsId":"1015552","id":"490015552S1","lat":51.54329,"lon":-0.23584,"name":"Willesden Centre For Health and Care","parentId":"490G00015552","stationId":"490G00015552","stopLetter":"HF","topMostParentId":"490G00015552","towards":"Harlesden"},{"icsId":"1019235","id":"490019235H","lat":51.54209,"lon":-0.23649,"name":"Robson Avenue","parentId":"490G00019235","stationId":"490G00019235","stopLetter":"HG","topMostParentId":"490G00019235","towards":"Harlesden"},{"icsId":"1011731","id":"490011731S","lat":51.54023,"lon":-0.23773,"name":"Roundwood Park","parentId":"490G00011731","stationId":"490G00011731","stopLetter":"HH","topMostParentId":"490G00011731","towards":"Harlesden"},{"icsId":"1014963","id":"490014963J","lat":51.53824,"lon":-0.23898,"name":"Newman College / Wrottesley Road","parentId":"490G00014963","stationId":"490G00014963","stopLetter":"J","topMostParentId":"490G00014963","towards":"Park Royal Or Stonebridge"},{"icsId":"1008187","id":"490010792D","lat":51.53694,"lon":-0.24322,"name":"Park Parade","parentId":"490G00008187","stationId":"490G00008187","stopLetter":"D","topMostParentId":"490G00008187","towards":"Park Royal Or Stonebridge"},{"icsId":"1014690","id":"490014690S","lat":51.53569,"lon":-0.24946,"name":"Willesden County Court","parentId":"490G00014690","stationId":"490G00014690","stopLetter":"S","topMostParentId":"490G00014690","towards":"North Acton, Park Royal Or Brent Park"},{"icsId":"1006717","id":"490006717W","lat":51.53654,"lon":-0.2533,"name":"Fairlight Avenue","parentId":"490G00006717","stationId":"490G00006717","stopLetter":"HF","topMostParentId":"490G00006717","towards":"North Acton, Park Royal Or Brent Park"},{"icsId":"1000100","id":"490000100S","lat":51.53627,"lon":-0.25699,"name":"Harlesden Station","stopLetter":"HA","topMostParentId":"490000100S","towards":"Alperton, East Acton Or Park Royal","zone":"3"},{"icsId":"1014319","id":"490014319S","lat":51.53487,"lon":-0.25862,"name":"Waxlow Road","parentId":"490G00014319","stationId":"490G00014319","stopLetter":"PA","topMostParentId":"490G00014319","towards":"Alperton, East Acton Or Park Royal"},{"icsId":"1003652","id":"490003652S","lat":51.53251,"lon":-0.26335,"name":"Barretts Green Road","parentId":"490G00003652","stationId":"490G00003652","stopLetter":"W","topMostParentId":"490G00003652","towards":"Alperton, East Acton Or Park Royal"},{"icsId":"1004925","id":"490004925B1","lat":51.53063,"lon":-0.26875,"name":"Central Middlesex Hospital","parentId":"490G00004925","stationId":"490G00004925","stopLetter":"B","topMostParentId":"490G00004925","towards":"Alperton Or Hanger Lane"},{"icsId":"1003028","id":"490003028E","lat":51.52935,"lon":-0.2699,"name":"Abbey Road","parentId":"490G00003028","stationId":"490G00003028","stopLetter":"H","topMostParentId":"490G00003028","towards":"Hanger Lane Or Kensal Rise"},{"icsId":"1014449","id":"490014449N","lat":51.52885,"lon":-0.27188,"name":"Western Road","parentId":"490G00014449","stationId":"490G00014449","stopLetter":"L","topMostParentId":"490G00014449","towards":"Ealing Broadway"},{"icsId":"1011389","id":"490011389W","lat":51.52822,"lon":-0.27702,"name":"Radnor Way","parentId":"490G00011389","stationId":"490G00011389","stopLetter":"R","topMostParentId":"490G00011389","towards":"Ealing Broadway"},{"icsId":"1000176","id":"490007599W","lat":51.52888,"lon":-0.28191,"name":"Park Royal Station","stopLetter":"S","topMostParentId":"490007599W","towards":"Ealing Broadway","zone":"3"},{"icsId":"1016694","id":"490016694W","lat":51.52937,"lon":-0.28469,"name":"Lakeside Drive","parentId":"490G00016694","stationId":"490G00016694","stopLetter":"T","topMostParentId":"490G00016694","towards":"Hanger Lane Station"},{"icsId":"1016693","id":"490016693W","lat":51.53245,"lon":-0.28589,"name":"Bodiam Way","parentId":"490G00016693","stationId":"490G00016693","stopLetter":"U","topMostParentId":"490G00016693","towards":"Hanger Lane Station"},{"icsId":"1016718","id":"490016718W","lat":51.53217,"lon":-0.28731,"name":"Twyford Abbey Road","parentId":"490G00016718","stationId":"490G00016718","stopLetter":"V","topMostParentId":"490G00016718","towards":"Hanger Lane"},{"icsId":"1000099","id":"490000099J","lat":51.53052,"lon":-0.29258,"name":"Hanger Lane Station","stopLetter":"J","topMostParentId":"490000099J","towards":"Ealing Broadway Or North Acton","zone":"3"},{"icsId":"1002342","id":"490002342HZ","lat":51.52783,"lon":-0.29965,"name":"Birkdale Road","parentId":"490G00002342","stationId":"490G00002342","stopLetter":"->S","topMostParentId":"490G00002342"},{"icsId":"1002341","id":"490002341HZ","lat":51.52528,"lon":-0.30002,"name":"Mount Avenue","parentId":"490G00002341","stationId":"490G00002341","stopLetter":"->S","topMostParentId":"490G00002341"},{"icsId":"1002339","id":"490002339HZ","lat":51.52382,"lon":-0.3029,"name":"Helena Road","parentId":"490G00002339","stationId":"490G00002339","stopLetter":"->S","topMostParentId":"490G00002339"},{"icsId":"1002338","id":"490002338HY","lat":51.52266,"lon":-0.3031,"name":"Montpelier Road / St Peters Way","parentId":"490G00002338","stationId":"490G00002338","stopLetter":"->W","topMostParentId":"490G00002338"},{"icsId":"1010001","id":"490010001U","lat":51.52219,"lon":-0.30621,"name":"Montpelier Road","parentId":"490G00010001","stationId":"490G00010001","stopLetter":"->W","topMostParentId":"490G00010001"},{"icsId":"1010001","id":"490010001Z","lat":51.52204,"lon":-0.30649,"name":"Montpelier Road / Eaton Rise","parentId":"490G00002413","stationId":"490G00002413","stopLetter":"->W","topMostParentId":"490G00002413"},{"icsId":"1010001","id":"490010001S","lat":51.52155,"lon":-0.3066,"name":"Montpelier Road","parentId":"490G00010001","stationId":"490G00010001","stopLetter":"SQ","topMostParentId":"490G00010001","towards":"Ealing Broadway"},{"icsId":"1009636","id":"490009637S","lat":51.52025,"lon":-0.30611,"name":"Marchwood Crescent","parentId":"490G00009636","stationId":"490G00009636","stopLetter":"SR","topMostParentId":"490G00009636","towards":"Northfields"},{"icsId":"1006279","id":"490006279S","lat":51.51677,"lon":-0.30635,"name":"Castlebar Road","parentId":"490G00006279","stationId":"490G00006279","stopLetter":"ST","topMostParentId":"490G00006279","towards":"West Ealing and Northfields"},{"icsId":"1007913","id":"490007913D","lat":51.51518,"lon":-0.30343,"name":"Haven Grn / Ealing Broadway Stn","parentId":"490G000578","stationId":"490G000578","stopLetter":"D","topMostParentId":"HUBEAL","towards":"Greenford Or Hanger Lane"}]}]}