{"direction":"inbound","lineId":"23","lineName":"23","mode":"bus","stopPointSequences":[{"stopPoint":[{"icsId":"1000372","id":"490000372Z","lat":51.51319,"lon":-0.11701,"name":"Aldwych / Bush House","parentId":"490G00000372","stationId":"490G00000372","stopLetter":"H","topMostParentId":"490G00000372","towards":"Trafalgar Square"},{"icsId":"1011938","id":"490011938U","lat":51.51077,"lon":-0.12048,"name":"Savoy Street","parentId":"490G000737","stationId":"490G000737","stopLetter":"U","topMostParentId":"490G000737","towards":"Parliament Square Or Piccadilly"},{"icsId":"1003112","id":"490003112J","lat":51.50967,"lon":-0.12319,"name":"Bedford Street","parentId":"490G00003112","stationId":"490G00003112","stopLetter":"J","topMostParentId":"490G00003112","towards":"Oxford Circus, Green Park Or Westminster"},{"icsId":"1000045","id":"490013766H","lat":51.50843,"lon":-0.12552,"name":"Charing Cross Station","stopLetter":"H","topMostParentId":"490013766H","towards":"Hyde Park Corner Or Oxford Circus","zone":"1"},{"icsId":"1013767","id":"490013767S","lat":51.50745,"lon":-0.12945,"name":"Trafalgar Square","parentId":"490G000804","stationId":"490G000804","stopLetter":"S","topMostParentId":"490G000804","towards":"Hyde Park Corner"},{"icsId":"1011516","id":"490011515Z","lat":51.50873,"lon":-0.13407,"name":"Regent Street / St James's","parentId":"490G00011516","stationId":"490G00011516","stopLetter":"Z","topMostParentId":"490G00011516","towards":"Oxford Circus Or Green Park"},{"icsId":"1000179","id":"490000179S","lat":51.50915,"lon":-0.13627,"name":"Piccadilly Circus","stopLetter":"S","topMostParentId":"490000179S","towards":"Marble Arch, Knightsbridge Or Victoria","zone":"1"},{"icsId":"1010526","id":"490010526G","lat":51.50823,"lon":-0.1392,"name":"Old Bond Street / Royal Academy","parentId":"490G00010526","stationId":"490G00010526","stopLetter":"G","topMostParentId":"490G00010526","towards":"Marble Arch, Knightsbridge Or Victoria"},{"icsId":"1000093","id":"490000093PE","lat":51.50668,"lon":-0.14284,"name":"Green Park Station","stopLetter":"H","topMostParentId":"490000093PE","towards":"Marble Arch, Knightsbridge Or Victoria","zone":"1"},{"icsId":"1007492","id":"490007492E","lat":51.50399,"lon":-0.14779,"name":"Green Park / Constitution Hill","parentId":"490G00007492","stationId":"490G00007492","stopLetter":"E","topMostParentId":"490G00007492","towards":"Marble Arch, Knightsbridge Or Victoria"},{"icsId":"1009277","id":"490009277Y","lat":51.50509,"lon":-0.15211,"name":"London Hilton Hotel","parentId":"490G00009277","stationId":"490G00009277","stopLetter":"Y","topMostParentId":"490G00009277","towards":"Marble Arch"},{"icsId":"1006111","id":"490006111N2","lat":51.5083,"lon":-0.15479,"name":"Dorchester Hotel","parentId":"490G00006111","stationId":"490G00006111","stopLetter":"T","topMostParentId":"490G00006111","towards":"Baker Street, Edgware Road Or Oxford Circus"},{"icsId":"1000144","id":"490000144W","lat":51.51161,"lon":-0.15835,"name":"Marble Arch","stopLetter":"W","topMostParentId":"490000144W","towards":"Baker Street, Edgware Road Or Oxford Circus","zone":"1"},{"icsId":"1008450","id":"490000144E","lat":51.51387,"lon":-0.1613,"name":"Marble Arch / Edgware Road","parentId":"490G00008450","stationId":"490G00008450","stopLetter":"E","topMostParentId":"490G00008450","towards":"Maida Vale Or Paddington"},{"icsId":"1007169","id":"490007167N1","lat":51.51715,"lon":-0.16625,"name":"Burwood Place","parentId":"490G00007169","stationId":"490G00007169","stopLetter":"EK","topMostParentId":"490G00007169","towards":"Paddington"},{"icsId":"1015044","id":"490015044Z","lat":51.51712,"lon":-0.1691,"name":"Sussex Gardens","parentId":"490G00015044","stationId":"490G00015044","stopLetter":"ES","topMostParentId":"490G00015044","towards":"Ladbroke Grove, Kensington Or Royal Oak"},{"icsId":"1012797","id":"490012797N","lat":51.5167,"lon":-0.17246,"name":"St Mary's Hospital","parentId":"490G00012797","stationId":"490G00012797","stopLetter":"G","topMostParentId":"490G00012797","towards":"Ladbroke Grove, Kensington Or Royal Oak"},{"icsId":"1001221","id":"490001221F","lat":51.51549,"lon":-0.1757,"name":"Paddington Station","stopLetter":"F","topMostParentId":"490001221F","towards":"Ladbroke Grove, Kensington Or Royal Oak"},{"icsId":"1005166","id":"490006321D","lat":51.51695,"lon":-0.17903,"name":"Paddington Stn / Eastbourne Terrace","parentId":"490G000450","stationId":"490G000450","stopLetter":"D","topMostParentId":"HUBPAD","towards":"Ladbroke Grove, Kensington Or Royal Oak"},{"icsId":"1014406","id":"490014406W","lat":51.51768,"lon":-0.18114,"name":"Westbourne Terrace","parentId":"490G00014406","stationId":"490G00014406","stopLetter":"R","topMostParentId":"490G00014406","towards":"Ladbroke Grove, Kensington Or Queens Park"},{"icsId":"1007252","id":"490007252W","lat":51.51687,"lon":-0.18443,"name":"Gloucester Terrace","parentId":"490G00007252","stationId":"490G00007252","stopLetter":"RQ","topMostParentId":"490G00007252","towards":"Ladbroke Grove, Kensington Or Queens Park"},{"icsId":"1011365","id":"490011365G","lat":51.51566,"lon":-0.18916,"name":"Westbourne Grove / Queensway","parentId":"490G00011365","stationId":"490G00011365","stopLetter":"G","topMostParentId":"490G00011365","towards":"Ladbroke Grove"},{"icsId":"1019759","id":"490014402B","lat":51.51489,"lon":-0.19582,"name":"Chepstow Road","parentId":"490G00019759","stationId":"490G00019759","stopLetter":"PM","topMostParentId":"490G00019759","towards":"Ladbroke Grove"},{"icsId":"1019778","id":"490005513W","lat":51.51409,"lon":-0.20108,"name":"Colville Road","parentId":"490G00019778","stationId":"490G00019778","stopLetter":"PN","topMostParentId":"490G00019778","towards":"Ladbroke Grove"},{"icsId":"1003399","id":"490006476N","lat":51.51445,"lon":-0.20519,"name":"Portobello and Golborne Market","parentId":"490G00003399","stationId":"490G00003399","stopLetter":"PP","topMostParentId":"490G00003399","towards":"Kensal Rise Or Westbourne Park"},{"icsId":"1004099","id":"490004099N","lat":51.51475,"lon":-0.20823,"name":"Blenheim Crescent","parentId":"490G00004099","stationId":"490G00004099","stopLetter":"PR","topMostParentId":"490G00004099","towards":"Kensal Rise Or Westbourne Park"},{"icsId":"1000131","id":"490000131A","lat":51.51727,"lon":-0.21007,"name":"Ladbroke Grove Station","stopLetter":"A","topMostParentId":"490000131A","towards":"Westbourne Park, East Acton Or Kensal Rise","zone":"2"},{"icsId":"1005139","id":"490005139D","lat":51.51978,"lon":-0.21154,"name":"Chesterton Road","parentId":"490G00005139","stationId":"490G00005139","stopLetter":"D","topMostParentId":"490G00005139","towards":"East Acton,kensal Rise Or Westbourne Park"},{"icsId":"1008898","id":"490008898F","lat":51.52134,"lon":-0.21241,"name":"St Charles Square","parentId":"490G00008898","stationId":"490G00008898","stopLetter":"F","topMostParentId":"490G00008898","towards":"Kensal Rise, East Acton Or Maida Hill"},{"icsId":"1003619","id":"490003619M","lat":51.52343,"lon":-0.21364,"name":"Barlby Road","parentId":"490G00003619","stationId":"490G00003619","stopLetter":"M","topMostParentId":"490G00003619","towards":"East Acton, Kensal Rise Or Westbourne Park"},{"icsId":"1004737","id":"490004737R","lat":51.52554,"lon":-0.21487,"name":"Kensal House","parentId":"490G00004737","stationId":"490G00004737","stopLetter":"R","topMostParentId":"490G00004737","towards":"Kensal Rise Or Queens Park"},{"icsId":"1008897","id":"490008897T","lat":51.52569,"lon":-0.21552,"name":"Ladbroke Grove Sainsbury's","parentId":"490G00008897","stationId":"490G00008897","stopLetter":"T","topMostParentId":"490G00008897","towards":"Acton, Kilburn Or Willesden"},{"icsId":"1003183","id":"490003183E","lat":51.52626,"lon":-0.2111,"name":"Alderson Street","parentId":"490G00003183","stationId":"490G00003183","stopLetter":"J","topMostParentId":"490G00003183","towards":"Westbourne Park"},{"icsId":"1004171","id":"490004171E","lat":51.5259,"lon":-0.20817,"name":"Bosworth Road","parentId":"490G00004171","stationId":"490G00004171","stopLetter":"K","topMostParentId":"490G00004171","towards":"Westbourne Park"},{"icsId":"1013505","id":"490013505S","lat":51.52377,"lon":-0.20627,"name":"Golborne Road","parentId":"490G00013505","stationId":"490G00013505","stopLetter":"L","topMostParentId":"490G00013505","towards":"Westbourne Park"},{"icsId":"1006407","id":"490006407E","lat":51.52261,"lon":-0.20517,"name":"Edenham Way","parentId":"490G00006407","stationId":"490G00006407","stopLetter":"M","topMostParentId":"490G00006407","towards":"Westbourne Park"},{"icsId":"1014403","id":"490014403AP","lat":51.52224,"lon":-0.2017,"name":"Westbourne Park Bus Garage","parentId":"490G000823","stationId":"490G000823","stopLetter":"AP","topMostParentId":"490G000823"}]}]}