{"direction":"inbound","lineId":"231","lineName":"231","mode":"bus","stopPointSequences":[{"stopPoint":[{"icsId":"1013852","id":"490013852T","lat":51.5902,"lon":-0.10241,"name":"Turnpike Lane Bus Station","parentId":"490G000808","stationId":"490G000808","stopLetter":"T","topMostParentId":"490G000808","towards":"Bruce Grove Or Great Cambridge Road"},{"icsId":"1008909","id":"490008909E","lat":51.59382,"lon":-0.09769,"name":"Westbury Avenue Baptist Church","parentId":"490G00008909","stationId":"490G00008909","stopLetter":"->E","topMostParentId":"490G00008909","towards":"Edmonton Or Tottenham"},{"icsId":"1019107","id":"490004186N","lat":51.59761,"lon":-0.09492,"name":"Lordship Lane","parentId":"490G00019107","stationId":"490G00019107","stopLetter":"NE","topMostParentId":"490G00019107","towards":"Edmonton Or Tottenham"},{"icsId":"1007377","id":"490007377N","lat":51.59887,"lon":-0.09227,"name":"Granville Road","parentId":"490G00007377","stationId":"490G00007377","stopLetter":"RA","topMostParentId":"490G00007377","towards":"Edmonton"},{"icsId":"1007323","id":"490007323N","lat":51.60181,"lon":-0.09121,"name":"Gospatrick Road","parentId":"490G00007323","stationId":"490G00007323","stopLetter":"RB","topMostParentId":"490G00007323","towards":"Edmonton"},{"icsId":"1005666","id":"490005666E","lat":51.6028,"lon":-0.08873,"name":"Courtman Road","parentId":"490G00005666","stationId":"490G00005666","stopLetter":"RC","topMostParentId":"490G00005666","towards":"Edmonton"},{"icsId":"1014597","id":"490014597N","lat":51.60493,"lon":-0.08633,"name":"White Hart Lane","parentId":"490G00014597","stationId":"490G00014597","stopLetter":"RD","topMostParentId":"490G00014597","towards":"Edmonton Green Or Enfield"},{"icsId":"1006564","id":"490006564N","lat":51.60949,"lon":-0.08564,"name":"Empire Parade","parentId":"490G00006564","stationId":"490G00006564","stopLetter":"NA","topMostParentId":"490G00006564","towards":"Edmonton Green Or Enfield"},{"icsId":"1010864","id":"490010864N","lat":51.61238,"lon":-0.08678,"name":"Pasteur Gardens","parentId":"490G00010864","stationId":"490G00010864","stopLetter":"NB","topMostParentId":"490G00010864","towards":"Edmonton Green Or Enfield"},{"icsId":"1019163","id":"490004712N","lat":51.61537,"lon":-0.08691,"name":"Cambridge Roundabout / South Side","parentId":"490G00019163","stationId":"490G00019163","stopLetter":"NC","topMostParentId":"490G00019163","towards":"Edmonton Green Or Enfield"},{"icsId":"1015300","id":"490015300N","lat":51.61743,"lon":-0.08642,"name":"Cambridge Roundabout / North Side","parentId":"490G00015300","stationId":"490G00015300","stopLetter":"ND","topMostParentId":"490G00015300","towards":"Enfield Town Or Waltham Cross"},{"icsId":"1013348","id":"490013348N","lat":51.62255,"lon":-0.08241,"name":"The Fairway","parentId":"490G00013348","stationId":"490G00013348","stopLetter":"NE","topMostParentId":"490G00013348","towards":"Enfield Town Or Waltham Cross"},{"icsId":"1006010","id":"490006010N","lat":51.62548,"lon":-0.0811,"name":"Deansway","parentId":"490G00006010","stationId":"490G00006010","stopLetter":"EJ","topMostParentId":"490G00006010","towards":"Enfield Town Or Waltham Cross"},{"icsId":"1005305","id":"490005305N","lat":51.62909,"lon":-0.07904,"name":"Church Street","parentId":"490G00005305","stationId":"490G00005305","stopLetter":"EK","topMostParentId":"490G00005305","towards":"Enfield Town Or Waltham Cross"},{"icsId":"1004632","id":"490004632N","lat":51.6349,"lon":-0.06946,"name":"Bury Street","parentId":"490G00004632","stationId":"490G00004632","stopLetter":"E","topMostParentId":"490G00004632","towards":"Enfield Town Or Waltham Cross"},{"icsId":"1013798","id":"490013798N","lat":51.64064,"lon":-0.06261,"name":"Trinity Avenue / Bush Hill Park Stn","parentId":"490G000806","stationId":"490G000806","stopLetter":"B","topMostParentId":"490G000806","towards":"Enfield Town, Ponders End Or Waltham Cross"},{"icsId":"1009170","id":"490009170N","lat":51.64414,"lon":-0.0608,"name":"Lincoln Road","parentId":"490G00009170","stationId":"490G00009170","stopLetter":"F","topMostParentId":"490G00009170","towards":"Enfield Town Or Waltham Cross"},{"icsId":"1007396","id":"490007396W2","lat":51.64979,"lon":-0.06184,"name":"Great Cambridge Road","parentId":"490G00007396","stationId":"490G00007396","stopLetter":"J","topMostParentId":"490G00007396","towards":"Enfield Town"},{"icsId":"1003937","id":"490003937W","lat":51.65051,"lon":-0.06534,"name":"Percival Road","parentId":"490G00003937","stationId":"490G00003937","stopLetter":"K","topMostParentId":"490G00003937","towards":"Enfield Town"},{"icsId":"1004902","id":"490004902W","lat":51.65137,"lon":-0.06954,"name":"Cecil Avenue","parentId":"490G00004902","stationId":"490G00004902","stopLetter":"L","topMostParentId":"490G00004902","towards":"Chase Farm Hospital, Forty Hill Or Oakwood"},{"icsId":"1008903","id":"490008903W","lat":51.65219,"lon":-0.07495,"name":"Ladysmith Road","parentId":"490G00008903","stationId":"490G00008903","stopLetter":"->W","topMostParentId":"490G00008903","towards":"Chase Farm Hospital, Forty Hill Or Oakwood"},{"icsId":"1001101","id":"490001101M","lat":51.65233,"lon":-0.07862,"name":"Enfield Town Station","stopLetter":"M","topMostParentId":"490001101M","towards":"Forty Hill"},{"icsId":"1006586","id":"490006586S","lat":51.65055,"lon":-0.08276,"name":"Enfield Town / Cecil Road","parentId":"490G00006586","stationId":"490G00006586","stopLetter":"S","topMostParentId":"490G00006586","towards":"Enfield Chase"},{"icsId":"1001099","id":"490001099W2","lat":51.65353,"lon":-0.09021,"name":"Enfield Chase Station","stopLetter":"CB","topMostParentId":"490001099W2"}]}]}