{"direction":"inbound","lineId":"236","lineName":"236","mode":"bus","stopPointSequences":[{"stopPoint":[{"icsId":"1013813","id":"490013813E","lat":51.54733,"lon":-0.02893,"name":"Trowbridge Estate","parentId":"490G00013813","stationId":"490G00013813","stopLetter":"P","topMostParentId":"490G00013813","towards":"Homerton Hospital Or Stratford City"},{"icsId":"1005831","id":"490005831N","lat":51.54915,"lon":-0.02895,"name":"Crowfoot Close","parentId":"490G00005831","stationId":"490G00005831","stopLetter":"E","topMostParentId":"490G00005831","towards":"Homerton Hospital"},{"icsId":"1009061","id":"490009058N","lat":51.55029,"lon":-0.03041,"name":"Poplar Close","parentId":"490G00009061","stationId":"490G00009061","stopLetter":"F","topMostParentId":"490G00009061","towards":"Homerton Hospital"},{"icsId":"1008803","id":"490008803W","lat":51.55029,"lon":-0.03293,"name":"Kingsmead Estate","parentId":"490G00008803","stationId":"490G00008803","stopLetter":"N","topMostParentId":"490G00008803","towards":"Homerton Hospital"},{"icsId":"1009697","id":"490009697W","lat":51.54969,"lon":-0.0356,"name":"Marsh Hill","parentId":"490G00009697","stationId":"490G00009697","stopLetter":"P","topMostParentId":"490G00009697","towards":"Hackney Central Or Clapton Park"},{"icsId":"1007622","id":"490007622M","lat":51.54881,"lon":-0.03969,"name":"Glyn Road","parentId":"490G00007622","stationId":"490G00007622","stopLetter":"M","topMostParentId":"490G00007622","towards":"Hackney Central Or Clapton Pond"},{"icsId":"1005405","id":"490016757N","lat":51.54958,"lon":-0.04271,"name":"Brooksby's Walk / Homerton Station","parentId":"490G00005405","stationId":"490G00005405","stopLetter":"HB","topMostParentId":"490G00005405","towards":"Hackney Central, Clapton Pond Or Clapton Pk"},{"icsId":"1008327","id":"490008327F","lat":51.54992,"lon":-0.04376,"name":"Homerton Hospital","parentId":"490G00008327","stationId":"490G00008327","stopLetter":"F","topMostParentId":"490G00008327","towards":"Hackney Central Or Clapton Pond"},{"icsId":"1006082","id":"490006082A","lat":51.548,"lon":-0.04533,"name":"Banister House","parentId":"490G00006082","stationId":"490G00006082","stopLetter":"A","topMostParentId":"490G00006082","towards":"Clapton Pond Or Hackney Central"},{"icsId":"1010039","id":"490008329T","lat":51.54692,"lon":-0.04917,"name":"Ponsford Street","parentId":"490G00010039","stationId":"490G00010039","stopLetter":"T","topMostParentId":"490G00010039","towards":"Dalston, London Fields Or Stoke Newington"},{"icsId":"1007621","id":"490007618C","lat":51.54599,"lon":-0.05432,"name":"Trelawney Estate","parentId":"490G00007621","stationId":"490G00007621","stopLetter":"C","topMostParentId":"490G00007621","towards":"Dalston, London Fields Or Stoke Newington"},{"icsId":"1012462","id":"490012462Z","lat":51.54199,"lon":-0.05517,"name":"St Thomas's Square","parentId":"490G000758","stationId":"490G000758","stopLetter":"LU","topMostParentId":"490G000758","towards":"Dalston Or Mile End"},{"icsId":"1014377","id":"490014373LB","lat":51.53926,"lon":-0.05633,"name":"Well Street","parentId":"490G00014377","stationId":"490G00014377","stopLetter":"LB","topMostParentId":"490G00014377","towards":"Whitechapel Or Dalston"},{"icsId":"1004382","id":"490004382W","lat":51.53769,"lon":-0.06087,"name":"Broadway Market","parentId":"490G00004382","stationId":"490G00004382","stopLetter":"LM","topMostParentId":"490G00004382","towards":"Dalston Or Hackney Central"},{"icsId":"1013780","id":"490013780W","lat":51.53825,"lon":-0.06204,"name":"Trederwen Road","parentId":"490G00013780","stationId":"490G00013780","stopLetter":"->W","topMostParentId":"490G00013780","towards":"Dalston"},{"icsId":"1019196","id":"490009030W","lat":51.53652,"lon":-0.06575,"name":"Pownall Road / Laxfield Court","parentId":"490G00019196","stationId":"490G00019196","stopLetter":"->W","topMostParentId":"490G00019196","towards":"Dalston"},{"icsId":"1011511","id":"490011511W","lat":51.53628,"lon":-0.07,"name":"Regents Court","parentId":"490G00011511","stationId":"490G00011511","stopLetter":"QJ","topMostParentId":"490G00011511","towards":"Dalston"},{"icsId":"1019147","id":"490004512N","lat":51.53793,"lon":-0.07045,"name":"Queensbridge Road / Brownlow Road","parentId":"490G00019147","stationId":"490G00019147","stopLetter":"QK","topMostParentId":"490G00019147","towards":"Newington Green"},{"icsId":"1003165","id":"490003165N","lat":51.53977,"lon":-0.0703,"name":"Middleton Road","parentId":"490G00003165","stationId":"490G00003165","stopLetter":"QL","topMostParentId":"490G00003165","towards":"Newington Green"},{"icsId":"1011562","id":"490011562N","lat":51.54238,"lon":-0.07007,"name":"Richmond Road","parentId":"490G00011562","stationId":"490G00011562","stopLetter":"J","topMostParentId":"490G00011562","towards":"Newington Green"},{"icsId":"1008999","id":"490008999N","lat":51.54513,"lon":-0.06994,"name":"Dalston Lane","parentId":"490G00008999","stationId":"490G00008999","stopLetter":"K","topMostParentId":"490G00008999","towards":"Newington Green"},{"icsId":"1005944","id":"490005944N","lat":51.54685,"lon":-0.06942,"name":"Graham Road","parentId":"490G00005944","stationId":"490G00005944","stopLetter":"M","topMostParentId":"490G00005944","towards":"Newington Green, Hackney Wick Or Clapton"},{"icsId":"1011581","id":"490011581N","lat":51.54833,"lon":-0.07101,"name":"Ridley Road Market","parentId":"490G00011581","stationId":"490G00011581","stopLetter":"N","topMostParentId":"490G00011581","towards":"Newington Green"},{"icsId":"1012022","id":"490012019W","lat":51.55069,"lon":-0.07434,"name":"Shacklewell Lane / Kingsland High Street","parentId":"490G00012022","stationId":"490G00012022","stopLetter":"W","topMostParentId":"490G00012022","towards":"Newington Green Or Dalston Junction"},{"icsId":"1019794","id":"490008788Z","lat":51.5502,"lon":-0.07605,"name":"Crossway","parentId":"490G00019794","stationId":"490G00019794","stopLetter":"Z","topMostParentId":"490G00019794","towards":"Finsbury Park"},{"icsId":"1004131","id":"490004131N","lat":51.54987,"lon":-0.07821,"name":"Boleyn Road","parentId":"490G00004131","stationId":"490G00004131","stopLetter":"->N","topMostParentId":"490G00004131","towards":"Finsbury Park"},{"icsId":"1009718","id":"490009718W","lat":51.55195,"lon":-0.08117,"name":"Matthias Road","parentId":"490G00009718","stationId":"490G00009718","stopLetter":"ND","topMostParentId":"490G00009718","towards":"Finsbury Park"},{"icsId":"1015396","id":"490015396S","lat":51.55164,"lon":-0.08453,"name":"Newington Green","parentId":"490G000893","stationId":"490G000893","stopLetter":"NE","topMostParentId":"490G000893","towards":"Angel Islington, Finsbury Park Or Hoxton"},{"icsId":"1003915","id":"490003915W","lat":51.54987,"lon":-0.08803,"name":"Beresford Road","parentId":"490G00003915","stationId":"490G00003915","stopLetter":"CN","topMostParentId":"490G00003915","towards":"Finsbury Park"},{"icsId":"1001048","id":"490007537W","lat":51.54909,"lon":-0.09288,"name":"Canonbury Station","parentId":"910GCNNB","stationId":"910GCNNB","stopLetter":"CP","topMostParentId":"910GCNNB","towards":"Finsbury Park"},{"icsId":"1008145","id":"490008145W","lat":51.54806,"lon":-0.09779,"name":"Highbury New Pk / Highbury Grove School","parentId":"490G00008145","stationId":"490G00008145","stopLetter":"CR","topMostParentId":"490G00008145","towards":"Finsbury Park Or Highbury Corner"},{"icsId":"1019898","id":"490015544N","lat":51.54886,"lon":-0.09814,"name":"Highbury Grove School / Baalbec Road","parentId":"490G00019898","stationId":"490G00019898","stopLetter":"CW","topMostParentId":"490G00019898","towards":"Finsbury Park"},{"icsId":"1003053","id":"490003053N","lat":51.55056,"lon":-0.09823,"name":"Aberdeen Park","parentId":"490G00003053","stationId":"490G00003053","stopLetter":"CX","topMostParentId":"490G00003053","towards":"Finsbury Park"},{"icsId":"1000333","id":"490008616N","lat":51.55417,"lon":-0.09824,"name":"Highbury Barn","stopLetter":"EH","topMostParentId":"490008616N","towards":"Finsbury Park"},{"icsId":"1015699","id":"490015699N","lat":51.55644,"lon":-0.09814,"name":"St Joan of Arc School","parentId":"490G00015699","stationId":"490G00015699","stopLetter":"EJ","topMostParentId":"490G00015699","towards":"Finsbury Park"},{"icsId":"1011601","id":"490011601Z","lat":51.55794,"lon":-0.0986,"name":"Riversdale Road","parentId":"490G00011601","stationId":"490G00011601","stopLetter":"EK","topMostParentId":"490G00011601","towards":"Finsbury Park"},{"icsId":"1009986","id":"490009986V","lat":51.56177,"lon":-0.1,"name":"Monsell Road","parentId":"490G00009986","stationId":"490G00009986","stopLetter":"EL","topMostParentId":"490G00009986","towards":"Finsbury Park"},{"icsId":"1011623","id":"490011623P","lat":51.56389,"lon":-0.10459,"name":"Rock Street","parentId":"490G00011623","stationId":"490G00011623","stopLetter":"P","topMostParentId":"490G00011623","towards":"Holloway Nags Head"},{"icsId":"1006849","id":"490000083AP","lat":51.56425,"lon":-0.10571,"name":"Finsbury Park Interchange","parentId":"490G000516","stationId":"490G000516","stopLetter":"AP","topMostParentId":"HUBFPK"}]}]}