{"direction":"inbound","lineId":"24","lineName":"24","mode":"bus","stopPointSequences":[{"stopPoint":[{"icsId":"1012280","id":"490012280A","lat":51.5547,"lon":-0.16496,"name":"South End Green","parentId":"490G000751","stationId":"490G000751","stopLetter":"A","topMostParentId":"490G000751","towards":"Camden Town"},{"icsId":"1005756","id":"490005756E","lat":51.55456,"lon":-0.1615,"name":"Cressy Road","parentId":"490G00005756","stationId":"490G00005756","stopLetter":"M","topMostParentId":"490G00005756","towards":"Camden Town Or Gospel Oak"},{"icsId":"1009204","id":"490009204E","lat":51.55356,"lon":-0.15872,"name":"Mansfield Road","parentId":"490G00009204","stationId":"490G00009204","stopLetter":"GA","topMostParentId":"490G00009204","towards":"Archway Or Camden Town"},{"icsId":"1012651","id":"490012651S","lat":51.55169,"lon":-0.15719,"name":"St Dominic's Priory","parentId":"490G00012651","stationId":"490G00012651","stopLetter":"GS","topMostParentId":"490G00012651","towards":"Camden Town"},{"icsId":"1011344","id":"490011330S","lat":51.55032,"lon":-0.15397,"name":"Grafton Terrace","parentId":"490G00011344","stationId":"490G00011344","stopLetter":"KU","topMostParentId":"490G00011344","towards":"Camden Town"},{"icsId":"1011330","id":"490011330S2","lat":51.54883,"lon":-0.15264,"name":"Queen's Crescent","parentId":"490G00011330","stationId":"490G00011330","stopLetter":"KV","topMostParentId":"490G00011330","towards":"Camden Or Kentish Town"},{"icsId":"1011200","id":"490012765S","lat":51.54642,"lon":-0.15099,"name":"Prince of Wales Road","parentId":"490G00011200","stationId":"490G00011200","stopLetter":"KW","topMostParentId":"490G00011200","towards":"Camden Town"},{"icsId":"1006798","id":"490006798CL","lat":51.54395,"lon":-0.14908,"name":"Ferdinand Street","parentId":"490G00006798","stationId":"490G00006798","stopLetter":"CL","topMostParentId":"490G00006798","towards":"Warren Street"},{"icsId":"1007927","id":"490007927M","lat":51.54288,"lon":-0.14355,"name":"Hawley Road","parentId":"490G00007927","stationId":"490G00007927","stopLetter":"M","topMostParentId":"490G00007927","towards":"Mornington Crescent"},{"icsId":"1004713","id":"490004713D","lat":51.54197,"lon":-0.14103,"name":"Camden Gardens","parentId":"490G00004713","stationId":"490G00004713","stopLetter":"D","topMostParentId":"490G00004713","towards":"Kings Cross, Warren Street Or Oxford Circus"},{"icsId":"1000036","id":"490000036S","lat":51.5398,"lon":-0.14135,"name":"Camden Town Station","stopLetter":"S","topMostParentId":"490000036S","towards":"Great Portland St Or Tottenham Court Road","zone":"2"},{"icsId":"1011168","id":"490011168S2","lat":51.53716,"lon":-0.13952,"name":"Pratt Street","parentId":"490G00011168","stationId":"490G00011168","stopLetter":"V","topMostParentId":"490G00011168","towards":"Warren Street Station"},{"icsId":"1000152","id":"490000152C","lat":51.53344,"lon":-0.13862,"name":"Mornington Crescent Station","stopLetter":"C","topMostParentId":"490000152C","towards":"Warren Street Station","zone":"2"},{"icsId":"1012158","id":"490012158S","lat":51.53074,"lon":-0.1386,"name":"Silverdale","parentId":"490G00012158","stationId":"490G00012158","stopLetter":"W","topMostParentId":"490G00012158","towards":"Great Portland Street Or Tottenham Court Road"},{"icsId":"1002319","id":"490010158S","lat":51.52707,"lon":-0.13852,"name":"William Road","parentId":"490G00002319","stationId":"490G00002319","stopLetter":"K","topMostParentId":"490G00002319","towards":"Great Portland Street Or Tottenham Court Road"},{"icsId":"1015047","id":"490015042U","lat":51.52581,"lon":-0.13847,"name":"Warren Street Station  / Euston Road","parentId":"490G00015047","stationId":"490G00015047","stopLetter":"U","topMostParentId":"490G00015047","towards":"Baker Street Or Tottenham Court Road"},{"icsId":"1002121","id":"490002121ZT","lat":51.52257,"lon":-0.13608,"name":"Capper Street","parentId":"490G000343","stationId":"490G000343","stopLetter":"N","topMostParentId":"490G000343","towards":"Leicester Square Or Oxford Circus"},{"icsId":"1000089","id":"490005084Z","lat":51.52059,"lon":-0.13423,"name":"Goodge Street Station","stopLetter":"D","topMostParentId":"490005084Z","towards":"Leicester Square Or Oxford Circus","zone":"1"},{"icsId":"1002124","id":"490002124ZZ","lat":51.51807,"lon":-0.13158,"name":"Stephen Street","parentId":"490G000346","stationId":"490G000346","stopLetter":"B","topMostParentId":"490G000346","towards":"Leicester Square Or Oxford Circus"},{"icsId":"1004695","id":"490004695D","lat":51.51341,"lon":-0.12921,"name":"Cambridge Circus","parentId":"490G00004695","stationId":"490G00004695","stopLetter":"D","topMostParentId":"490G00004695","towards":"Piccadilly Circus, Parliament Sq. Or Waterloo"},{"icsId":"1000135","id":"490000135B","lat":51.51159,"lon":-0.12833,"name":"Leicester Square Station","stopLetter":"J","topMostParentId":"490000135B","towards":"Waterloo Or Westminster","zone":"1"},{"icsId":"1016161","id":"490016161S","lat":51.50985,"lon":-0.12787,"name":"St Martin's Place","parentId":"490G00016161","stationId":"490G00016161","stopLetter":"K","topMostParentId":"490G00016161","towards":"Waterloo Or Westminster"},{"icsId":"1013767","id":"490013767D","lat":51.50819,"lon":-0.12706,"name":"Trafalgar Square / Charing Cross Stn","parentId":"490G000804","stationId":"490G000804","stopLetter":"D","topMostParentId":"490G000804","towards":"Westminster"},{"icsId":"1014585","id":"490014585N","lat":51.50627,"lon":-0.12699,"name":"Whitehall / Trafalgar Square","parentId":"490G000832","stationId":"490G000832","stopLetter":"N","topMostParentId":"490G000832","towards":"Victoria Or Vauxhall"},{"icsId":"1008376","id":"490008376S","lat":51.50432,"lon":-0.12609,"name":"Horse Guards Parade","parentId":"490G00008376","stationId":"490G00008376","stopLetter":"->S","topMostParentId":"490G00008376","towards":"Elephant & Castle, Vauxhall Or Victoria"},{"icsId":"1020361","id":"490015048T","lat":51.50248,"lon":-0.126,"name":"Westminster Stn  / Parliament Square","parentId":"490G00020361","stationId":"490G00020361","stopLetter":"F","topMostParentId":"HUBWSM","towards":"Kennington, Vauxhall Or Victoria"},{"icsId":"1019865","id":"490014495V","lat":51.49869,"lon":-0.13144,"name":"Great Smith Street / Westminster Abbey","parentId":"490G00019865","stationId":"490G00019865","stopLetter":"V","topMostParentId":"490G00019865","towards":"Victoria"},{"icsId":"1000221","id":"490010260SD","lat":51.49758,"lon":-0.1348,"name":"St James's Park Station","stopLetter":"SD","topMostParentId":"490010260SD","towards":"Pimlico, Sloane Square Or Marble Arch","zone":"1"},{"icsId":"1003384","id":"490003384SB","lat":51.49715,"lon":-0.13745,"name":"Westminster City Hall","parentId":"490G000394","stationId":"490G000394","stopLetter":"SB","topMostParentId":"490G000394","towards":"Marble Arch, Pimlico Or Sloane Square"},{"icsId":"1014502","id":"490014496M","lat":51.4966,"lon":-0.1411,"name":"Westminster Cathedral / Victoria Stn","parentId":"490G000830","stationId":"490G000830","stopLetter":"M","topMostParentId":"490G000830","towards":"Marble Arch, Pimlico Or Sloane Square"},{"icsId":"1000248","id":"490000248S","lat":51.496,"lon":-0.14227,"name":"Victoria Station","stopLetter":"Z5","topMostParentId":"490000248S","towards":"Pimlico","zone":"1"},{"icsId":"1014259","id":"490014259S","lat":51.49282,"lon":-0.14054,"name":"Warwick Way","parentId":"490G00014259","stationId":"490G00014259","stopLetter":"P","topMostParentId":"490G00014259","towards":"Pimlico"},{"icsId":"1003837","id":"490003837S","lat":51.49076,"lon":-0.13884,"name":"Belgrave Road","parentId":"490G00003837","stationId":"490G00003837","stopLetter":"R","topMostParentId":"490G00003837","towards":"Grosvenor Road"},{"icsId":"1012708","id":"490012708G","lat":51.489,"lon":-0.13516,"name":"St George's Square / Pimlico Station","parentId":"490G00012708","stationId":"490G00012708","stopLetter":"G","topMostParentId":"490G00012708","towards":"Grosvenor Road"},{"icsId":"1011004","id":"490011004W","lat":51.48829,"lon":-0.13725,"name":"Pimlico Academy & Library","parentId":"490G00011004","stationId":"490G00011004","stopLetter":"L","topMostParentId":"490G00011004","towards":"Sloane Square, Victoria Or Grosvenor Road"},{"icsId":"1003179","id":"490003179S","lat":51.48792,"lon":-0.13961,"name":"Alderney Street","parentId":"490G00003179","stationId":"490G00003179","stopLetter":"M","topMostParentId":"490G00003179","towards":"Sloane Square Or Victoria"},{"icsId":"1016309","id":"490014504W","lat":51.48758,"lon":-0.14218,"name":"Winchester Street","parentId":"490G00016309","stationId":"490G00016309","stopLetter":"N","topMostParentId":"490G00016309","towards":"Sloane Square Or Victoria"},{"icsId":"1014504","id":"490014504S","lat":51.48672,"lon":-0.14522,"name":"Westmoreland Terrace","parentId":"490G00014504","stationId":"490G00014504","stopLetter":"CL","topMostParentId":"490G00014504","towards":"Sloane Square"},{"icsId":"1015832","id":"490015832E","lat":51.48552,"lon":-0.14347,"name":"Grosvenor Road","parentId":"490G00015832","stationId":"490G00015832","stopLetter":"CM","topMostParentId":"490G00015832","towards":"Trafalgar Square"}]}]}