{"direction":"inbound","lineId":"244","lineName":"244","mode":"bus","stopPointSequences":[{"stopPoint":[{"icsId":"1003039","id":"490003039G","lat":51.48936,"lon":0.12143,"name":"Abbey Wood Road","parentId":"490G000378","stationId":"490G000378","stopLetter":"G","topMostParentId":"490G000378","towards":"Plumstead Or Thamesmead"},{"icsId":"1001001","id":"490001001Y","lat":51.49163,"lon":0.12143,"name":"Abbey Wood Station","stopLetter":"C","topMostParentId":"490001001Y","towards":"Plumstead Or Thamesmead"},{"icsId":"1019881","id":"490013257A","lat":51.49449,"lon":0.12108,"name":"Harrow Manorway / Lensbury Way","parentId":"490G00019881","stationId":"490G00019881","stopLetter":"A","topMostParentId":"490G00019881","towards":"Plumstead Or Thamesmead"},{"icsId":"1010190","id":"490010190N","lat":51.49783,"lon":0.12103,"name":"Southmere Lake","parentId":"490G00010190","stationId":"490G00010190","stopLetter":"->N","topMostParentId":"490G00010190","towards":"Thamesmead Town Centre"},{"icsId":"1004130","id":"490004130N","lat":51.50343,"lon":0.11899,"name":"Thamesmead / Carlyle Road","parentId":"490G00004130","stationId":"490G00004130","stopLetter":"SK","topMostParentId":"490G00004130","towards":"Thamesmead Town Centre"},{"icsId":"1013459","id":"490013459W","lat":51.50291,"lon":0.11664,"name":"Titmuss Avenue","parentId":"490G00013459","stationId":"490G00013459","stopLetter":"SF","topMostParentId":"490G00013459","towards":"Woolwich"},{"icsId":"1012364","id":"490012364N","lat":51.50213,"lon":0.11272,"name":"Southwood Road","parentId":"490G00012364","stationId":"490G00012364","stopLetter":"SG","topMostParentId":"490G00012364","towards":"Thamesmead Town Centre Or Woolwich"},{"icsId":"1007923","id":"490007923N","lat":51.50414,"lon":0.11125,"name":"Hawksmoor School","parentId":"490G00007923","stationId":"490G00007923","stopLetter":"SH","topMostParentId":"490G00007923","towards":"Woolwich"},{"icsId":"1007092","id":"490007092F","lat":51.50611,"lon":0.11003,"name":"Gallions Reach Health Centre","parentId":"490G00007092","stationId":"490G00007092","stopLetter":"F","topMostParentId":"490G00007092","towards":"Woolwich"},{"icsId":"1013214","id":"490013214A","lat":51.50743,"lon":0.10897,"name":"Thamesmead Town Centre","parentId":"490G00013214","stationId":"490G00013214","stopLetter":"A","topMostParentId":"490G00013214","towards":"Abbey Wood, Belvedere Or Woolwich"},{"icsId":"1014285","id":"490014285S","lat":51.50504,"lon":0.10507,"name":"Watersmeet Place","parentId":"490G00014285","stationId":"490G00014285","stopLetter":"->S","topMostParentId":"490G00014285","towards":"Woolwich"},{"icsId":"1007382","id":"490007382S","lat":51.50136,"lon":0.10285,"name":"Grasshaven Way","parentId":"490G00007382","stationId":"490G00007382","stopLetter":"X","topMostParentId":"490G00007382","towards":"Woolwich"},{"icsId":"1003857","id":"490003857W","lat":51.4973,"lon":0.08987,"name":"Belmarsh Prison","parentId":"490G00003857","stationId":"490G00003857","stopLetter":"G","topMostParentId":"490G00003857","towards":"Woolwich Or Thamesmead Town Centre"},{"icsId":"1003692","id":"490003692N","lat":51.4982,"lon":0.0887,"name":"Goldfinch Road","parentId":"490G00003692","stationId":"490G00003692","stopLetter":"H","topMostParentId":"490G00003692","towards":"Woolwich"},{"icsId":"1009807","id":"490009807N","lat":51.49941,"lon":0.08837,"name":"Merbury Road","parentId":"490G00009807","stationId":"490G00009807","stopLetter":"J","topMostParentId":"490G00009807","towards":"Woolwich"},{"icsId":"1004119","id":"490004119W","lat":51.50028,"lon":0.08688,"name":"Bluebird Way","parentId":"490G00004119","stationId":"490G00004119","stopLetter":"G","topMostParentId":"490G00004119","towards":"Woolwich"},{"icsId":"1011572","id":"490011572S","lat":51.49941,"lon":0.08433,"name":"Ridge Close","parentId":"490G00011572","stationId":"490G00011572","stopLetter":"->S","topMostParentId":"490G00011572","towards":"Woolwich"},{"icsId":"1007091","id":"490007091S","lat":51.49793,"lon":0.08487,"name":"Gallions Park","parentId":"490G00007091","stationId":"490G00007091","stopLetter":"->S","topMostParentId":"490G00007091","towards":"Woolwich"},{"icsId":"1014663","id":"490014663S","lat":51.4954,"lon":0.08408,"name":"Wigeon Path","parentId":"490G00014663","stationId":"490G00014663","stopLetter":"->S","topMostParentId":"490G00014663","towards":"Woolwich"},{"icsId":"1008098","id":"490008098S","lat":51.49364,"lon":0.08288,"name":"Heronsgate Primary School","parentId":"490G00008098","stationId":"490G00008098","topMostParentId":"490G00008098","towards":"Woolwich"},{"icsId":"1004816","id":"490004816S","lat":51.49374,"lon":0.08075,"name":"Carronade Place","parentId":"490G00004816","stationId":"490G00004816","stopLetter":"->S","topMostParentId":"490G00004816","towards":"Woolwich"},{"icsId":"1013703","id":"490013703S","lat":51.49257,"lon":0.08031,"name":"Tom Cribb Road","parentId":"490G00013703","stationId":"490G00013703","stopLetter":"WT","topMostParentId":"490G00013703","towards":"Woolwich"},{"icsId":"1019871","id":"490001227F","lat":51.49033,"lon":0.08381,"name":"Plumstead Road / Plumstead Station","parentId":"490G000959","stationId":"490G000959","stopLetter":"WL","topMostParentId":"490G000959","towards":"Woolwich"},{"icsId":"1014924","id":"490014924D","lat":51.4909,"lon":0.08027,"name":"Greenwich Community College","parentId":"490G00014924","stationId":"490G00014924","stopLetter":"WP","topMostParentId":"490G00014924","towards":"Queen Elizabeth Hosp, Charlton Or Shooters Hill"},{"icsId":"1009723","id":"490009723W","lat":51.49087,"lon":0.07687,"name":"Maxey Road","parentId":"490G00009723","stationId":"490G00009723","stopLetter":"->W","topMostParentId":"490G00009723","towards":"Queen Elizabeth Hosp, Charlton Or Shooters Hill"},{"icsId":"1002162","id":"490014934W","lat":51.49119,"lon":0.07072,"name":"Woolwich","parentId":"910GWOLWXR","stationId":"910GWOLWXR","stopLetter":"Z","topMostParentId":"910GWOLWXR","towards":"Blackheath Or Queen Elizabeth Hospital"},{"icsId":"1001344","id":"490001344J","lat":51.48965,"lon":0.06812,"name":"Woolwich Arsenal Station","stopLetter":"J","topMostParentId":"490001344J","towards":"Queen Elizabeth Hospital Or Shooters Hill"},{"icsId":"1005370","id":"490005370S","lat":51.48613,"lon":0.06487,"name":"Claydown Mews","parentId":"490G00005370","stationId":"490G00005370","stopLetter":"E","topMostParentId":"490G00005370","towards":"Shooters Hill Or Queen Elizabeth Hospital"},{"icsId":"1007601","id":"490007601S","lat":51.4843,"lon":0.06273,"name":"Gunner Lane","parentId":"490G00007601","stationId":"490G00007601","stopLetter":"F","topMostParentId":"490G00007601","towards":"Queen Elizabeth Hospital Or Shooters Hill"},{"icsId":"1014926","id":"490014926E","lat":51.48254,"lon":0.063,"name":"Woolwich Common","parentId":"490G00014926","stationId":"490G00014926","stopLetter":"S","topMostParentId":"490G00014926","towards":"Shooters Hill"},{"icsId":"1010281","id":"490010281E","lat":51.48229,"lon":0.06536,"name":"Nightingale Vale","parentId":"490G00010281","stationId":"490G00010281","stopLetter":"T","topMostParentId":"490G00010281","towards":"Shooters Hill"},{"icsId":"1018995","id":"490008079E","lat":51.48233,"lon":0.06793,"name":"Elmdene Road","parentId":"490G00018995","stationId":"490G00018995","stopLetter":"WN","topMostParentId":"490G00018995","towards":"Shooters Hill"},{"icsId":"1011074","id":"490011074S","lat":51.48179,"lon":0.06991,"name":"Herbert Road / Plumstead Common Road","parentId":"490G00011074","stationId":"490G00011074","stopLetter":"WE","topMostParentId":"490G00011074","towards":"Queen Elizabeth Hospital Or Shooters Hill"},{"icsId":"1013452","id":"490013452W","lat":51.4793,"lon":0.06896,"name":"Eglinton Road","parentId":"490G00013452","stationId":"490G00013452","stopLetter":"WF","topMostParentId":"490G00013452","towards":"Queen Elizabeth Hospital"},{"icsId":"1004767","id":"490004767S","lat":51.47779,"lon":0.06857,"name":"Cantwell Road","parentId":"490G00004767","stationId":"490G00004767","stopLetter":"->S","topMostParentId":"490G00004767","towards":"Kidbrooke"},{"icsId":"1004299","id":"490004299S","lat":51.4757,"lon":0.06805,"name":"Brent Road","parentId":"490G00004299","stationId":"490G00004299","stopLetter":"->S","topMostParentId":"490G00004299","towards":"Kidbrooke"},{"icsId":"1012107","id":"490012107S","lat":51.47369,"lon":0.06964,"name":"Eaglesfield Road","parentId":"490G00012107","stationId":"490G00012107","stopLetter":"->S","topMostParentId":"490G00012107","towards":"Queen Elizabeth Hospital"},{"icsId":"1006969","id":"490006969S","lat":51.47148,"lon":0.06858,"name":"Shrewsbury Lane / Foxcroft Road","parentId":"490G00006969","stationId":"490G00006969","stopLetter":"WM","topMostParentId":"490G00006969","towards":"Queen Elizabeth Hospital"},{"icsId":"1009803","id":"490009803S","lat":51.46954,"lon":0.0666,"name":"Shooters Hill / the Bull","parentId":"490G00009803","stationId":"490G00009803","stopLetter":"WN","topMostParentId":"490G00009803","towards":"Kidbrooke"},{"icsId":"1009805","id":"490009803W","lat":51.46943,"lon":0.06464,"name":"Memorial Hospital","parentId":"490G00009805","stationId":"490G00009805","stopLetter":"SM","topMostParentId":"490G00009805","towards":"Blackheath Or Queen Elizabeth Hospital"},{"icsId":"1011486","id":"490011486W","lat":51.47036,"lon":0.05935,"name":"Red Lion Lane","parentId":"490G00011486","stationId":"490G00011486","stopLetter":"SN","topMostParentId":"490G00011486","towards":"Blackheath Or Queen Elizabeth Hospital"},{"icsId":"1012108","id":"490012108W","lat":51.47127,"lon":0.05378,"name":"Shooters Hill Road / Well Hall Road","parentId":"490G00012108","stationId":"490G00012108","stopLetter":"SP","topMostParentId":"490G00012108","towards":"Blackheath Or Queen Elizabeth Hospital"},{"icsId":"1007509","id":"490007509N","lat":51.47476,"lon":0.04807,"name":"Greenwich Heights","parentId":"490G00007509","stationId":"490G00007509","stopLetter":"H5","topMostParentId":"490G00007509","towards":"Charlton Or Woolwich"},{"icsId":"1011307","id":"490011307H3","lat":51.47691,"lon":0.05068,"name":"Queen Elizabeth Hospital / West Entrance","parentId":"490G00011307","stationId":"490G00011307","stopLetter":"H3","topMostParentId":"490G00011307","towards":"Charlton Or Woolwich"}]}]}