{"direction":"inbound","lineId":"245","lineName":"245","mode":"bus","stopPointSequences":[{"stopPoint":[{"icsId":"1000087","id":"490000087GB","lat":51.57198,"lon":-0.19392,"name":"Golders Green Station","stopLetter":"GB","topMostParentId":"490000087GB","zone":"3"},{"icsId":"1007267","id":"490007267GL","lat":51.57096,"lon":-0.1952,"name":"Golders Green / Finchley Road","parentId":"490G00007267","stationId":"490G00007267","stopLetter":"GL","topMostParentId":"490G00007267","towards":"Cricklewood, Swiss Cottage Or West Hampstead"},{"icsId":"1006262","id":"490006262S","lat":51.56799,"lon":-0.19481,"name":"Dunstan Road","parentId":"490G00006262","stationId":"490G00006262","stopLetter":"A","topMostParentId":"490G00006262","towards":"Cricklewood, Swiss Cottage Or West Hampstead"},{"icsId":"1009232","id":"490009232S","lat":51.56531,"lon":-0.19619,"name":"Llanvanor Road","parentId":"490G00009232","stationId":"490G00009232","stopLetter":"B","topMostParentId":"490G00009232","towards":"Cricklewood, Swiss Cottage Or West Hampstead"},{"icsId":"1005160","id":"490005160S1","lat":51.56384,"lon":-0.19681,"name":"Childs Hill / Cricklewood Lane","parentId":"490G00005160","stationId":"490G00005160","stopLetter":"C","topMostParentId":"490G00005160","towards":"Cricklewood"},{"icsId":"1005161","id":"490005161W1","lat":51.56298,"lon":-0.19886,"name":"Childs Hill / Finchley Road","parentId":"490G00005161","stationId":"490G00005161","stopLetter":"H","topMostParentId":"490G00005161","towards":"Cricklewood"},{"icsId":"1009463","id":"490009463W","lat":51.56192,"lon":-0.2021,"name":"Lyndale Avenue","parentId":"490G00009463","stationId":"490G00009463","stopLetter":"J","topMostParentId":"490G00009463","towards":"Cricklewood"},{"icsId":"1008064","id":"490008058W","lat":51.56085,"lon":-0.20518,"name":"Farm Avenue","parentId":"490G00008064","stationId":"490G00008064","stopLetter":"->W","topMostParentId":"490G00008064","towards":"Neasden Or Willesden"},{"icsId":"1005775","id":"490005775W","lat":51.5604,"lon":-0.20833,"name":"Dersingham Road","parentId":"490G00005775","stationId":"490G00005775","stopLetter":"CN","topMostParentId":"490G00005775","towards":"Neasden Or Willesden"},{"icsId":"1005346","id":"490005346Z","lat":51.55904,"lon":-0.21082,"name":"Claremont Road","parentId":"490G000465","stationId":"490G000465","stopLetter":"CN","topMostParentId":"490G000465","towards":"Neasden Or Willesden"},{"icsId":"1005773","id":"490005773D","lat":51.55708,"lon":-0.21478,"name":"Cricklewood Broadway","parentId":"490G000473","stationId":"490G000473","stopLetter":"CW","topMostParentId":"490G000473","towards":"Kilburn, Neasden Or Willesden"},{"icsId":"1005776","id":"490005776A","lat":51.55739,"lon":-0.21634,"name":"Cricklewood Lane","parentId":"490G000474","stationId":"490G000474","stopLetter":"BP","topMostParentId":"490G000474","towards":"Brent Cross, Neasden Or West Hendon"},{"icsId":"1010015","id":"490010015N","lat":51.55936,"lon":-0.21864,"name":"Mora Road","parentId":"490G00010015","stationId":"490G00010015","stopLetter":"BQ","topMostParentId":"490G00010015","towards":"Brent Cross, Neasden Or West Hendon"},{"icsId":"1015045","id":"490015045BS","lat":51.56153,"lon":-0.22064,"name":"Longley Way","parentId":"490G00015045","stationId":"490G00015045","stopLetter":"BR","topMostParentId":"490G00015045","towards":"Brent Cross, Neasden Or West Hendon"},{"icsId":"1015033","id":"490005772N","lat":51.56298,"lon":-0.22221,"name":"Cricklewood Bus Garage","parentId":"490G00015033","stationId":"490G00015033","stopLetter":"BS","topMostParentId":"490G00015033","towards":"Brent Cross, Neasden Or West Hendon"},{"icsId":"1010665","id":"490010665W","lat":51.56432,"lon":-0.22441,"name":"Conway Road","parentId":"490G00010665","stationId":"490G00010665","stopLetter":"DL","topMostParentId":"490G00010665","towards":"Neasden"},{"icsId":"1010690","id":"490010690N","lat":51.56301,"lon":-0.23024,"name":"Oxgate Gardens","parentId":"490G00010690","stationId":"490G00010690","stopLetter":"DB","topMostParentId":"490G00010690","towards":"Brent Park Or Sudbury"},{"icsId":"1015034","id":"490015034N","lat":51.56511,"lon":-0.23162,"name":"Humber Road","parentId":"490G00015034","stationId":"490G00015034","stopLetter":"DC","topMostParentId":"490G00015034","towards":"Brent Park Or Sudbury"},{"icsId":"1003271","id":"49003271DD","lat":51.56622,"lon":-0.23407,"name":"Alder Grove","parentId":"490G00003271","stationId":"490G00003271","stopLetter":"DD","topMostParentId":"490G00003271","towards":"Brent Park, Sudbury Or Wembley"},{"icsId":"1004470","id":"490004470E2","lat":51.5645,"lon":-0.24017,"name":"Brook Road","parentId":"490G00004470","stationId":"490G00004470","stopLetter":"->W","topMostParentId":"490G00004470","towards":"Brent Park, Sudbury Or Wembley"},{"icsId":"1011414","id":"490011414S1","lat":51.56298,"lon":-0.24541,"name":"Randall Avenue","parentId":"490G00011414","stationId":"490G00011414","stopLetter":"->S","topMostParentId":"490G00011414","towards":"Brent Park, Sudbury Or Wembley"},{"icsId":"1005412","id":"490005412HH","lat":51.5588,"lon":-0.24863,"name":"Dudden Hill Lane","parentId":"490G00005412","stationId":"490G00005412","stopLetter":"HH","topMostParentId":"490G00005412","towards":"Brent Park, Sudbury Or Wembley"},{"icsId":"1010163","id":"490010163N","lat":51.55856,"lon":-0.25061,"name":"Neasden Underpass","parentId":"490G00010163","stationId":"490G00010163","stopLetter":"EE","topMostParentId":"490G00010163","towards":"Brent Park, Kingsbury Or Wembley Park"},{"icsId":"1003524","id":"490003524N","lat":51.56214,"lon":-0.25727,"name":"Aylesbury Street","parentId":"490G00003524","stationId":"490G00003524","stopLetter":"BP","topMostParentId":"490G00003524","towards":"Kingsbury, Sudbury Or Wembley"},{"icsId":"1011297","id":"490011297W","lat":51.56329,"lon":-0.26005,"name":"Quainton Street","parentId":"490G00011297","stationId":"490G00011297","stopLetter":"BQ","topMostParentId":"490G00011297","towards":"Kingsbury, Sudbury Or Wembley"},{"icsId":"1004052","id":"490004052N","lat":51.56456,"lon":-0.26299,"name":"Blackbird Hill","parentId":"490G00004052","stationId":"490G00004052","stopLetter":"BR","topMostParentId":"490G00004052","towards":"Kingsbury, Sudbury Or Wembley"},{"icsId":"1004051","id":"490004051W","lat":51.56565,"lon":-0.26653,"name":"Blackbird Cross","parentId":"490G00004051","stationId":"490G00004051","stopLetter":"BS","topMostParentId":"490G00004051","towards":"Sudbury Or Wembley"},{"icsId":"1004301","id":"490004331S","lat":51.56532,"lon":-0.2757,"name":"Lycee International / Kings Drive","parentId":"490G00004301","stationId":"490G00004301","stopLetter":"S","topMostParentId":"490G00004301","towards":"Sudbury Or Wembley"},{"icsId":"1005621","id":"490005621P","lat":51.56576,"lon":-0.28074,"name":"Corringham Road","parentId":"490G00005621","stationId":"490G00005621","stopLetter":"P","topMostParentId":"490G00005621","towards":"Kenton Or Sudbury"},{"icsId":"1004445","id":"490004445W","lat":51.56532,"lon":-0.2853,"name":"Brook Avenue","parentId":"490G00004445","stationId":"490G00004445","stopLetter":"T","topMostParentId":"490G00004445","towards":"Sudbury"},{"icsId":"1004795","id":"490004795W","lat":51.5646,"lon":-0.28901,"name":"Carlton Avenue East","parentId":"490G00004795","stationId":"490G00004795","stopLetter":"H","topMostParentId":"490G00004795","towards":"Sudbury"},{"icsId":"1014380","id":"490014380W","lat":51.56196,"lon":-0.29284,"name":"Wembley Hill Road","parentId":"490G00014380","stationId":"490G00014380","stopLetter":"J","topMostParentId":"490G00014380","towards":"Sudbury Or Northwick Park"},{"icsId":"1011713","id":"490011713W","lat":51.56195,"lon":-0.29668,"name":"Rosslyn Crescent","parentId":"490G00011713","stationId":"490G00011713","stopLetter":"K","topMostParentId":"490G00011713","towards":"Sudbury Or Northwick Park"},{"icsId":"1007151","id":"490007151W","lat":51.56269,"lon":-0.30068,"name":"Pembroke Road","parentId":"490G00007151","stationId":"490G00007151","stopLetter":"A","topMostParentId":"490G00007151","towards":"Sudbury Or Northwick Park"},{"icsId":"1000163","id":"490000163A","lat":51.56256,"lon":-0.3056,"name":"North Wembley Station","stopLetter":"B","topMostParentId":"490000163A","towards":"Sudbury Or Northwick Park","zone":"4"},{"icsId":"1012980","id":"490012980W","lat":51.56282,"lon":-0.31292,"name":"Sudbury Court Sports Club","parentId":"490G00012980","stationId":"490G00012980","stopLetter":"C","topMostParentId":"490G00012980","towards":"Sudbury Or Northwick Park"},{"icsId":"1005669","id":"490005669W","lat":51.56201,"lon":-0.31823,"name":"Pasture Road","parentId":"490G00005669","stationId":"490G00005669","stopLetter":"D","topMostParentId":"490G00005669","towards":"Sudbury Or Northwick Park"},{"icsId":"1012983","id":"490012983S","lat":51.56021,"lon":-0.31921,"name":"Perrin Road","parentId":"490G00012983","stationId":"490G00012983","stopLetter":"E","topMostParentId":"490G00012983","towards":"Sudbury Or Wembley"},{"icsId":"1007857","id":"490007857S","lat":51.55685,"lon":-0.3172,"name":"Harrow Road","parentId":"490G000576","stationId":"490G000576","stopLetter":"F","topMostParentId":"490G000576","towards":"Wembley Or Alperton"},{"icsId":"1012984","id":"490012984L","lat":51.55544,"lon":-0.31595,"name":"Rugby Avenue","parentId":"490G000774","stationId":"490G000774","stopLetter":"L","topMostParentId":"490G000774","towards":"Wembley Or Alperton"},{"icsId":"1001282","id":"490003597G","lat":51.55384,"lon":-0.31436,"name":"Sudbury & Harrow Road Station","stopLetter":"G","topMostParentId":"490003597G","towards":"Wembley Or Alperton"},{"icsId":"1005519","id":"490005519S","lat":51.55144,"lon":-0.31366,"name":"Colyton Close","parentId":"490G000466","stationId":"490G000466","stopLetter":"I","topMostParentId":"490G000466","towards":"Alperton Or Sudbury Hill"},{"icsId":"1005414","id":"490005414S","lat":51.54342,"lon":-0.30526,"name":"Clifford Road","parentId":"490G00005414","stationId":"490G00005414","stopLetter":"Q","topMostParentId":"490G00005414","towards":"Harlesden"},{"icsId":"1000005","id":"490003264C","lat":51.54044,"lon":-0.30122,"name":"Alperton Station","stopLetter":"C","topMostParentId":"490003264C","towards":"Harlesden","zone":"4"},{"icsId":"1007198","id":"490003268W1","lat":51.53789,"lon":-0.30211,"name":"Glacier Way","parentId":"490G00007198","stationId":"490G00007198","stopLetter":"->W","topMostParentId":"490G00007198"}]}]}