{"direction":"inbound","lineId":"247","lineName":"247","mode":"bus","stopPointSequences":[{"stopPoint":[{"icsId":"1001243","id":"490001243V","lat":51.5745,"lon":0.18358,"name":"Romford Station","stopLetter":"V","topMostParentId":"490001243V","towards":"Chase Cross, Collier Row Or Gidea Park"},{"icsId":"1014452","id":"490014452P","lat":51.57683,"lon":0.18316,"name":"Western Road","parentId":"490G00014452","stationId":"490G00014452","stopLetter":"P","topMostParentId":"490G00014452","towards":"Chadwell Heath, Collier Row Or Newbury Pk"},{"icsId":"1011659","id":"490011659H","lat":51.58045,"lon":0.18192,"name":"Romford Market","parentId":"490G00011659","stationId":"490G00011659","stopLetter":"H","topMostParentId":"490G00011659","towards":"Chase Cross, Collier Row Or Newbury Park"},{"icsId":"1004467","id":"490004467N1","lat":51.58151,"lon":0.17696,"name":"The Avenue","parentId":"490G00004467","stationId":"490G00004467","stopLetter":"F","topMostParentId":"490G00004467","towards":"Chase Cross, Collier Row Or Newbury Park"},{"icsId":"1011658","id":"490010764N","lat":51.58289,"lon":0.17551,"name":"Romford Bus Garage","parentId":"490G00011658","stationId":"490G00011658","stopLetter":"NA","topMostParentId":"490G00011658","towards":"Chase Cross, Collier Row Or Newbury Park"},{"icsId":"1011657","id":"490011657N1","lat":51.5853,"lon":0.17281,"name":"Cedar Road","parentId":"490G00011657","stationId":"490G00011657","stopLetter":"NB","topMostParentId":"490G00011657","towards":"Chase Cross, Collier Row Or Newbury Park"},{"icsId":"1010782","id":"490010782N","lat":51.58823,"lon":0.1717,"name":"Parklands School","parentId":"490G00010782","stationId":"490G00010782","stopLetter":"NC","topMostParentId":"490G00010782","towards":"Collier Row"},{"icsId":"1007655","id":"490007655N","lat":51.58965,"lon":0.1681,"name":"Hainault Road","parentId":"490G00007655","stationId":"490G00007655","stopLetter":"ND","topMostParentId":"490G00007655","towards":"Chase Cross, Havering Park Or Marks Gate"},{"icsId":"1008215","id":"490008215N","lat":51.59332,"lon":0.16543,"name":"Hillfoot Road","parentId":"490G00008215","stationId":"490G00008215","stopLetter":"EK","topMostParentId":"490G00008215","towards":"Chase Cross, Havering Park Or Marks Gate"},{"icsId":"1000789","id":"490008420N","lat":51.5972,"lon":0.16392,"name":"Lowshoe Lane","parentId":"490G000141","stationId":"490G000141","stopLetter":"EL","topMostParentId":"490G000141","towards":"Chase Cross, Havering Park Or Marks Gate"},{"icsId":"1005444","id":"490005438A","lat":51.59874,"lon":0.16132,"name":"Collier Row Library","parentId":"490G00005444","stationId":"490G00005444","stopLetter":"ET","topMostParentId":"490G00005444","towards":"Havering Park Or Marks Gate"},{"icsId":"1009801","id":"490009801W","lat":51.59828,"lon":0.15919,"name":"Melville Road","parentId":"490G00009801","stationId":"490G00009801","stopLetter":"WH","topMostParentId":"490G00009801","towards":"Havering Park, Marks Gate Or Romford"},{"icsId":"1014594","id":"490014594W","lat":51.59778,"lon":0.15508,"name":"White Hart Lane","parentId":"490G00014594","stationId":"490G00014594","stopLetter":"WQ","topMostParentId":"490G00014594","towards":"Havering Park Or Marks Gate"},{"icsId":"1007260","id":"490007260M","lat":51.5973,"lon":0.1518,"name":"Gobions Farm","parentId":"490G00007260","stationId":"490G00007260","stopLetter":"M","topMostParentId":"490G00007260","towards":"Hainault"},{"icsId":"1003365","id":"490003365W","lat":51.596,"lon":0.14738,"name":"Sungate Cottages","parentId":"490G00003365","stationId":"490G00003365","stopLetter":"->W","topMostParentId":"490G00003365","towards":"Hainault"},{"icsId":"1009671","id":"490009671N","lat":51.59444,"lon":0.14206,"name":"The City Pavilion","parentId":"490G00009671","stationId":"490G00009671","stopLetter":"U","topMostParentId":"490G00009671","towards":"Hainault"},{"icsId":"1014547","id":"490014547N","lat":51.60258,"lon":0.13739,"name":"Whalebone Lane North","parentId":"490G00014547","stationId":"490G00014547","stopLetter":"->N","topMostParentId":"490G00014547","towards":"Hainault"},{"icsId":"1007649","id":"490007649E","lat":51.6052,"lon":0.13364,"name":"Hainault Golf Club","parentId":"490G00007649","stationId":"490G00007649","stopLetter":"->N","topMostParentId":"490G00007649","towards":"Hainault"},{"icsId":"1006931","id":"490006931N","lat":51.60808,"lon":0.12947,"name":"Forest Road","parentId":"490G00006931","stationId":"490G00006931","stopLetter":"->N","topMostParentId":"490G00006931","towards":"Hainault"},{"icsId":"1006966","id":"490006966N","lat":51.6105,"lon":0.12628,"name":"Fowler Road","parentId":"490G00006966","stationId":"490G00006966","stopLetter":"->N","topMostParentId":"490G00006966","towards":"Barkingside Or Grange Hill"},{"icsId":"1007646","id":"490007646W","lat":51.61312,"lon":0.12119,"name":"Yellowpine Way","parentId":"490G00007646","stationId":"490G00007646","stopLetter":"->W","topMostParentId":"490G00007646","towards":"Barkingside Or Grange Hill"},{"icsId":"1011505","id":"490011505W1","lat":51.61005,"lon":0.11521,"name":"Regarder Road","parentId":"490G00011505","stationId":"490G00011505","stopLetter":"M","topMostParentId":"490G00011505","towards":"Barkingside Or Grange Hill"},{"icsId":"1007650","id":"490007650W","lat":51.60892,"lon":0.11312,"name":"The Forest Academy","parentId":"490G00007650","stationId":"490G00007650","stopLetter":"N","topMostParentId":"490G00007650","towards":"Barkingside Or Grange Hill"},{"icsId":"1013462","id":"490013454W","lat":51.60758,"lon":0.10946,"name":"Tunstall Avenue","parentId":"490G00013462","stationId":"490G00013462","stopLetter":"P","topMostParentId":"490G00013462","towards":"Barkingside"},{"icsId":"1012469","id":"490012469W","lat":51.60706,"lon":0.10701,"name":"Staggart Green","parentId":"490G00012469","stationId":"490G00012469","stopLetter":"Q","topMostParentId":"490G00012469","towards":"Barkingside"},{"icsId":"1007648","id":"490007648W","lat":51.60605,"lon":0.10257,"name":"Hainault Fire Station","parentId":"490G00007648","stationId":"490G00007648","stopLetter":"R","topMostParentId":"490G00007648","towards":"Barkingside"},{"icsId":"1003813","id":"490003813W","lat":51.60533,"lon":0.09939,"name":"Beech Grove","parentId":"490G00003813","stationId":"490G00003813","stopLetter":"S","topMostParentId":"490G00003813","towards":"Barkingside"},{"icsId":"1000095","id":"490000095A","lat":51.60419,"lon":0.09447,"name":"Hainault Station","stopLetter":"U","topMostParentId":"490000095A","towards":"Barkingside","zone":"4"},{"icsId":"1013783","id":"490013783W","lat":51.60291,"lon":0.08893,"name":"Trelawney Road","parentId":"490G00013783","stationId":"490G00013783","stopLetter":"V","topMostParentId":"490G00013783","towards":"Barkingside"},{"icsId":"1013481","id":"490013481S","lat":51.60088,"lon":0.08453,"name":"New North Road","parentId":"490G00013481","stationId":"490G00013481","stopLetter":"W","topMostParentId":"490G00013481","towards":"Gants Hill"},{"icsId":"1010189","id":"490010189S","lat":51.59787,"lon":0.08484,"name":"Neville Road","parentId":"490G00010189","stationId":"490G00010189","stopLetter":"X","topMostParentId":"490G00010189","towards":"Gants Hill"},{"icsId":"1013704","id":"490013704S","lat":51.59578,"lon":0.08448,"name":"Tomswood Hill","parentId":"490G00013704","stationId":"490G00013704","stopLetter":"K","topMostParentId":"490G00013704","towards":"Gants Hill"},{"icsId":"1007059","id":"490007059D","lat":51.59256,"lon":0.08418,"name":"Fullwell Cross","parentId":"490G00007059","stationId":"490G00007059","stopLetter":"D","topMostParentId":"490G00007059","towards":"Gants Hill Or Newbury Park"},{"icsId":"1014316","id":"490014316G","lat":51.59094,"lon":0.08296,"name":"Waverley Gardens","parentId":"490G00014316","stationId":"490G00014316","stopLetter":"G","topMostParentId":"490G00014316","towards":"Gants Hill Or Newbury Park"},{"icsId":"1000016","id":"490000016S","lat":51.58725,"lon":0.08511,"name":"Barkingside Station","stopLetter":"S","topMostParentId":"490000016S","towards":"The Glade","zone":"4"}]}]}