{"direction":"inbound","lineId":"248","lineName":"248","mode":"bus","stopPointSequences":[{"stopPoint":[{"icsId":"1010014","id":"490010014N","lat":51.5618,"lon":0.26699,"name":"Moor Lane","parentId":"490G00010014","stationId":"490G00010014","stopLetter":"->N","topMostParentId":"490G00010014","towards":"Upminster Park Estate and Upminster"},{"icsId":"1008777","id":"490008777N","lat":51.56516,"lon":0.26703,"name":"Kings Gardens","parentId":"490G00008777","stationId":"490G00008777","stopLetter":"->N","topMostParentId":"490G00008777","towards":"Upminster"},{"icsId":"1004309","id":"490004309N","lat":51.56737,"lon":0.26799,"name":"Briarleas Gardens","parentId":"490G00004309","stationId":"490G00004309","stopLetter":"->N","topMostParentId":"490G00004309","towards":"Upminster"},{"icsId":"1013923","id":"490013923N","lat":51.57067,"lon":0.2689,"name":"Upminster Park Estate","parentId":"490G00013923","stationId":"490G00013923","stopLetter":"->N","topMostParentId":"490G00013923","towards":"Cranham Or Upminster"},{"icsId":"1014322","id":"490014322S","lat":51.57094,"lon":0.27079,"name":"Lexington Way","parentId":"490G00014322","stationId":"490G00014322","stopLetter":"->S","topMostParentId":"490G00014322","towards":"Cranham, Romford and Upminster"},{"icsId":"1004529","id":"490004529S","lat":51.5685,"lon":0.27031,"name":"Brunswick Avenue","parentId":"490G00004529","stationId":"490G00004529","stopLetter":"->S","topMostParentId":"490G00004529","towards":"Cranham Or Upminster"},{"icsId":"1013381","id":"490013381W","lat":51.56852,"lon":0.26711,"name":"Front Lane","parentId":"490G00013381","stationId":"490G00013381","stopLetter":"->W","topMostParentId":"490G00013381","towards":"Upminster"},{"icsId":"1005829","id":"490005829W","lat":51.56879,"lon":0.26383,"name":"Crouch Valley","parentId":"490G00005829","stationId":"490G00005829","stopLetter":"->W","topMostParentId":"490G00005829","towards":"Upminster"},{"icsId":"1009827","id":"490009827W","lat":51.56975,"lon":0.26054,"name":"Mersey Avenue","parentId":"490G00009827","stationId":"490G00009827","stopLetter":"->W","topMostParentId":"490G00009827","towards":"Upminster"},{"icsId":"1012006","id":"490012006W","lat":51.57021,"lon":0.25736,"name":"Severn Drive","parentId":"490G00012006","stationId":"490G00012006","stopLetter":"->W","topMostParentId":"490G00012006","towards":"Upminster"},{"icsId":"1003519","id":"490003519S","lat":51.56943,"lon":0.25678,"name":"River Drive","parentId":"490G00003519","stationId":"490G00003519","stopLetter":"->S","topMostParentId":"490G00003519","towards":"Upminster Town Centre"},{"icsId":"1013925","id":"490013925S","lat":51.56619,"lon":0.25493,"name":"Upminster Tithe Barn Museum","parentId":"490G00013925","stationId":"490G00013925","stopLetter":"->S","topMostParentId":"490G00013925","towards":"Upminster Town Centre"},{"icsId":"1013346","id":"490013346S","lat":51.56485,"lon":0.25375,"name":"The Fairway","parentId":"490G00013346","stationId":"490G00013346","stopLetter":"->S","topMostParentId":"490G00013346","towards":"Upminster Town Centre"},{"icsId":"1008487","id":"490008487S","lat":51.5629,"lon":0.25211,"name":"Ingrebourne Gardens","parentId":"490G00008487","stationId":"490G00008487","stopLetter":"V","topMostParentId":"490G00008487","towards":"Cranham Or Hornchurch"},{"icsId":"1000242","id":"490000242U","lat":51.55938,"lon":0.25059,"name":"Upminster Station","stopLetter":"U","topMostParentId":"490000242U","towards":"Cranham Or Hornchurch","zone":"6"},{"icsId":"1019449","id":"490015474C","lat":51.55766,"lon":0.24986,"name":"Upminster Stn   / St Lawrence Road","parentId":"490G000935","stationId":"490G000935","stopLetter":"C","topMostParentId":"HUBUPM","towards":"Cranham Or Hornchurch"},{"icsId":"1012756","id":"490012756K","lat":51.5563,"lon":0.24661,"name":"St Laurence Church","parentId":"490G00012756","stationId":"490G00012756","stopLetter":"M","topMostParentId":"490G00012756","towards":"Hornchurch"},{"icsId":"1013926","id":"490013926W","lat":51.55768,"lon":0.24181,"name":"Upminster Windmill","parentId":"490G00013926","stationId":"490G00013926","stopLetter":"N","topMostParentId":"490G00013926","towards":"Hornchurch"},{"icsId":"1000243","id":"490000243A","lat":51.55905,"lon":0.23537,"name":"Upminster Bridge Station","stopLetter":"A","topMostParentId":"490000243A","towards":"Hornchurch","zone":"6"},{"icsId":"1007628","id":"490007628W","lat":51.56018,"lon":0.22905,"name":"Hacton Lane","parentId":"490G00007628","stationId":"490G00007628","stopLetter":"L","topMostParentId":"490G00007628","towards":"Hornchurch"},{"icsId":"1012536","id":"490012536W","lat":51.56069,"lon":0.2262,"name":"St Andrew's Church","parentId":"490G00012536","stationId":"490G00012536","stopLetter":"->W","topMostParentId":"490G00012536","towards":"Romford"},{"icsId":"1015350","id":"490008347G","lat":51.56161,"lon":0.22058,"name":"Hornchurch Town Centre","parentId":"490G00015350","stationId":"490G00015350","stopLetter":"G","topMostParentId":"490G00015350","towards":"Harold Wood, Elm Park Or Romford"},{"icsId":"1004001","id":"490004001B","lat":51.56274,"lon":0.21631,"name":"Billet Lane","parentId":"490G00004001","stationId":"490G00004001","stopLetter":"B","topMostParentId":"490G00004001","towards":"Romford"},{"icsId":"1003049","id":"490003049W","lat":51.5628,"lon":0.21169,"name":"Abbs Cross Lane","parentId":"490G00003049","stationId":"490G00003049","stopLetter":"Y","topMostParentId":"490G00003049","towards":"Romford"},{"icsId":"1007851","id":"490007851W","lat":51.5633,"lon":0.20854,"name":"Harrow Lodge Park","parentId":"490G00007851","stationId":"490G00007851","stopLetter":"Z","topMostParentId":"490G00007851","towards":"Romford"},{"icsId":"1008448","id":"490008448W","lat":51.56469,"lon":0.20186,"name":"Hyland Way","parentId":"490G00008448","stationId":"490G00008448","stopLetter":"RE","topMostParentId":"490G00008448","towards":"Romford"},{"icsId":"1010785","id":"490010785W","lat":51.56505,"lon":0.19401,"name":"Park Lane","parentId":"490G00010785","stationId":"490G00010785","stopLetter":"RF","topMostParentId":"490G00010785","towards":"Romford"},{"icsId":"1011669","id":"490011669W","lat":51.56544,"lon":0.18739,"name":"Roneo Corner","parentId":"490G00011669","stationId":"490G00011669","stopLetter":"RT","topMostParentId":"490G00011669","towards":"Romford Market"},{"icsId":"1005450","id":"490005450N","lat":51.56804,"lon":0.18659,"name":"Clydesdale Road","parentId":"490G00005450","stationId":"490G00005450","stopLetter":"RX","topMostParentId":"490G00005450","towards":"Romford Market"},{"icsId":"1013483","id":"490013483N","lat":51.5708,"lon":0.18569,"name":"Brentwood Road","parentId":"490G00013483","stationId":"490G00013483","stopLetter":"J","topMostParentId":"490G00013483","towards":"Romford Market"},{"icsId":"1001243","id":"490015182X","lat":51.57375,"lon":0.18388,"name":"Romford Station","stopLetter":"X","topMostParentId":"490015182X","towards":"Collier Row"},{"icsId":"1014452","id":"490014452E","lat":51.57738,"lon":0.18436,"name":"Western Road","parentId":"490G00014452","stationId":"490G00014452","stopLetter":"PP","topMostParentId":"490G00014452","towards":"The Brewery and Queens Hospital"},{"icsId":"1011659","id":"490011659L","lat":51.58037,"lon":0.18269,"name":"Romford Market","parentId":"490G00011659","stationId":"490G00011659","stopLetter":"L","topMostParentId":"490G00011659","towards":"Chadwell Heath, Queen's Hosp. Or Becontree"}]}]}