{"direction":"inbound","lineId":"251","lineName":"251","mode":"bus","stopPointSequences":[{"stopPoint":[{"icsId":"1000070","id":"490000070D","lat":51.61295,"lon":-0.27464,"name":"Edgware Station","stopLetter":"D","topMostParentId":"490000070D","towards":"Burnt Oak","zone":"5"},{"icsId":"1014573","id":"490014573N","lat":51.61018,"lon":-0.27848,"name":"Whitchurch Lane","parentId":"490G00014573","stationId":"490G00014573","stopLetter":"N","topMostParentId":"490G00014573","towards":"Burnt Oak"},{"icsId":"1006004","id":"490006004HD","lat":51.60772,"lon":-0.2756,"name":"Deansbrook Road","parentId":"490G00006004","stationId":"490G00006004","stopLetter":"HD","topMostParentId":"490G00006004","towards":"Colindale, Mill Hill Or Queensbury"},{"icsId":"1006425","id":"490006425HA","lat":51.60517,"lon":-0.27311,"name":"Edgware Community Hospital","parentId":"490G00006425","stationId":"490G00006425","stopLetter":"HA","topMostParentId":"490G00006425","towards":"Colindale Or Mill Hill"},{"icsId":"1004617","id":"490004617A","lat":51.60367,"lon":-0.27118,"name":"North Road","parentId":"490G000433","stationId":"490G000433","stopLetter":"A","topMostParentId":"490G000433","towards":"Colindale Or Mill Hill"},{"icsId":"1013255","id":"490013255K","lat":51.60114,"lon":-0.26662,"name":"Watling Avenue","parentId":"490G00013255","stationId":"490G00013255","stopLetter":"K","topMostParentId":"490G00013255","towards":"Mill Hill"},{"icsId":"1000034","id":"490000034N","lat":51.60257,"lon":-0.26404,"name":"Burnt Oak Station","stopLetter":"N","topMostParentId":"490000034N","towards":"Grahame Park , Colindale Or Mill Hill Broadway #","zone":"4"},{"icsId":"1006942","id":"490007607E","lat":51.60434,"lon":-0.25993,"name":"Gunter Grove","parentId":"490G00006942","stationId":"490G00006942","stopLetter":"U","topMostParentId":"490G00006942","towards":"Grahame Park Or Mill Hill"},{"icsId":"1005753","id":"490005753E","lat":51.6057,"lon":-0.2564,"name":"Burnt Oak Leisure Centre","parentId":"490G00005753","stationId":"490G00005753","stopLetter":"QA","topMostParentId":"490G00005753","towards":"Mill Hill"},{"icsId":"1007265","id":"490007265E2","lat":51.6081,"lon":-0.25194,"name":"Goldbeaters Grove","parentId":"490G00007265","stationId":"490G00007265","stopLetter":"->E","topMostParentId":"490G00007265","towards":"Mill Hill Or Totteridge"},{"icsId":"1009468","id":"490009468N","lat":51.61054,"lon":-0.24792,"name":"Woodcroft Avenue","parentId":"490G00009468","stationId":"490G00009468","stopLetter":"->N","topMostParentId":"490G00009468","towards":"Edgware, Mill Hill Or Totteridge"},{"icsId":"1001193","id":"490015207F","lat":51.61441,"lon":-0.24811,"name":"Mill Hill Broadway Station","stopLetter":"F","topMostParentId":"490015207F","towards":"Edgware, Mill Hill East Or Totteridge"},{"icsId":"1009905","id":"490009905M","lat":51.61589,"lon":-0.24502,"name":"Mill Hill Circus / Flower Lane","parentId":"490G00009905","stationId":"490G00009905","stopLetter":"M","topMostParentId":"490G00009905","towards":"Edgware, Mill Hill East Or Totteridge"},{"icsId":"1013917","id":"490013917T","lat":51.61769,"lon":-0.24515,"name":"Uphill Road","parentId":"490G00013917","stationId":"490G00013917","stopLetter":"T","topMostParentId":"490G00013917","towards":"Whetstone"},{"icsId":"1012752","id":"490012752N","lat":51.62098,"lon":-0.24304,"name":"Sunnyfield","parentId":"490G00012752","stationId":"490G00012752","topMostParentId":"490G00012752","towards":"Whetstone"},{"icsId":"1013523","id":"490013523N","lat":51.62255,"lon":-0.24025,"name":"The Reddings","parentId":"490G00013523","stationId":"490G00013523","stopLetter":"->N","topMostParentId":"490G00013523","towards":"Totteridge and Whetstone"},{"icsId":"1008201","id":"490008201W1","lat":51.62537,"lon":-0.23757,"name":"Holcombe Hill","parentId":"490G00008201","stationId":"490G00008201","topMostParentId":"490G00008201","towards":"Whetstone"},{"icsId":"1009901","id":"490009901N","lat":51.627,"lon":-0.24131,"name":"Mill Hill / the Rising Sun","parentId":"490G00009901","stationId":"490G00009901","stopLetter":"->N","topMostParentId":"490G00009901","towards":"Whetstone"},{"icsId":"1008062","id":"490008062E","lat":51.63029,"lon":-0.23648,"name":"Hendon Wood Lane","parentId":"490G00008062","stationId":"490G00008062","stopLetter":"->E","topMostParentId":"490G00008062","towards":"Whetstone"},{"icsId":"1014432","id":"490014432E","lat":51.63052,"lon":-0.22989,"name":"West End House","parentId":"490G00014432","stationId":"490G00014432","stopLetter":"->E","topMostParentId":"490G00014432","towards":"Whetstone"},{"icsId":"1012661","id":"490012661E","lat":51.63102,"lon":-0.22666,"name":"Totteridge Common / Mill Hill","parentId":"490G00012661","stationId":"490G00012661","stopLetter":"->E","topMostParentId":"490G00012661","towards":"Whetstone"},{"icsId":"1006486","id":"490006486E","lat":51.63176,"lon":-0.2227,"name":"Ellern Mede Farm","parentId":"490G00006486","stationId":"490G00006486","stopLetter":"->E","topMostParentId":"490G00006486","towards":"Whetstone"},{"icsId":"1009997","id":"490009997E","lat":51.63365,"lon":-0.21294,"name":"Horseshoe Lane","parentId":"490G00009997","stationId":"490G00009997","stopLetter":"->E","topMostParentId":"490G00009997","towards":"Whetstone"},{"icsId":"1007343","id":"490007343E","lat":51.63461,"lon":-0.20562,"name":"Grange Avenue","parentId":"490G00007343","stationId":"490G00007343","stopLetter":"->E","topMostParentId":"490G00007343","towards":"Whetstone"},{"icsId":"1013742","id":"490013742E","lat":51.63381,"lon":-0.20155,"name":"Totteridge War Memorial","parentId":"490G00013742","stationId":"490G00013742","stopLetter":"->E","topMostParentId":"490G00013742","towards":"Whetstone"},{"icsId":"1010609","id":"490010609E","lat":51.63052,"lon":-0.19749,"name":"The Orange Tree","parentId":"490G00010609","stationId":"490G00010609","stopLetter":"->E","topMostParentId":"490G00010609","towards":"Arnos Grove"},{"icsId":"1011007","id":"490011007E","lat":51.63059,"lon":-0.19211,"name":"Pine Grove","parentId":"490G00011007","stationId":"490G00011007","stopLetter":"->E","topMostParentId":"490G00011007","towards":"Arnos Grove"},{"icsId":"1009188","id":"490009188E","lat":51.631,"lon":-0.18713,"name":"Links Drive","parentId":"490G00009188","stationId":"490G00009188","stopLetter":"->E","topMostParentId":"490G00009188","towards":"Arnos Grove"},{"icsId":"1009313","id":"490009313E","lat":51.63008,"lon":-0.17936,"name":"Longland Drive","parentId":"490G00009313","stationId":"490G00009313","stopLetter":"->E","topMostParentId":"490G00009313","towards":"Arnos Grove"},{"icsId":"1000237","id":"490000237A","lat":51.63016,"lon":-0.17788,"name":"Totteridge & Whetstone Station","stopLetter":"A","topMostParentId":"490000237A","towards":"Arnos Grove Or East Barnet","zone":"4"},{"icsId":"1014563","id":"490014563C","lat":51.63027,"lon":-0.17305,"name":"Whetstone / the Griffin","parentId":"490G00014563","stationId":"490G00014563","stopLetter":"C","topMostParentId":"490G00014563","towards":"Arnos Grove Or Southgate"},{"icsId":"1003425","id":"490003425E","lat":51.62992,"lon":-0.16928,"name":"Ashcroft Court","parentId":"490G00003425","stationId":"490G00003425","stopLetter":"->E","topMostParentId":"490G00003425","towards":"Arnos Grove Or Southgate"},{"icsId":"1010140","id":"490010140E","lat":51.62902,"lon":-0.16487,"name":"Myddelton Park","parentId":"490G00010140","stationId":"490G00010140","stopLetter":"BA","topMostParentId":"490G00010140","towards":"Arnos Grove Or Southgate"},{"icsId":"1011085","id":"490011085E","lat":51.62796,"lon":-0.16234,"name":"Pollard Road","stopLetter":"BB","topMostParentId":"490011085E","towards":"Arnos Grove Or Southgate"},{"icsId":"1011400","id":"490011400E","lat":51.6262,"lon":-0.15995,"name":"Raleigh Drive","parentId":"490G00011400","stationId":"490G00011400","stopLetter":"BD","topMostParentId":"490G00011400","towards":"Arnos Grove"},{"icsId":"1003697","id":"490003697E","lat":51.62459,"lon":-0.156,"name":"Bawtry Road","parentId":"490G00003697","stationId":"490G00003697","stopLetter":"BE","topMostParentId":"490G00003697","towards":"Arnos Grove"},{"icsId":"1003707","id":"490003707E","lat":51.62285,"lon":-0.15172,"name":"Beaconsfield Road","parentId":"490G00003707","stationId":"490G00003707","stopLetter":"BF","topMostParentId":"490G00003707","towards":"Arnos Grove"},{"icsId":"1012381","id":"490012381E","lat":51.61931,"lon":-0.14563,"name":"Spencer Road","parentId":"490G00012381","stationId":"490G00012381","stopLetter":"BG","topMostParentId":"490G00012381","towards":"Palmers Green"},{"icsId":"1003953","id":"490003953G","lat":51.61725,"lon":-0.14197,"name":"Betstyle Circus","parentId":"490G00003953","stationId":"490G00003953","stopLetter":"G","topMostParentId":"490G00003953","towards":"Palmers Green"},{"icsId":"1019050","id":"490011439E","lat":51.6164,"lon":-0.13808,"name":"Betstyle Road","parentId":"490G00019050","stationId":"490G00019050","stopLetter":"S","topMostParentId":"490G00019050","towards":"Bounds Green Or Palmers Green"},{"icsId":"1000009","id":"490000009E1","lat":51.61621,"lon":-0.13388,"name":"Arnos Grove Station","stopLetter":"U","topMostParentId":"490000009E1","zone":"4"}]}]}