{"direction":"inbound","lineId":"256","lineName":"256","mode":"bus","stopPointSequences":[{"stopPoint":[{"icsId":"1010288","id":"490010288N","lat":51.61702,"lon":0.22099,"name":"Wincanton Road","parentId":"490G00010288","stationId":"490G00010288","stopLetter":"->N","topMostParentId":"490G00010288","towards":"Harold Wood"},{"icsId":"1010289","id":"490010289W","lat":51.61701,"lon":0.2195,"name":"Cummings Hall Lane","parentId":"490G00010289","stationId":"490G00010289","stopLetter":"->S","topMostParentId":"490G00010289","towards":"Harold Wood Or Harold Hill"},{"icsId":"1008889","id":"490008889W","lat":51.6143,"lon":0.21471,"name":"Kynance Close","parentId":"490G00008889","stationId":"490G00008889","stopLetter":"->W","topMostParentId":"490G00008889","towards":"Harold Hill Or Chase Cross"},{"icsId":"1013169","id":"490013169W","lat":51.61297,"lon":0.21206,"name":"Taunton Road","parentId":"490G00013169","stationId":"490G00013169","stopLetter":"->W","topMostParentId":"490G00013169","towards":"Harold Hill Or Chase Cross"},{"icsId":"1007644","id":"490007644S","lat":51.60925,"lon":0.20774,"name":"Hailsham Road","parentId":"490G00007644","stationId":"490G00007644","stopLetter":"->S","topMostParentId":"490G00007644","towards":"Harold Wood"},{"icsId":"1012968","id":"490012968S","lat":51.60761,"lon":0.20826,"name":"St Ursula's School","parentId":"490G00012968","stationId":"490G00012968","stopLetter":"->S","topMostParentId":"490G00012968","towards":"Harold Wood"},{"icsId":"1012895","id":"490012895E","lat":51.60533,"lon":0.21101,"name":"Charlbury Crescent","parentId":"490G00012895","stationId":"490G00012895","stopLetter":"->E","topMostParentId":"490G00012895","towards":"Harold Hill Or Noak Hill"},{"icsId":"1004992","id":"490004992E","lat":51.6061,"lon":0.21358,"name":"Hilldene Avenue / Chatteris Avenue","parentId":"490G00004992","stationId":"490G00004992","stopLetter":"->E","topMostParentId":"490G00004992","towards":"Harold Hill Or Noak Hill"},{"icsId":"1006762","id":"490006762E","lat":51.6077,"lon":0.21903,"name":"Hilldene Avenue Shopping Centre","parentId":"490G00006762","stationId":"490G00006762","stopLetter":"->E","topMostParentId":"490G00006762","towards":"Harold Hill Or Noak Hill"},{"icsId":"1005187","id":"490005187E","lat":51.60838,"lon":0.22191,"name":"Chippenham Road","parentId":"490G00005187","stationId":"490G00005187","stopLetter":"HJ","topMostParentId":"490G00005187","towards":"Harold Hill, Harold Wood Or Noak Hill"},{"icsId":"1007828","id":"490007828S","lat":51.60746,"lon":0.22371,"name":"Central Park Leisure Centre","parentId":"490G00007828","stationId":"490G00007828","stopLetter":"GP","topMostParentId":"490G00007828","towards":"Harold Wood"},{"icsId":"1007827","id":"490007827S","lat":51.60539,"lon":0.22628,"name":"Harold Hill Community Centre","parentId":"490G00007827","stationId":"490G00007827","stopLetter":"GR","topMostParentId":"490G00007827","towards":"Harold Wood"},{"icsId":"1008759","id":"490008759S","lat":51.60293,"lon":0.2286,"name":"Kingsbridge Road","parentId":"490G00008759","stationId":"490G00008759","stopLetter":"GS","topMostParentId":"490G00008759","towards":"Harold Wood"},{"icsId":"1004691","id":"490004691S","lat":51.60043,"lon":0.23046,"name":"Camborne Avenue","parentId":"490G00004691","stationId":"490G00004691","stopLetter":"S","topMostParentId":"490G00004691","towards":"Harold Wood"},{"icsId":"1003401","id":"490003401S","lat":51.59701,"lon":0.23246,"name":"Arundel Road","parentId":"490G00003401","stationId":"490G00003401","stopLetter":"K","topMostParentId":"490G00003401","towards":"Gidea Park, Hornchurch Or Upminster"},{"icsId":"1001137","id":"490001137B","lat":51.59299,"lon":0.23288,"name":"Harold Wood Station","stopLetter":"B","topMostParentId":"490001137B","towards":"Upminster, Gidea Park Or Hornchurch"},{"icsId":"1007831","id":"490007831S","lat":51.5906,"lon":0.23325,"name":"St Peter's Church","parentId":"490G00007831","stationId":"490G00007831","stopLetter":"H","topMostParentId":"490G00007831","towards":"Gidea Park, Hornchurch Or Upminster"},{"icsId":"1011460","id":"490011460W","lat":51.58899,"lon":0.23232,"name":"Recreation Avenue","parentId":"490G00011460","stationId":"490G00011460","stopLetter":"->W","topMostParentId":"490G00011460","towards":"Gidea Park Or Hornchurch"},{"icsId":"1011712","id":"490011712W","lat":51.58806,"lon":0.22821,"name":"Rosslyn Avenue","parentId":"490G00011712","stationId":"490G00011712","stopLetter":"->W","topMostParentId":"490G00011712","towards":"Gidea Park Or Hornchurch"},{"icsId":"1012278","id":"490012278W","lat":51.58718,"lon":0.22516,"name":"Southend Arterial Road","parentId":"490G00012278","stationId":"490G00012278","stopLetter":"->W","topMostParentId":"490G00012278","towards":"Gidea Park Or Hornchurch"},{"icsId":"1013557","id":"490013557S","lat":51.5846,"lon":0.2206,"name":"Ardleigh Green School","parentId":"490G00013557","stationId":"490G00013557","stopLetter":"->S","topMostParentId":"490G00013557","towards":"Gidea Park Or Hornchurch"},{"icsId":"1007915","id":"490007915S","lat":51.5814,"lon":0.22043,"name":"New City College / Ardleigh Green","parentId":"490G00007915","stationId":"490G00007915","stopLetter":"->S","topMostParentId":"490G00007915","towards":"Hornchurch"},{"icsId":"1003532","id":"490003532S","lat":51.57791,"lon":0.21904,"name":"Ayloffs Walk","parentId":"490G00003532","stationId":"490G00003532","stopLetter":"EH","topMostParentId":"490G00003532","towards":"Hornchurch"},{"icsId":"1007963","id":"490007963EJ","lat":51.57466,"lon":0.21821,"name":"Haynes Road","parentId":"490G00007963","stationId":"490G00007963","stopLetter":"EJ","topMostParentId":"490G00007963","towards":"Hornchurch"},{"icsId":"1014977","id":"490014973S","lat":51.57249,"lon":0.21864,"name":"Burntwood Avenue","parentId":"490G00014977","stationId":"490G00014977","stopLetter":"EK","topMostParentId":"490G00014977","towards":"Hornchurch"},{"icsId":"1001098","id":"490001098B","lat":51.56965,"lon":0.21974,"name":"Emerson Park Station","stopLetter":"EL","topMostParentId":"490001098B","towards":"Hornchurch"},{"icsId":"1004623","id":"490004623S","lat":51.5671,"lon":0.22014,"name":"Burnway","parentId":"490G00004623","stationId":"490G00004623","stopLetter":"EM","topMostParentId":"490G00004623","towards":"Hornchurch Station, Upminster Or Elm Park"},{"icsId":"1011359","id":"490011359D","lat":51.5642,"lon":0.22023,"name":"Queen's Theatre","parentId":"490G00011359","stationId":"490G00011359","stopLetter":"D","topMostParentId":"490G00011359","towards":"Hornchurch Station, Upminster Or Elm Park"},{"icsId":"1015350","id":"490015350F","lat":51.56164,"lon":0.22133,"name":"Hornchurch Town Centre","parentId":"490G00015350","stationId":"490G00015350","stopLetter":"F","topMostParentId":"490G00015350","towards":"County Park Estate, Elm Park Or Upminster"},{"icsId":"1013249","id":"490013249J","lat":51.56002,"lon":0.22065,"name":"The Avenue","parentId":"490G00013249","stationId":"490G00013249","stopLetter":"J","topMostParentId":"490G00013249","towards":"County Park Estate Or Elm Park"},{"icsId":"1006068","id":"490006068K","lat":51.55761,"lon":0.2205,"name":"Devonshire Road","parentId":"490G00006068","stationId":"490G00006068","stopLetter":"K","topMostParentId":"490G00006068","towards":"County Park Estate Or Elm Park"},{"icsId":"1000115","id":"490000115M","lat":51.55469,"lon":0.21965,"name":"Hornchurch Station","stopLetter":"M","topMostParentId":"490000115M","towards":"County Park Estate Or Elm Park","zone":"6"},{"icsId":"1014015","id":"490014015S","lat":51.55029,"lon":0.21833,"name":"Vaughan Avenue","parentId":"490G00014015","stationId":"490G00014015","stopLetter":"A","topMostParentId":"490G00014015","towards":"Elm Park"},{"icsId":"1012695","id":"490012695S","lat":51.54723,"lon":0.21666,"name":"St George's Park","parentId":"490G00012695","stationId":"490G00012695","stopLetter":"B","topMostParentId":"490G00012695","towards":"Elm Park"}]}]}