{"direction":"inbound","lineId":"257","lineName":"257","mode":"bus","stopPointSequences":[{"stopPoint":[{"icsId":"1014164","id":"490014164A","lat":51.5834,"lon":-0.02049,"name":"Walthamstow Bus Station","parentId":"490G000817","stationId":"490G000817","stopLetter":"A","topMostParentId":"490G000817","towards":"Hackney, Leyton Or Stratford"},{"icsId":"1007547","id":"490007547S","lat":51.57945,"lon":-0.01799,"name":"Grosvenor Park Road","parentId":"490G00007547","stationId":"490G00007547","stopLetter":"K","topMostParentId":"490G00007547","towards":"Clapton, Leyton Or Whipps Cross"},{"icsId":"1007576","id":"490007576S","lat":51.57758,"lon":-0.01637,"name":"Grove Road","parentId":"490G00007576","stationId":"490G00007576","stopLetter":"SJ","topMostParentId":"490G00007576","towards":"Clapton, Leyton Or Whipps Cross"},{"icsId":"1015099","id":"490015099A","lat":51.5762,"lon":-0.0148,"name":"Bakers Avenue","parentId":"490G00015099","stationId":"490G00015099","stopLetter":"SK","topMostParentId":"490G00015099","towards":"Clapton, Leyton Or Whipps Cross"},{"icsId":"1015102","id":"490015102C","lat":51.57639,"lon":-0.01168,"name":"Lea Bridge Road / Bakers Arms","parentId":"490G00015102","stationId":"490G00015102","stopLetter":"EH","topMostParentId":"490G00015102","towards":"Whipps Cross Or Wood Street"},{"icsId":"1009135","id":"490009135EJ","lat":51.57768,"lon":-0.00835,"name":"Leyton Green Road","parentId":"490G00009135","stationId":"490G00009135","stopLetter":"EJ","topMostParentId":"490G00009135","towards":"Highams Park, Leytonstone Or Woodford Green"},{"icsId":"1012080","id":"490012080E","lat":51.57937,"lon":-0.00518,"name":"Shernhall Street","parentId":"490G00012080","stationId":"490G00012080","stopLetter":"EK","topMostParentId":"490G00012080","towards":"Highams Park, Leytonstone Or Woodford Green"},{"icsId":"1006342","id":"490006342E","lat":51.58002,"lon":-0.00344,"name":"Peterborough Road","parentId":"490G00006342","stationId":"490G00006342","stopLetter":"EL","topMostParentId":"490G00006342","towards":"Highams Park, Leytonstone Or Woodford Green"},{"icsId":"1014569","id":"490014569A","lat":51.58116,"lon":-0.00093,"name":"Whipps Cross / Wood Street","parentId":"490G00014569","stationId":"490G00014569","stopLetter":"A","topMostParentId":"490G00014569","towards":"Leytonstone Or Woodford Green"},{"icsId":"1002116","id":"490002116Z","lat":51.58113,"lon":0.0017,"name":"Whipps Cross Bus Stand","parentId":"490G000338","stationId":"490G000338","stopLetter":"V","topMostParentId":"490G000338","towards":"Leytonstone Or Snaresbrook"},{"icsId":"1014566","id":"490014566E","lat":51.57977,"lon":0.00417,"name":"Whipps Cross Hospital","parentId":"490G00014566","stationId":"490G00014566","stopLetter":"E","topMostParentId":"490G00014566","towards":"Leytonstone Or Walthamstow Village"},{"icsId":"1008538","id":"490008538T","lat":51.5781,"lon":0.00907,"name":"James Lane","parentId":"490G00008538","stationId":"490G00008538","stopLetter":"T","topMostParentId":"490G00008538","towards":"Leytonstone Or Walthamstow Village"},{"icsId":"1012178","id":"490012178S","lat":51.577,"lon":0.01164,"name":"Sir Alfred Hitchcock Hotel","parentId":"490G00012178","stationId":"490G00012178","stopLetter":"->S","topMostParentId":"490G00012178","towards":"Leytonstone"},{"icsId":"1009143","id":"490009143S","lat":51.57367,"lon":0.01524,"name":"Leyton Way","parentId":"490G00009143","stationId":"490G00009143","stopLetter":"PP","topMostParentId":"490G00009143","towards":"Stratford"},{"icsId":"1007490","id":"490007490P","lat":51.57076,"lon":0.01514,"name":"Green Man Roundabout","parentId":"490G00007490","stationId":"490G00007490","stopLetter":"P","topMostParentId":"490G00007490","towards":"Thatched House Or Leytonstone Station"},{"icsId":"1000137","id":"490000137W","lat":51.56907,"lon":0.00929,"name":"Leytonstone Station","stopLetter":"W","topMostParentId":"490000137W","towards":"Leyton Or Stratford","zone":"3+4"},{"icsId":"1007882","id":"490007882K","lat":51.56759,"lon":0.01077,"name":"Harvey Road","parentId":"490G00007882","stationId":"490G00007882","stopLetter":"K","topMostParentId":"490G00007882","towards":"Leyton Or Stratford"},{"icsId":"1009846","id":"490009846L","lat":51.56596,"lon":0.0103,"name":"Michael Road","parentId":"490G00009846","stationId":"490G00009846","stopLetter":"L","topMostParentId":"490G00009846","towards":"Leyton Or Stratford"},{"icsId":"1001179","id":"490001179S","lat":51.56366,"lon":0.00984,"name":"Leytonstone High Road Station","stopLetter":"J","topMostParentId":"490001179S","towards":"Stratford"},{"icsId":"1009141","id":"490009141S","lat":51.56034,"lon":0.00806,"name":"Leytonstone Fire Station","parentId":"490G00009141","stationId":"490G00009141","stopLetter":"D","topMostParentId":"490G00009141","towards":"Leyton Or Stratford"},{"icsId":"1016314","id":"490016314S","lat":51.55878,"lon":0.00718,"name":"Harrow Road","parentId":"490G00016314","stationId":"490G00016314","stopLetter":"N","topMostParentId":"490G00016314","towards":"Stratford Or Leyton"},{"icsId":"1007849","id":"490007849S","lat":51.55716,"lon":0.0064,"name":"Harrow Green","parentId":"490G00007849","stationId":"490G00007849","stopLetter":"P","topMostParentId":"490G00007849","towards":"Stratford Or Stratford City"},{"icsId":"1011421","id":"490011421S","lat":51.55433,"lon":0.00517,"name":"Ranelagh Road","parentId":"490G00011421","stationId":"490G00011421","stopLetter":"Q","topMostParentId":"490G00011421","towards":"Stratford Or Stratford City"},{"icsId":"1009140","id":"490009140S","lat":51.55325,"lon":0.00538,"name":"Leytonstone High Road / Thatched House","parentId":"490G00009140","stationId":"490G00009140","stopLetter":"R","topMostParentId":"490G00009140","towards":"Stratford Or Stratford City"},{"icsId":"1008540","id":"490008540S","lat":51.55084,"lon":0.00569,"name":"Janson Road","parentId":"490G00008540","stationId":"490G00008540","stopLetter":"MD","topMostParentId":"490G00008540","towards":"Stratford"},{"icsId":"1005214","id":"490005214S","lat":51.54921,"lon":0.00523,"name":"Chobham Road","parentId":"490G00005214","stationId":"490G00005214","stopLetter":"ME","topMostParentId":"490G00005214","towards":"Plaistow"},{"icsId":"1001190","id":"490001190S1","lat":51.54694,"lon":0.0063,"name":"Maryland Station","stopLetter":"MF","topMostParentId":"490001190S1","towards":"Plaistow"},{"icsId":"1009536","id":"490009536S","lat":51.54497,"lon":0.00457,"name":"Manbey Grove","parentId":"490G00009536","stationId":"490G00009536","stopLetter":"MH","topMostParentId":"490G00009536","towards":"Plaistow"},{"icsId":"1000983","id":"490000983Z","lat":51.54345,"lon":0.0023,"name":"Salway Place","parentId":"490G000263","stationId":"490G000263","stopLetter":"H","topMostParentId":"490G000263"},{"icsId":"1012904","id":"490012904N","lat":51.54144,"lon":-0.00238,"name":"Stratford Bus Station","parentId":"490G000773","stationId":"490G000773","stopLetter":"AP","topMostParentId":"HUBSRA"}]}]}