{"direction":"inbound","lineId":"258","lineName":"258","mode":"bus","stopPointSequences":[{"stopPoint":[{"icsId":"1012306","id":"490000211B","lat":51.56509,"lon":-0.3523,"name":"South Harrow Bus Station","parentId":"490G000752","stationId":"490G000752","stopLetter":"B","topMostParentId":"490G000752","towards":"Harrow"},{"icsId":"1012026","id":"490012026N","lat":51.5685,"lon":-0.34806,"name":"Grange Road","parentId":"490G00012026","stationId":"490G00012026","stopLetter":"RD","topMostParentId":"490G00012026","towards":"Harrow"},{"icsId":"1011746","id":"490011746E","lat":51.56849,"lon":-0.34141,"name":"Roxeth Hill","parentId":"490G00011746","stationId":"490G00011746","stopLetter":"RH","topMostParentId":"490G00011746","towards":"Harrow"},{"icsId":"1007854","id":"490007854N","lat":51.56968,"lon":-0.33994,"name":"Harrow Park","parentId":"490G00007854","stationId":"490G00007854","stopLetter":"RJ","topMostParentId":"490G00007854","towards":"Wealdstone"},{"icsId":"1007866","id":"490007866N","lat":51.57308,"lon":-0.33703,"name":"Harrow School","parentId":"490G00007866","stationId":"490G00007866","stopLetter":"->N","topMostParentId":"490G00007866","towards":"Wealdstone"},{"icsId":"1010958","id":"490010958N","lat":51.57765,"lon":-0.33377,"name":"Tyburn Lane","parentId":"490G000702","stationId":"490G000702","stopLetter":"G","topMostParentId":"490G000702","towards":"Wealdstone"},{"icsId":"1015347","id":"490015347L","lat":51.57935,"lon":-0.33404,"name":"Harrow Town Centre","parentId":"490G00015347","stationId":"490G00015347","stopLetter":"L","topMostParentId":"490G00015347","towards":"Belmont, Harrow View Or Wealdstone"},{"icsId":"1007845","id":"490007845A","lat":51.57996,"lon":-0.33741,"name":"Harrow Bus Station","parentId":"490G000574","stationId":"490G000574","stopLetter":"A","topMostParentId":"HUBHOH","towards":"Wealdstone"},{"icsId":"1015347","id":"490007868T","lat":51.58079,"lon":-0.33403,"name":"Harrow Town Centre","parentId":"490G00015347","stationId":"490G00015347","stopLetter":"T","topMostParentId":"490G00015347","towards":"Kenton Or Wealdstone"},{"icsId":"1019614","id":"490007868R","lat":51.58174,"lon":-0.33313,"name":"Harrow Town Centre / Sheepcote Road","parentId":"490G00019614","stationId":"490G00019614","stopLetter":"R","topMostParentId":"490G00019614","towards":"Kenton Or Wealdstone"},{"icsId":"1011850","id":"490011850W","lat":51.58663,"lon":-0.33229,"name":"Safari Cinema","parentId":"490G00011850","stationId":"490G00011850","stopLetter":"W","topMostParentId":"490G00011850","towards":"Belmont Circle Or Harrow Weald"},{"icsId":"1007846","id":"490007846K","lat":51.58971,"lon":-0.3329,"name":"Harrow Civic Centre / Harrow Mosque","parentId":"490G00007846","stationId":"490G00007846","stopLetter":"K","topMostParentId":"490G00007846","towards":"Belmont Circle Or Harrow Weald"},{"icsId":"1000101","id":"490015249N","lat":51.59229,"lon":-0.33408,"name":"Harrow & Wealdstone Station","stopLetter":"N","topMostParentId":"490015249N","towards":"Belmont Circle Or Harrow Weald","zone":"5"},{"icsId":"1015250","id":"490015250G","lat":51.59428,"lon":-0.33529,"name":"The Wealdstone Centre","parentId":"490G00015250","stationId":"490G00015250","stopLetter":"G","topMostParentId":"490G00015250","towards":"Bushey, Harrow Weald Or Stanmore"},{"icsId":"1007844","id":"490014328C","lat":51.5962,"lon":-0.33549,"name":"Wealdstone Baptist Church","parentId":"490G00007844","stationId":"490G00007844","stopLetter":"C","topMostParentId":"490G00007844","towards":"Bushey, Harrow Weald Or Stanmore"},{"icsId":"1011882","id":"490011882N","lat":51.60059,"lon":-0.33838,"name":"Salvatorian College / St Joseph's Church","parentId":"490G00011882","stationId":"490G00011882","stopLetter":"WP","topMostParentId":"490G00011882","towards":"Bushey, Harrow Weald Or Stanmore"},{"icsId":"1009302","id":"490009302N","lat":51.60485,"lon":-0.34011,"name":"Long Elmes","parentId":"490G00009302","stationId":"490G00009302","stopLetter":"WS","topMostParentId":"490G00009302","towards":"Bushey Heath, Stanmore Or Belmont Circle"},{"icsId":"1007870","id":"490007870N1","lat":51.60613,"lon":-0.3403,"name":"Harrow Weald Bus Garage","parentId":"490G00007870","stationId":"490G00007870","stopLetter":"WT","topMostParentId":"490G00007870","towards":"Bushey Heath, Stanmore Or Belmont Circle"},{"icsId":"1013972","id":"490013971N","lat":51.60935,"lon":-0.33962,"name":"Monro Gardens","parentId":"490G00013972","stationId":"490G00013972","stopLetter":"WV","topMostParentId":"490G00013972","towards":"Bushey Heath, Stanmore Or Belmont Circle"},{"icsId":"1015094","id":"490015094N","lat":51.61144,"lon":-0.33963,"name":"Uxbridge Road","parentId":"490G00015094","stationId":"490G00015094","stopLetter":"WA","topMostParentId":"490G00015094","towards":"Bushey Heath"},{"icsId":"1014326","id":"490014326N","lat":51.61394,"lon":-0.34013,"name":"Harrow College","parentId":"490G00014326","stationId":"490G00014326","stopLetter":"WB","topMostParentId":"490G00014326","towards":"Bushey Heath"},{"icsId":"1014647","id":"490014647N","lat":51.61638,"lon":-0.34167,"name":"Brookshill Gate","parentId":"490G00014647","stationId":"490G00014647","stopLetter":"->N","topMostParentId":"490G00014647","towards":"Bushey Heath"},{"icsId":"1005326","id":"490005326N","lat":51.62033,"lon":-0.34299,"name":"Clamp Hill","parentId":"490G00005326","stationId":"490G00005326","stopLetter":"->N","topMostParentId":"490G00005326","towards":"Bushey Heath"},{"icsId":"1011225","id":"490011225N","lat":51.62526,"lon":-0.34222,"name":"Sandringham","parentId":"490G00011225","stationId":"490G00011225","stopLetter":"->N","topMostParentId":"490G00011225","towards":"Bushey Heath"},{"icsId":"1013153","id":"490013153N","lat":51.62688,"lon":-0.34035,"name":"Avanti House Primary School","parentId":"490G00013153","stationId":"490G00013153","stopLetter":"->N","topMostParentId":"490G00013153","towards":"Bushey Heath"},{"icsId":"1019044","id":"4900019044N","lat":51.62999,"lon":-0.33765,"name":"Hive Road","parentId":"490G00019044","stationId":"490G00019044","stopLetter":"->N","topMostParentId":"490G00019044","towards":"Watford"},{"icsId":"1004641","id":"210021004860","lat":51.631573,"lon":-0.33729,"name":"Common Road","parentId":"210G3176","stationId":"210G3176","topMostParentId":"210G3176","towards":"Watford"},{"icsId":"1014767","id":"210021007885","lat":51.634281,"lon":-0.341844,"name":"Windmill Lane","parentId":"210G3175","stationId":"210G3175","topMostParentId":"210G3175"},{"icsId":"1013649","id":"210021007890","lat":51.63719,"lon":-0.347923,"name":"Bushey Heath Three Crowns","parentId":"210G3173","stationId":"210G3173","topMostParentId":"210G3173"},{"icsId":"1004447","id":"210021007900","lat":51.637703,"lon":-0.350476,"name":"Merry Hill Road","topMostParentId":"210021007900"},{"icsId":"1000746","id":"210021007910","lat":51.63863,"lon":-0.354374,"name":"The Royal Oak Public House","topMostParentId":"210021007910"},{"icsId":"1011593","id":"210021007915","lat":51.640717,"lon":-0.35768,"name":"Steeplands","topMostParentId":"210021007915"},{"icsId":"1009790","id":"210021007920","lat":51.643243,"lon":-0.360797,"name":"Melbourne Road","topMostParentId":"210021007920"},{"icsId":"1004195","id":"210021007930","lat":51.644176,"lon":-0.362599,"name":"Bournehall Road","parentId":"210G3154","stationId":"210G3154","topMostParentId":"210G3154"},{"icsId":"1004639","id":"210021005000","lat":51.64488,"lon":-0.366649,"name":"The Red Lion Public House","topMostParentId":"210021005000"},{"icsId":"1006721","id":"210021005010","lat":51.645708,"lon":-0.371852,"name":"Grange Academy","parentId":"210G3155","stationId":"210G3155","topMostParentId":"210G3155"},{"icsId":"1007359","id":"210021005020","lat":51.646514,"lon":-0.377518,"name":"Grange Road","parentId":"210G3130","stationId":"210G3130","topMostParentId":"210G3130"},{"icsId":"1000295","id":"210021902300","lat":51.645986,"lon":-0.3842,"name":"Bushey Station","parentId":"210G3126","stationId":"210G3126","stopLetter":"A","topMostParentId":"HUBBSH"},{"icsId":"1004640","id":"210021903600","lat":51.647574,"lon":-0.385256,"name":"Bushey Arches","parentId":"210G3127","stationId":"210G3127","stopLetter":"F","topMostParentId":"210G3127"},{"icsId":"1008262","id":"210021903630","lat":51.649296,"lon":-0.388852,"name":"Dalton Way","parentId":"210G3133","stationId":"210G3133","topMostParentId":"210G3133"},{"icsId":"1000312","id":"210021903640","lat":51.651746,"lon":-0.390457,"name":"Watford High Street Station","stopLetter":"A","topMostParentId":"210021903640"},{"icsId":"1014300","id":"210021903680","lat":51.654302,"lon":-0.394544,"name":"King Street","stopLetter":"T","topMostParentId":"210021903680"},{"icsId":"1014045","id":"210021903700","lat":51.654291,"lon":-0.397754,"name":"St Mary's Road","parentId":"210G9047","stationId":"210G9047","stopLetter":"U","topMostParentId":"210G9047"},{"icsId":"1014296","id":"210021903880","lat":51.660181,"lon":-0.397069,"name":"St John's Road","topMostParentId":"210021903880"},{"icsId":"1000311","id":"210021903892","lat":51.663353,"lon":-0.396292,"name":"Watford Junction Station","stopLetter":"1","topMostParentId":"210021903892"}]}]}