{"direction":"inbound","lineId":"259","lineName":"259","mode":"bus","stopPointSequences":[{"stopPoint":[{"icsId":"1013117","id":"490004354N","lat":51.52925,"lon":-0.12012,"name":"Swinton Street","parentId":"490G00013117","stationId":"490G00013117","stopLetter":"N","topMostParentId":"490G00013117","towards":"Camden Town Or Holloway"},{"icsId":"1005916","id":"490001171G","lat":51.53128,"lon":-0.12268,"name":"King's Cross Station   / York Way","parentId":"490G000479","stationId":"490G000479","stopLetter":"G","topMostParentId":"HUBKGX","towards":"Archway Or Holloway"},{"icsId":"1014553","id":"490014553J","lat":51.53359,"lon":-0.12143,"name":"Wharfdale Road / London Canal Museum","parentId":"490G00014553","stationId":"490G00014553","stopLetter":"J","topMostParentId":"490G00014553","towards":"Holloway Or Euston"},{"icsId":"1008728","id":"490008714N","lat":51.53404,"lon":-0.11818,"name":"Killick Street","parentId":"490G00008728","stationId":"490G00008728","stopLetter":"K","topMostParentId":"490G00008728","towards":"Holloway Nags Head"},{"icsId":"1004811","id":"490004811N","lat":51.53613,"lon":-0.11681,"name":"Carnegie Street","parentId":"490G00004811","stationId":"490G00004811","stopLetter":"L","topMostParentId":"490G00004811","towards":"Holloway Nags Head"},{"icsId":"1015324","id":"490015324N","lat":51.53778,"lon":-0.11659,"name":"Caledonian Road / Copenhagen Street","parentId":"490G00015324","stationId":"490G00015324","stopLetter":"N","topMostParentId":"490G00015324","towards":"Camden Town Or Holloway Nags Head"},{"icsId":"1012865","id":"490007008N","lat":51.54034,"lon":-0.11704,"name":"Story Street","parentId":"490G00012865","stationId":"490G00012865","stopLetter":"M","topMostParentId":"490G00012865","towards":"Camden Town Or Holloway Nags Head"},{"icsId":"1001043","id":"490001043K","lat":51.54344,"lon":-0.11765,"name":"Caledonian Road & Barnsbury Station","stopLetter":"K","topMostParentId":"490001043K","towards":"Camden Town Or Holloway Nags Head"},{"icsId":"1007615","id":"490007615G","lat":51.54609,"lon":-0.11803,"name":"H M Prison Pentonville","parentId":"490G00007615","stationId":"490G00007615","stopLetter":"G","topMostParentId":"490G00007615","towards":"Camden Town Or Holloway"},{"icsId":"1000035","id":"490000035D","lat":51.54812,"lon":-0.11815,"name":"Caledonian Road Station","stopLetter":"D","topMostParentId":"490000035D","towards":"Archway, Hornsey Or Finsbury Park","zone":"2"},{"icsId":"1010399","id":"490010399N","lat":51.55031,"lon":-0.11877,"name":"Holloway Delivery Office","parentId":"490G00010399","stationId":"490G00010399","stopLetter":"E","topMostParentId":"490G00010399","towards":"Archway, Finsbury Park, Highbury Or Hornsey"},{"icsId":"1007005","id":"490007005N","lat":51.55147,"lon":-0.12065,"name":"Freegrove Road","parentId":"490G00007005","stationId":"490G00007005","stopLetter":"F","topMostParentId":"490G00007005","towards":"Archway, Finsbury Park, Highbury Or Hornsey"},{"icsId":"1004721","id":"490004721N","lat":51.55294,"lon":-0.12311,"name":"Camden Road","parentId":"490G00004721","stationId":"490G00004721","stopLetter":"G","topMostParentId":"490G00004721","towards":"Archway, Finsbury Park, Highbury Or Hornsey"},{"icsId":"1004971","id":"490004971N","lat":51.55497,"lon":-0.12258,"name":"Chambers Road","parentId":"490G00004971","stationId":"490G00004971","stopLetter":"L","topMostParentId":"490G00004971","towards":"Archway, Hornsey Or Finsbury Park"},{"icsId":"1008296","id":"490008296C","lat":51.55728,"lon":-0.12037,"name":"Holloway / Nags Head","parentId":"490G00008296","stationId":"490G00008296","stopLetter":"C","topMostParentId":"490G00008296","towards":"Finsbury Park"},{"icsId":"1019152","id":"490008296H","lat":51.55857,"lon":-0.11828,"name":"Seven Sisters Road / Nags Head","parentId":"490G00019152","stationId":"490G00019152","stopLetter":"H","topMostParentId":"490G00019152","towards":"Finsbury Park Or Hornsey Rise"},{"icsId":"1008367","id":"490008367J","lat":51.55981,"lon":-0.11595,"name":"Hornsey Road","parentId":"490G00008367","stationId":"490G00008367","stopLetter":"NP","topMostParentId":"490G00008367","towards":"Finsbury Park Or Hornsey Rise"},{"icsId":"1006272","id":"490006272E","lat":51.56208,"lon":-0.11094,"name":"Durham Road","parentId":"490G00006272","stationId":"490G00006272","stopLetter":"NT","topMostParentId":"490G00006272","towards":"Manor House Or Highbury"},{"icsId":"1006891","id":"490000083X","lat":51.56317,"lon":-0.10795,"name":"Fonthill Road","parentId":"490G00006891","stationId":"490G00006891","stopLetter":"X","topMostParentId":"490G00006891","towards":"Manor House Or Highbury Corner"},{"icsId":"1000083","id":"490000083R","lat":51.564,"lon":-0.10624,"name":"Finsbury Park Station","stopLetter":"R","topMostParentId":"490000083R","towards":"Manor House Or Highbury Corner","zone":"2"},{"icsId":"1015078","id":"490015078L","lat":51.56547,"lon":-0.10348,"name":"Finsbury Park / Blackstock Road","parentId":"490G000858","stationId":"490G000858","stopLetter":"L","topMostParentId":"HUBFPK","towards":"Wood Green, Tottenham Or Stamford Hill"},{"icsId":"1003208","id":"490003208E","lat":51.568,"lon":-0.09975,"name":"Alexandra Grove","parentId":"490G00003208","stationId":"490G00003208","stopLetter":"Q","topMostParentId":"490G00003208","towards":"Wood Green, Tottenham Or Stamford Hill"},{"icsId":"1000142","id":"490000142F","lat":51.5715,"lon":-0.09408,"name":"Manor House Station","stopLetter":"F","topMostParentId":"490000142F","towards":"Tottenham","zone":"2+3"},{"icsId":"1014812","id":"490014812E","lat":51.57234,"lon":-0.09151,"name":"Woodberry Grove","parentId":"490G00014812","stationId":"490G00014812","stopLetter":"G","topMostParentId":"490G00014812","towards":"Tottenham Or Stamford Hill"},{"icsId":"1019705","id":"490003306E","lat":51.57374,"lon":-0.08758,"name":"Amhurst Park","parentId":"490G00019705","stationId":"490G00019705","stopLetter":"S","topMostParentId":"490G00019705","towards":"Tottenham"},{"icsId":"1014012","id":"490014012E","lat":51.57561,"lon":-0.08522,"name":"Vartry Road","parentId":"490G00014012","stationId":"490G00014012","topMostParentId":"490G00014012","towards":"Tottenham"},{"icsId":"1008123","id":"490008123N","lat":51.57728,"lon":-0.08349,"name":"Heysham Road","parentId":"490G00008123","stationId":"490G00008123","stopLetter":"TV","topMostParentId":"490G00008123","towards":"Tottenham"},{"icsId":"1012432","id":"490012432N","lat":51.57888,"lon":-0.08169,"name":"St Ann's Road","parentId":"490G00012432","stationId":"490G00012432","stopLetter":"TW","topMostParentId":"490G00012432","towards":"Tottenham"},{"icsId":"1007439","id":"490015855N","lat":51.58091,"lon":-0.07745,"name":"Elizabeth Road","parentId":"490G000543","stationId":"490G000543","stopLetter":"TX","topMostParentId":"490G000543","towards":"Tottenham"},{"icsId":"1004037","id":"490004037BE","lat":51.5818,"lon":-0.07539,"name":"Birstall Road / Seven Sisters Stn","parentId":"490G000419","stationId":"490G000419","stopLetter":"B","topMostParentId":"490G000419","towards":"Tottenham"},{"icsId":"1000201","id":"490000201J","lat":51.58359,"lon":-0.07247,"name":"Seven Sisters Station","stopLetter":"D","topMostParentId":"490000201J","towards":"Wood Green Or Northumberland Park","zone":"3"},{"icsId":"1013739","id":"490015083E","lat":51.58502,"lon":-0.07199,"name":"College of North East London","parentId":"490G00013739","stationId":"490G00013739","stopLetter":"G","topMostParentId":"490G00013739","towards":"Northumberland Park Or Edmonton"},{"icsId":"1015083","id":"490013739M","lat":51.58799,"lon":-0.07093,"name":"Tottenham Town Hall","parentId":"490G000860","stationId":"490G000860","stopLetter":"V","topMostParentId":"490G000860","towards":"Northumberland Park Or Edmonton"},{"icsId":"1013736","id":"490013736N","lat":51.59039,"lon":-0.07026,"name":"Tottenham Police Station","parentId":"490G00013736","stationId":"490G00013736","stopLetter":"F","topMostParentId":"490G00013736","towards":"Edmonton, Wood Green Or Northumberland Park"},{"icsId":"1018845","id":"490018845N","lat":51.59207,"lon":-0.06998,"name":"St Loys Road","parentId":"490G00018845","stationId":"490G00018845","stopLetter":"G","topMostParentId":"490G00018845","towards":"Turnpike Lane Or Wood Green"},{"icsId":"1009360","id":"490009360N","lat":51.59789,"lon":-0.06811,"name":"Lordship Lane","parentId":"490G00009360","stationId":"490G00009360","stopLetter":"R","topMostParentId":"490G00009360","towards":"Northumberland Park Or Edmonton"},{"icsId":"1013738","id":"490013738N","lat":51.60202,"lon":-0.06791,"name":"Tottenham Sports Centre","parentId":"490G00013738","stationId":"490G00013738","stopLetter":"S","topMostParentId":"490G00013738","towards":"Edmonton Green"},{"icsId":"1013733","id":"490013733R","lat":51.60367,"lon":-0.06807,"name":"Tottenham Hotspur Football Club","parentId":"490G00013733","stationId":"490G00013733","stopLetter":"T","topMostParentId":"490G00013733","towards":"Edmonton Green"},{"icsId":"1001335","id":"490001335S","lat":51.60509,"lon":-0.06827,"name":"White Hart Lane Station","stopLetter":"U","topMostParentId":"490001335S","towards":"Edmonton Green"},{"icsId":"1004262","id":"490004262C","lat":51.60823,"lon":-0.06788,"name":"Brantwood Road","parentId":"490G00004262","stationId":"490G00004262","stopLetter":"V","topMostParentId":"490G00004262","towards":"Edmonton Green"},{"icsId":"1005690","id":"490005690N","lat":51.60976,"lon":-0.06638,"name":"Nutfield Close","parentId":"490G00005690","stationId":"490G00005690","stopLetter":"W","topMostParentId":"490G00005690","towards":"Ponders End"},{"icsId":"1005520","id":"490005520L","lat":51.61312,"lon":-0.06484,"name":"Colyton Way","parentId":"490G00005520","stationId":"490G00005520","stopLetter":"L","topMostParentId":"490G00005520","towards":"Ponders End"},{"icsId":"1003322","id":"490010801H","lat":51.61614,"lon":-0.06404,"name":"Angel Corner","parentId":"490G00003322","stationId":"490G00003322","stopLetter":"H","topMostParentId":"490G00003322","towards":"Ponders End"},{"icsId":"1010801","id":"490010801Z","lat":51.6178,"lon":-0.06341,"name":"Brettenham Road","topMostParentId":"490010801Z","towards":"Ponders End"},{"icsId":"1011968","id":"490011968N","lat":51.6209,"lon":-0.06212,"name":"Shrubbery Road","parentId":"490G00011968","stationId":"490G00011968","stopLetter":"L","topMostParentId":"490G00011968","towards":"Ponders End"},{"icsId":"1006445","id":"490006445B","lat":51.6227,"lon":-0.06157,"name":"Edmonton Police Station","parentId":"490G00006445","stationId":"490G00006445","stopLetter":"M","topMostParentId":"490G00006445","towards":"Bush Hill Park Or Ponders End"},{"icsId":"1001092","id":"490006442R","lat":51.62451,"lon":-0.06074,"name":"Edmonton Green Station","stopLetter":"N","topMostParentId":"490006442R","towards":"Ponders End Or Bush Hill Park"},{"icsId":"1009983","id":"490009983A","lat":51.62518,"lon":-0.05888,"name":"Edmonton Green Bus Station","parentId":"490G00009983","stationId":"490G00009983","stopLetter":"A","topMostParentId":"490G00009983"}]}]}