{"direction":"inbound","lineId":"262","lineName":"262","mode":"bus","stopPointSequences":[{"stopPoint":[{"icsId":"1012904","id":"490012904D","lat":51.54052,"lon":-0.00184,"name":"Stratford Bus Station","parentId":"490G000773","stationId":"490G000773","stopLetter":"D","topMostParentId":"HUBSRA"},{"icsId":"1012903","id":"490012903Z","lat":51.54037,"lon":0.00268,"name":"Stratford Broadway","parentId":"490G00012903","stationId":"490G00012903","stopLetter":"L","topMostParentId":"490G00012903","towards":"Canning Town, Plaistow Or Upton Park"},{"icsId":"1014466","id":"490014466S","lat":51.53756,"lon":0.00595,"name":"Barnby Street","parentId":"490G00014466","stationId":"490G00014466","stopLetter":"H","topMostParentId":"490G00014466","towards":"Canning Town, Plaistow Or Upton Park"},{"icsId":"1005308","id":"490005308S","lat":51.53576,"lon":0.00745,"name":"Church Street","parentId":"490G00005308","stationId":"490G00005308","stopLetter":"J","topMostParentId":"490G00005308","towards":"Canning Town Or Plaistow"},{"icsId":"1011043","id":"490011043E","lat":51.53408,"lon":0.01188,"name":"Plaistow Grove","parentId":"490G00011043","stationId":"490G00011043","stopLetter":"M","topMostParentId":"490G00011043","towards":"Newham Uni Hosp, Canning Town Or Custom Hse"},{"icsId":"1004674","id":"490004674J","lat":51.53313,"lon":0.01437,"name":"Morley Road","parentId":"490G00004674","stationId":"490G00004674","stopLetter":"J","topMostParentId":"490G00004674","towards":"Newham Uni Hosp, Canning Town Or Custom Hse"},{"icsId":"1000182","id":"490000182B","lat":51.53187,"lon":0.01714,"name":"Plaistow Station","stopLetter":"B","topMostParentId":"490000182B","towards":"Newham Uni Hosp, Canning Town Or Custom Hse","zone":"3"},{"icsId":"1014059","id":"490014059G","lat":51.53117,"lon":0.02021,"name":"Victoria Road","parentId":"490G00014059","stationId":"490G00014059","stopLetter":"G","topMostParentId":"490G00014059","towards":"Newham Uni Hosp, Canning Town Or Custom Hse"},{"icsId":"1008637","id":"490008637E","lat":51.53035,"lon":0.02205,"name":"Kennedy Close","parentId":"490G00008637","stationId":"490G00008637","stopLetter":"E","topMostParentId":"490G00008637","towards":"Custom House Or Newham University Hospital"},{"icsId":"1011045","id":"490011045S","lat":51.52956,"lon":0.02421,"name":"Balaam Street","parentId":"490G00011045","stationId":"490G00011045","stopLetter":"S","topMostParentId":"490G00011045","towards":"Newham General Hospital"},{"icsId":"1010953","id":"490010953S","lat":51.52805,"lon":0.02697,"name":"Perth Road","parentId":"490G00010953","stationId":"490G00010953","stopLetter":"GP","topMostParentId":"490G00010953","towards":"Newham University Hospital"},{"icsId":"1011041","id":"490011040S","lat":51.52687,"lon":0.02848,"name":"Barking Road","parentId":"490G00011041","stationId":"490G00011041","stopLetter":"GR","topMostParentId":"490G00011041","towards":"Newham University Hospital"},{"icsId":"1003730","id":"490003730S","lat":51.52506,"lon":0.02996,"name":"Beaumont Road","parentId":"490G00003730","stationId":"490G00003730","stopLetter":"GS","topMostParentId":"490G00003730","towards":"Keir Hardie Estate, Beckton Or City Airport"},{"icsId":"1020388","id":"490010215S","lat":51.52251,"lon":0.03107,"name":"Newham University Hosp / New Vic College","parentId":"490G000006","stationId":"490G000006","stopLetter":"HD","topMostParentId":"490G000006","towards":"Keir Hardie Estate, Becton Or City Airport"},{"icsId":"1003898","id":"490003898S","lat":51.51971,"lon":0.0324,"name":"Bennett Road","parentId":"490G00003898","stationId":"490G00003898","stopLetter":"A","topMostParentId":"490G00003898","towards":"Keir Hardie Estate, Beckton Or City Airport"},{"icsId":"1010216","id":"490010216S","lat":51.51844,"lon":0.03222,"name":"Newham Leisure Centre","parentId":"490G00010216","stationId":"490G00010216","stopLetter":"->S","topMostParentId":"490G00010216","towards":"Keir Hardie Estate, Beckton Or City Airport"},{"icsId":"1005505","id":"490005505E","lat":51.51703,"lon":0.03547,"name":"Colman Road","parentId":"490G00005505","stationId":"490G00005505","stopLetter":"H","topMostParentId":"490G00005505","towards":"Beckton Bus Station"},{"icsId":"1003753","id":"490003753E","lat":51.51682,"lon":0.03929,"name":"Sullivan Avenue","parentId":"490G00003753","stationId":"490G00003753","stopLetter":"J","topMostParentId":"490G00003753","towards":"Beckton Bus Station"},{"icsId":"1003748","id":"490003748E","lat":51.51658,"lon":0.04434,"name":"Beckton District Park","parentId":"490G00003748","stationId":"490G00003748","stopLetter":"CA","topMostParentId":"490G00003748","towards":"East Ham Or Gallions Reach"},{"icsId":"1006142","id":"490006142E","lat":51.51649,"lon":0.04647,"name":"Dove Approach","parentId":"490G00006142","stationId":"490G00006142","stopLetter":"BA","topMostParentId":"490G00006142","towards":"East Ham Or Gallions Reach"},{"icsId":"1013097","id":"490013097E","lat":51.51623,"lon":0.05335,"name":"Swallow Street","parentId":"490G00013097","stationId":"490G00013097","stopLetter":"BB","topMostParentId":"490G00013097","towards":"East Ham Or Gallions Reach"},{"icsId":"1008776","id":"490008776E","lat":51.51614,"lon":0.05644,"name":"Kingsford Way","parentId":"490G00008776","stationId":"490G00008776","stopLetter":"BC","topMostParentId":"490G00008776","towards":"East Ham Or Gallions Reach"},{"icsId":"1002011","id":"490002011H","lat":51.51369,"lon":0.06093,"name":"Beckton Station","stopLetter":"H","topMostParentId":"490002011H","towards":"Gallions Reach Or Newham University Hospital","zone":"3"},{"icsId":"1006389","id":"490006389E","lat":51.51209,"lon":0.06474,"name":"Covelees Wall","parentId":"490G00006389","stationId":"490G00006389","stopLetter":"G","topMostParentId":"490G00006389","towards":"Newham University Hospital Or Beckton Sainsburys"},{"icsId":"1008378","id":"490008378S","lat":51.51183,"lon":0.0671,"name":"Horse Leaze","parentId":"490G00008378","stationId":"490G00008378","stopLetter":"A","topMostParentId":"490G00008378","towards":"Cyprus Or Newham University Hosp"},{"icsId":"1007094","id":"490007094S","lat":51.5097,"lon":0.0696,"name":"Gallions Reach Roundabout","parentId":"490G000530","stationId":"490G000530","stopLetter":"B","topMostParentId":"490G000530","towards":"North Woolwich Or Beckton Sainsburys"},{"icsId":"1002039","id":"490002039E","lat":51.50846,"lon":0.07349,"name":"Gallions Reach Station","stopLetter":"C","topMostParentId":"490002039E","towards":"Gallions Retail Park","zone":"3"},{"icsId":"1018714","id":"490018714N","lat":51.50987,"lon":0.07488,"name":"Armada Point","parentId":"490G00018714","stationId":"490G00018714","stopLetter":"G","topMostParentId":"490G00018714","towards":"Gallions Retail Park"},{"icsId":"1018760","id":"490018760E","lat":51.51082,"lon":0.07921,"name":"Beckton Dlr Depot","parentId":"490G00018760","stationId":"490G00018760","stopLetter":"->E","topMostParentId":"490G00018760","towards":"Gallions Retail Park"},{"icsId":"1000425","id":"490018760N","lat":51.51275,"lon":0.08091,"name":"Hornet Way","parentId":"490G000074","stationId":"490G000074","stopLetter":"->N","topMostParentId":"490G000074","towards":"Gallions Retail Park"},{"icsId":"1016872","id":"490016872AP","lat":51.51651,"lon":0.07949,"name":"Gallions Reach Shopping Park","parentId":"490G00016872","stationId":"490G00016872","stopLetter":"AP","topMostParentId":"490G00016872"}]}]}