{"direction":"inbound","lineId":"267","lineName":"267","mode":"bus","stopPointSequences":[{"stopPoint":[{"icsId":"1012333","id":"490012333E","lat":51.43571,"lon":-0.34953,"name":"South Road / Fulwell","parentId":"490G00012333","stationId":"490G00012333","stopLetter":"F","topMostParentId":"490G00012333","towards":"Twickenham Or Whitton"},{"icsId":"1007064","id":"490007064E","lat":51.43664,"lon":-0.35045,"name":"Fulwell / Sixth Cross Road","parentId":"490G00007064","stationId":"490G00007064","stopLetter":"J","topMostParentId":"490G00007064","towards":"Isleworth, Richmond Or Whitton"},{"icsId":"1013765","id":"490013765N","lat":51.44026,"lon":-0.34697,"name":"Trafalgar Road / Prince of Wales","parentId":"490G00013765","stationId":"490G00013765","stopLetter":"SD","topMostParentId":"490G00013765","towards":"Isleworth, Richmond Or Whitton"},{"icsId":"1013865","id":"490013865N","lat":51.44203,"lon":-0.34423,"name":"The Prince Albert / Twickenham","parentId":"490G00013865","stationId":"490G00013865","stopLetter":"GA","topMostParentId":"490G00013865","towards":"Isleworth, Richmond Or Whitton"},{"icsId":"1013869","id":"490013869N","lat":51.44393,"lon":-0.34092,"name":"Twickenham Green","parentId":"490G00013869","stationId":"490G00013869","stopLetter":"GM","topMostParentId":"490G00013869","towards":"Isleworth, Richmond Or Whitton"},{"icsId":"1008009","id":"490008009E","lat":51.44541,"lon":-0.33593,"name":"Heath Road / Grove Avenue","parentId":"490G00008009","stationId":"490G00008009","stopLetter":"GP","topMostParentId":"490G00008009","towards":"Isleworth Or Richmond"},{"icsId":"1020202","id":"490008007T","lat":51.44551,"lon":-0.33062,"name":"Heath Road / Twickenham","parentId":"490G00020202","stationId":"490G00020202","stopLetter":"T","topMostParentId":"490G00020202","towards":"Isleworth Or Richmond"},{"icsId":"1013871","id":"490013870E","lat":51.44831,"lon":-0.32929,"name":"London Road / Twickenham","parentId":"490G00013871","stationId":"490G00013871","stopLetter":"E","topMostParentId":"490G00013871","towards":"Isleworth Or Twickenham Stadium"},{"icsId":"1001300","id":"490013861B","lat":51.45017,"lon":-0.33111,"name":"Twickenham Station","stopLetter":"B","topMostParentId":"490013861B","towards":"Brentford Or Twickenham Stadium"},{"icsId":"1014638","id":"490014638E2","lat":51.45165,"lon":-0.33118,"name":"Whitton Road","parentId":"490G00014638","stationId":"490G00014638","stopLetter":"M","topMostParentId":"490G00014638","towards":"Brentford Or West Middlesex Hospital"},{"icsId":"1008247","id":"490008247N","lat":51.45481,"lon":-0.33018,"name":"Hill View Road","parentId":"490G00008247","stationId":"490G00008247","stopLetter":"N","topMostParentId":"490G00008247","towards":"Brentford Or West Middlesex Hospital"},{"icsId":"1008524","id":"490008524N","lat":51.45763,"lon":-0.33075,"name":"Ivybridge","parentId":"490G00008524","stationId":"490G00008524","stopLetter":"P","topMostParentId":"490G00008524","towards":"Brentford Or West Middlesex Hospital"},{"icsId":"1005700","id":"490005700N","lat":51.4591,"lon":-0.331,"name":"Crane Avenue","parentId":"490G00005700","stationId":"490G00005700","stopLetter":"Q","topMostParentId":"490G00005700","towards":"Brentford Or West Middlesex Hospital"},{"icsId":"1009969","id":"490009961N1","lat":51.46096,"lon":-0.33187,"name":"Woodstock Avenue","parentId":"490G00009969","stationId":"490G00009969","stopLetter":"R","topMostParentId":"490G00009969","towards":"Brentford Or West Middlesex Hospital"},{"icsId":"1003580","id":"490003580N","lat":51.46363,"lon":-0.33165,"name":"Lynton Close","parentId":"490G00003580","stationId":"490G00003580","stopLetter":"Z","topMostParentId":"490G00003580","towards":"Brentford Or West Middlesex Hospital"},{"icsId":"1008513","id":"490008511N","lat":51.46632,"lon":-0.33009,"name":"Isleworth Leisure Centre and Library","parentId":"490G00008513","stationId":"490G00008513","stopLetter":"TN","topMostParentId":"490G00008513","towards":"Brentford Or West Middlesex Hospital"},{"icsId":"1014954","id":"490014954TT","lat":51.46807,"lon":-0.32976,"name":"Worton Road","parentId":"490G00014954","stationId":"490G00014954","stopLetter":"TT","topMostParentId":"490G00014954","towards":"Brentford Or West Middlesex Hospital"},{"icsId":"1008512","id":"490008512TJ","lat":51.46992,"lon":-0.32876,"name":"Isleworth War Memorial","parentId":"490G00008512","stationId":"490G00008512","stopLetter":"TJ","topMostParentId":"490G00008512","towards":"Brentford Or West Middlesex Hospital"},{"icsId":"1009538","id":"490009538N","lat":51.47248,"lon":-0.32831,"name":"Mandeville Road","parentId":"490G00009538","stationId":"490G00009538","stopLetter":"TG","topMostParentId":"490G00009538","towards":"Brentford Or West Middlesex Hospital"},{"icsId":"1014503","id":"490014493N","lat":51.47524,"lon":-0.32629,"name":"Twickenham Rd / West Middlesex Hospital","parentId":"490G00014503","stationId":"490G00014503","stopLetter":"HC","topMostParentId":"490G00014503","towards":"Brentford Or Osterley"},{"icsId":"1019150","id":"490004635TD","lat":51.47787,"lon":-0.32357,"name":"Park Road","parentId":"490G00019150","stationId":"490G00019150","stopLetter":"TD","topMostParentId":"490G00019150","towards":"Brentford Or Osterley"},{"icsId":"1015029","id":"490015029E","lat":51.47921,"lon":-0.32164,"name":"Busch Corner","parentId":"490G00015029","stationId":"490G00015029","stopLetter":"T","topMostParentId":"490G00015029","towards":"Chiswick Or Osterley Tesco"},{"icsId":"1013141","id":"490013141E","lat":51.47999,"lon":-0.3191,"name":"Syon Lane","parentId":"490G00013141","stationId":"490G00013141","stopLetter":"X","topMostParentId":"490G00013141","towards":"Chiswick Or Hanwell"},{"icsId":"1003804","id":"490003804E","lat":51.48102,"lon":-0.31623,"name":"Beech Avenue","parentId":"490G00003804","stationId":"490G00003804","stopLetter":"->E","topMostParentId":"490G00003804","towards":"Chiswick Or Hanwell"},{"icsId":"1004296","id":"490004296E","lat":51.48204,"lon":-0.31357,"name":"Brent Lea","parentId":"490G00004296","stationId":"490G00004296","stopLetter":"->E","topMostParentId":"490G00004296","towards":"Chiswick Or Hanwell"},{"icsId":"1004292","id":"490004292F","lat":51.48339,"lon":-0.30733,"name":"Market Place","parentId":"490G00004292","stationId":"490G00004292","stopLetter":"BN","topMostParentId":"490G00004292","towards":"Chiswick, Hanwell Or Northfields"},{"icsId":"1002372","id":"490004289D","lat":51.48493,"lon":-0.30213,"name":"Brentford County Court","parentId":"490G00002372","stationId":"490G00002372","stopLetter":"BP","topMostParentId":"490G00002372","towards":"Chiswick"},{"icsId":"1006297","id":"490006297W","lat":51.48616,"lon":-0.29851,"name":"Watermans Centre","parentId":"490G00006297","stationId":"490G00006297","stopLetter":"BE","topMostParentId":"490G00006297","towards":"Chiswick Or Kew"},{"icsId":"1004293","id":"490004293E","lat":51.48749,"lon":-0.2939,"name":"The Musical Museum","parentId":"490G00004293","stationId":"490G00004293","stopLetter":"BF","topMostParentId":"490G00004293","towards":"Chiswick Or Richmond"},{"icsId":"1008690","id":"490008690E","lat":51.48855,"lon":-0.29033,"name":"London Museum of Water and Steam","parentId":"490G00008690","stationId":"490G00008690","stopLetter":"Y","topMostParentId":"490G00008690","towards":"Chiswick Or Richmond"},{"icsId":"1001167","id":"490001167X","lat":51.48939,"lon":-0.28713,"name":"Kew Bridge Station","stopLetter":"X","topMostParentId":"490001167X","towards":"Chiswick"},{"icsId":"1004290","id":"490004290Q","lat":51.49077,"lon":-0.28437,"name":"Brentford Fountain Leisure Centre","parentId":"490G00004290","stationId":"490G00004290","stopLetter":"L","topMostParentId":"490G00004290","towards":"Chiswick"},{"icsId":"1002191","id":"490010687K","lat":51.49226,"lon":-0.27796,"name":"Thorney Hedge Road","parentId":"490G000750","stationId":"490G000750","stopLetter":"K","topMostParentId":"490G000750","towards":"Hammersmith Or Shepherd's Bush"},{"icsId":"1000094","id":"490000094B","lat":51.49244,"lon":-0.27578,"name":"Gunnersbury Station","stopLetter":"B","topMostParentId":"490000094B","towards":"Hammersmith Or Shepherd's Bush","zone":"3"},{"icsId":"1005211","id":"490005211E","lat":51.49299,"lon":-0.27083,"name":"Chiswick Road","parentId":"490G00005211","stationId":"490G00005211","stopLetter":"S","topMostParentId":"490G00005211","towards":"Hammersmith Or Shepherd's Bush"},{"icsId":"1013848","id":"490013848DD","lat":51.49264,"lon":-0.26488,"name":"Turnham Green Church","parentId":"490G000807","stationId":"490G000807","stopLetter":"DD","topMostParentId":"490G000807","towards":"Hammersmith Or Shepherd's Bush"},{"icsId":"1005423","id":"490005423GG","lat":51.49251,"lon":-0.26151,"name":"Clifton Gardens","parentId":"490G00005423","stationId":"490G00005423","stopLetter":"GG","topMostParentId":"490G00005423","towards":"Hammersmith Or Shepherd's Bush"},{"icsId":"1000498","id":"490005210HH","lat":51.49264,"lon":-0.25809,"name":"Windmill Road","parentId":"490G00000498","stationId":"490G00000498","stopLetter":"HH","topMostParentId":"490G00000498","towards":"Hammersmith Or Shepherd's Bush"},{"icsId":"1013850","id":"490013850OO","lat":51.49285,"lon":-0.2541,"name":"Chiswick Lane","parentId":"490G00013850","stationId":"490G00013850","stopLetter":"OO","topMostParentId":"490G00013850","towards":"Hammersmith Or Shepherd's Bush"},{"icsId":"1012521","id":"490012521E","lat":51.49315,"lon":-0.24929,"name":"Stamford Brook Bus Garage","parentId":"490G00012521","stationId":"490G00012521","stopLetter":"H","topMostParentId":"490G00012521","towards":"Hammersmith Or Shepherd's Bush"},{"icsId":"1007273","id":"490007273M","lat":51.49341,"lon":-0.24676,"name":"Goldhawk Road / Young's Corner","parentId":"490G000535","stationId":"490G000535","stopLetter":"M","topMostParentId":"490G000535","towards":"Hammersmith"},{"icsId":"1002280","id":"490002280ZZ","lat":51.49354,"lon":-0.24335,"name":"Westcroft Square","parentId":"490G00002280","stationId":"490G00002280","stopLetter":"->W","topMostParentId":"490G00002280","towards":"Hammersmith Broadway"},{"icsId":"1012533","id":"490015027F","lat":51.49348,"lon":-0.23827,"name":"Ravenscourt Park","parentId":"490G00012533","stationId":"490G00012533","stopLetter":"F","topMostParentId":"490G00012533","towards":"Hammersmith Broadway"},{"icsId":"1000188","id":"490011438E","lat":51.49327,"lon":-0.23712,"name":"Ravenscourt Park Station","stopLetter":"E","topMostParentId":"490011438E","towards":"Hammersmith Broadway","zone":"2"},{"icsId":"1005937","id":"490005937E","lat":51.49298,"lon":-0.23523,"name":"Dalling Road","parentId":"490G00005937","stationId":"490G00005937","stopLetter":"C","topMostParentId":"490G00005937","towards":"Hammersmith Broadway"},{"icsId":"1015588","id":"490015588E","lat":51.49443,"lon":-0.23261,"name":"Lamington Street","parentId":"490G00015588","stationId":"490G00015588","stopLetter":"->E","topMostParentId":"490G00015588","towards":"Hammersmith"},{"icsId":"1007239","id":"490007239E","lat":51.49457,"lon":-0.23012,"name":"Iffley Road","parentId":"490G00007239","stationId":"490G00007239","stopLetter":"->E","topMostParentId":"490G00007239","towards":"Fulham Or Kensington"},{"icsId":"1000097","id":"490000097T","lat":51.49334,"lon":-0.22521,"name":"Hammersmith Stn / H&c and Circle Lines","stopLetter":"W","topMostParentId":"490000097T","towards":"Fulham, Kensington Or West Brompton","zone":"2"},{"icsId":"1007705","id":"490007705F","lat":51.49216,"lon":-0.22352,"name":"Hammersmith Bus Station","parentId":"490G000565","stationId":"490G000565","stopLetter":"E","topMostParentId":"HUBHMS"}]}]}