{"direction":"inbound","lineId":"268","lineName":"268","mode":"bus","stopPointSequences":[{"stopPoint":[{"icsId":"1010471","id":"490010471Z","lat":51.54826,"lon":-0.18342,"name":"O2 Centre / Sainsbury's","parentId":"490G00010471","stationId":"490G00010471","stopLetter":"FC","topMostParentId":"490G00010471","towards":"Hampstead Or St John's Wood"},{"icsId":"1011854","id":"490011854C","lat":51.54799,"lon":-0.1863,"name":"O2 Centre / Homebase","parentId":"490G00011854","stationId":"490G00011854","stopLetter":"FB","topMostParentId":"490G00011854","towards":"Hampstead Or St John's Wood"},{"icsId":"1000307","id":"490007045FH","lat":51.54795,"lon":-0.18049,"name":"O2 Centre","parentId":"490G00000307","stationId":"490G00000307","stopLetter":"FH","topMostParentId":"490G00000307","towards":"Hampstead Or St John's Wood"},{"icsId":"1000082","id":"490000082FJ","lat":51.54635,"lon":-0.17888,"name":"Finchley Road Station","stopLetter":"FJ","topMostParentId":"490000082FJ","towards":"St John's Wood Or Hampstead","zone":"2"},{"icsId":"1019775","id":"490005487B","lat":51.54453,"lon":-0.17565,"name":"Finchley Road / College Crescent","parentId":"490G00019775","stationId":"490G00019775","stopLetter":"B","topMostParentId":"490G00019775","towards":"St John's Wood Or Hampstead"},{"icsId":"1005486","id":"490005486F","lat":51.54416,"lon":-0.17495,"name":"College Crescent","parentId":"490G00005486","stationId":"490G00005486","stopLetter":"F","topMostParentId":"490G00005486","towards":"Hampstead"},{"icsId":"1004561","id":"490004561E","lat":51.54541,"lon":-0.17353,"name":"Buckland Crescent","parentId":"490G00004561","stationId":"490G00004561","stopLetter":"U","topMostParentId":"490G00004561","towards":"Hampstead"},{"icsId":"1003878","id":"490003878E","lat":51.54779,"lon":-0.17232,"name":"Belsize Square","parentId":"490G00003878","stationId":"490G00003878","stopLetter":"V","topMostParentId":"490G00003878","towards":"Hampstead High Street"},{"icsId":"1003879","id":"490003879E","lat":51.54929,"lon":-0.16992,"name":"Belsize Village","parentId":"490G00003879","stationId":"490G00003879","stopLetter":"W","topMostParentId":"490G00003879","towards":"Hampstead"},{"icsId":"1019034","id":"490003874H","lat":51.5507,"lon":-0.1676,"name":"Haverstock Hill","parentId":"490G00019034","stationId":"490G00019034","stopLetter":"H","topMostParentId":"490G00019034","towards":"Hampstead"},{"icsId":"1011714","id":"490015255G","lat":51.55278,"lon":-0.1685,"name":"Rosslyn Hill","parentId":"490G00011714","stationId":"490G00011714","stopLetter":"G","topMostParentId":"490G00011714","towards":"Hampstead High Street Or Gospel Oak"},{"icsId":"1011000","id":"490011000N","lat":51.55467,"lon":-0.17256,"name":"Pilgrim's Lane","parentId":"490G00011000","stationId":"490G00011000","stopLetter":"A","topMostParentId":"490G00011000","towards":"Golders Green Or Swiss Cottage"},{"icsId":"1000098","id":"490000098B","lat":51.55596,"lon":-0.1775,"name":"Hampstead Station","stopLetter":"B","topMostParentId":"490000098B","towards":"Golders Green Or Swiss Cottage","zone":"2+3"},{"icsId":"1008547","id":"490008531N1","lat":51.56054,"lon":-0.1791,"name":"Whitestone Pond / Jack Straw's Castle","parentId":"490G00008547","stationId":"490G00008547","stopLetter":"E","topMostParentId":"490G00008547","towards":"Golders Green"},{"icsId":"1008490","id":"490008490N","lat":51.56365,"lon":-0.18033,"name":"Inverforth House","parentId":"490G00008490","stationId":"490G00008490","stopLetter":"F","topMostParentId":"490G00008490","towards":"Golders Green"},{"icsId":"1020289","id":"490009562W","lat":51.56799,"lon":-0.18369,"name":"North End Road / Golders Hill Park","parentId":"490G00020289","stationId":"490G00020289","stopLetter":"->W","topMostParentId":"490G00020289","towards":"Golders Green"},{"icsId":"1014346","id":"490014346W","lat":51.5702,"lon":-0.1878,"name":"Wellgarth Road","parentId":"490G00014346","stationId":"490G00014346","stopLetter":"->W","topMostParentId":"490G00014346","towards":"Brent Cross"},{"icsId":"1000087","id":"490000087GK","lat":51.5714,"lon":-0.19367,"name":"Golders Green Station","stopLetter":"GK","topMostParentId":"490000087GK","towards":"Hendon Central Or Brent Cross","zone":"3"},{"icsId":"1000087","id":"490000087B","lat":51.57209,"lon":-0.19488,"name":"Golders Green Station","stopLetter":"B","topMostParentId":"490000087B","zone":"3"}]}]}