{"direction":"inbound","lineId":"272","lineName":"272","mode":"bus","stopPointSequences":[{"stopPoint":[{"icsId":"1012068","id":"490012068S","lat":51.50387,"lon":-0.22424,"name":"Shepherds Bush Green","parentId":"490G000742","stationId":"490G000742","stopLetter":"N","topMostParentId":"490G000742","towards":"Ladbroke Grove, White City Or Queensway"},{"icsId":"1009501","id":"490009501Q","lat":51.50634,"lon":-0.2247,"name":"Uxbridge Rd / Westfield Shopping Centre","parentId":"490G000650","stationId":"490G000650","stopLetter":"S","topMostParentId":"490G000650","towards":"East Acton Or Harlesden"},{"icsId":"1018981","id":"490018981ZW","lat":51.50844,"lon":-0.22472,"name":"Ariel Way / White City Bus Station","parentId":"490G00018981","stationId":"490G00018981","stopLetter":"WD","topMostParentId":"490G00018981","towards":"East Acton Or Harlesden"},{"icsId":"1000269","id":"490000269N","lat":51.512,"lon":-0.22504,"name":"White City Station","stopLetter":"WE","topMostParentId":"490000269N","towards":"East Acton Or Harlesden","zone":"2"},{"icsId":"1012238","id":"490012238N","lat":51.51332,"lon":-0.2256,"name":"Westway","parentId":"490G000748","stationId":"490G000748","stopLetter":"N","topMostParentId":"490G000748","towards":"East Acton Or Harlesden"},{"icsId":"1014876","id":"490014869N","lat":51.5163,"lon":-0.22692,"name":"Cavell House","parentId":"490G00014876","stationId":"490G00014876","stopLetter":"P","topMostParentId":"490G00014876","towards":"East Acton Or Harlesden"},{"icsId":"1014869","id":"490014869W","lat":51.51666,"lon":-0.22888,"name":"Latymer Upper School / Playing Fields","parentId":"490G00014869","stationId":"490G00014869","stopLetter":"D","topMostParentId":"490G00014869","towards":"Acton Or East Acton"},{"icsId":"1007707","id":"490007707FF","lat":51.516,"lon":-0.23635,"name":"Hammersmith Hospital","parentId":"490G00007707","stationId":"490G00007707","stopLetter":"F","topMostParentId":"490G00007707","towards":"Acton Or Chiswick"},{"icsId":"1014971","id":"490014971G","lat":51.5155,"lon":-0.24359,"name":"Wulfstan Street","parentId":"490G00014971","stationId":"490G00014971","stopLetter":"G","topMostParentId":"490G00014971","towards":"Acton Or Chiswick"},{"icsId":"1000065","id":"490000065H","lat":51.51518,"lon":-0.24859,"name":"East Acton Station","stopLetter":"H","topMostParentId":"490000065H","towards":"Acton, Chiswick Or Brunel Road","zone":"2"},{"icsId":"1014446","id":"490014446I","lat":51.51426,"lon":-0.24904,"name":"Westway","parentId":"490G00014446","stationId":"490G00014446","stopLetter":"D","topMostParentId":"490G00014446","towards":"Chiswick, Acton Or White City"},{"icsId":"1011944","id":"490011937J","lat":51.5134,"lon":-0.24845,"name":"East Acton Lane / Old Oak Road","parentId":"490G00011944","stationId":"490G00011944","stopLetter":"J","topMostParentId":"490G00011944","towards":"Acton, Chiswick Or Shepherd's Bush"},{"icsId":"1015227","id":"490015227S","lat":51.51147,"lon":-0.24681,"name":"Hemlock Road","parentId":"490G00015227","stationId":"490G00015227","stopLetter":"W","topMostParentId":"490G00015227","towards":"Shepherd's Bush Or Chiswick"},{"icsId":"1012678","id":"490012678S","lat":51.50966,"lon":-0.24593,"name":"Steventon Road","parentId":"490G00012678","stationId":"490G00012678","stopLetter":"OA","topMostParentId":"490G00012678","towards":"Shepherd's Bush Or Chiswick"},{"icsId":"1018989","id":"490013972S","lat":51.50734,"lon":-0.24524,"name":"Uxbridge Road","parentId":"490G00018989","stationId":"490G00018989","stopLetter":"OB","topMostParentId":"490G00018989","towards":"Shepherd's Bush Or Chiswick"},{"icsId":"1013612","id":"490013612W","lat":51.50661,"lon":-0.24883,"name":"Third Avenue","parentId":"490G00013612","stationId":"490G00013612","stopLetter":"VK","topMostParentId":"490G00013612","towards":"Chiswick, Ealing Or North Acton"},{"icsId":"1004438","id":"490004438W","lat":51.50663,"lon":-0.25142,"name":"Acton Vale / Bromyard Avenue","parentId":"490G00004438","stationId":"490G00004438","stopLetter":"VL","topMostParentId":"490G00004438","towards":"Chiswick, Ealing Or North Acton"},{"icsId":"1018676","id":"490018676S","lat":51.5028,"lon":-0.25203,"name":"Larden Road / Factory Quarter","parentId":"490G00018676","stationId":"490G00018676","stopLetter":"->S","topMostParentId":"490G00018676"},{"icsId":"1003060","id":"490003060W","lat":51.49679,"lon":-0.25005,"name":"Abinger Road","parentId":"490G00003060","stationId":"490G00003060","stopLetter":"->W","topMostParentId":"490G00003060","towards":"Acton Green Or Grove Park"},{"icsId":"1000240","id":"490000240MM","lat":51.49579,"lon":-0.2545,"name":"Turnham Green Station","stopLetter":"MM","topMostParentId":"490000240MM","towards":"Acton Green Or Grove Park","zone":"2+3"},{"icsId":"1018850","id":"490018850W","lat":51.49542,"lon":-0.25931,"name":"Esmond Road","parentId":"490G00018850","stationId":"490G00018850","stopLetter":"M","topMostParentId":"490G00018850","towards":"Acton Green Or Chiswick"},{"icsId":"1006861","id":"490006861U","lat":51.49273,"lon":-0.25983,"name":"Fishers Lane","parentId":"490G00006861","stationId":"490G00006861","stopLetter":"ZZ","topMostParentId":"490G00006861","towards":"Grove Park"},{"icsId":"1013848","id":"490013848UU","lat":51.4925,"lon":-0.26458,"name":"Turnham Green Church","parentId":"490G000807","stationId":"490G000807","stopLetter":"UU","topMostParentId":"490G000807","towards":"Edensor Road, Grove Park Or Gunnersbury"},{"icsId":"1005213","id":"490005213WW","lat":51.49088,"lon":-0.26556,"name":"Chiswick Town Hall","parentId":"490G00005213","stationId":"490G00005213","stopLetter":"WW","topMostParentId":"490G00005213","towards":"Grove Park"},{"icsId":"1003654","id":"490003654S","lat":51.4882,"lon":-0.26672,"name":"Barrowgate Road","parentId":"490G00003654","stationId":"490G00003654","stopLetter":"H","topMostParentId":"490G00003654","towards":"Grove Park"},{"icsId":"1005128","id":"490005128S","lat":51.48541,"lon":-0.26857,"name":"Chesterfield Road","parentId":"490G00005128","stationId":"490G00005128","stopLetter":"J","topMostParentId":"490G00005128","towards":"Edensor Road Or Grove Park"},{"icsId":"1009012","id":"490009012S","lat":51.4837,"lon":-0.26947,"name":"Lawford Road","parentId":"490G00009012","stationId":"490G00009012","stopLetter":"K","topMostParentId":"490G00009012","towards":"Edensor Road Or Grove Park"},{"icsId":"1007571","id":"490007571S","lat":51.48123,"lon":-0.26979,"name":"Grove Park Road","parentId":"490G000554","stationId":"490G000554","stopLetter":"AP","topMostParentId":"490G000554","towards":"Grove Park"},{"icsId":"1004888","id":"490004888S","lat":51.47872,"lon":-0.26866,"name":"Cavendish Road","parentId":"490G00004888","stationId":"490G00004888","stopLetter":"AR","topMostParentId":"490G00004888","towards":"Acton"}]}]}