{"direction":"inbound","lineId":"273","lineName":"273","mode":"bus","stopPointSequences":[{"stopPoint":[{"icsId":"1015388","id":"490015388D","lat":51.38923,"lon":0.07424,"name":"Station Square / Petts Wood Station","parentId":"490G000891","stationId":"490G000891","stopLetter":"D","topMostParentId":"490G000891","towards":"Chislehurst Or Orpington"},{"icsId":"1014868","id":"490014868F","lat":51.39042,"lon":0.07563,"name":"Woodland Way","parentId":"490G00014868","stationId":"490G00014868","stopLetter":"F","topMostParentId":"490G00014868","towards":"Chislehurst Or Orpington"},{"icsId":"1005819","id":"490005819E","lat":51.39067,"lon":0.08038,"name":"Crossway","parentId":"490G00005819","stationId":"490G00005819","stopLetter":"->E","topMostParentId":"490G00005819","towards":"Chislehurst Or Orpington"},{"icsId":"1010978","id":"490010978E","lat":51.39086,"lon":0.08536,"name":"Petts Wood Road","parentId":"490G00010978","stationId":"490G00010978","stopLetter":"R","topMostParentId":"490G00010978","towards":"Chislehurst Or Orpington"},{"icsId":"1008906","id":"490008906E","lat":51.39115,"lon":0.0891,"name":"Ladywood Avenue","parentId":"490G00008906","stationId":"490G00008906","stopLetter":"S","topMostParentId":"490G00008906","towards":"Chislehurst Or Orpington"},{"icsId":"1005202","id":"490005202E","lat":51.39103,"lon":0.09227,"name":"Poverest Road / Chislehurst Road","parentId":"490G00005202","stationId":"490G00005202","stopLetter":"T","topMostParentId":"490G00005202","towards":"Chislehurst Or Orpington"},{"icsId":"1005268","id":"490005268E","lat":51.39071,"lon":0.09615,"name":"Poverest Road / Church Hill Wood","parentId":"490G00005268","stationId":"490G00005268","stopLetter":"U","topMostParentId":"490G00005268","towards":"Chislehurst Or Orpington"},{"icsId":"1005729","id":"490005729E","lat":51.39004,"lon":0.10043,"name":"Cray Valley Road","parentId":"490G00005729","stationId":"490G00005729","stopLetter":"->E","topMostParentId":"490G00005729","towards":"Chislehurst"},{"icsId":"1003486","id":"490003486E","lat":51.3895,"lon":0.10344,"name":"Austin Road","parentId":"490G00003486","stationId":"490G00003486","stopLetter":"->E","topMostParentId":"490G00003486","towards":"Chislehurst"},{"icsId":"1009653","id":"490009653E","lat":51.38923,"lon":0.1052,"name":"Marion Crescent","parentId":"490G00009653","stationId":"490G00009653","stopLetter":"SW","topMostParentId":"490G00009653","towards":"Chislehurst Or Orpington"},{"icsId":"1010455","id":"490010455SJ","lat":51.39175,"lon":0.11076,"name":"Nugent Retail Park","parentId":"490G00010455","stationId":"490G00010455","stopLetter":"SJ","topMostParentId":"490G00010455","towards":"Chislehurst, Grovelands Or Sidcup"},{"icsId":"1012606","id":"490012606SD","lat":51.39508,"lon":0.11087,"name":"St Mary Cray / Station Approach","parentId":"490G00012606","stationId":"490G00012606","stopLetter":"SD","topMostParentId":"490G00012606","towards":"Chislehurst, Grovelands Or Sidcup"},{"icsId":"1001271","id":"490001271SA","lat":51.39574,"lon":0.10721,"name":"St Mary Cray Station","stopLetter":"SA","topMostParentId":"490001271SA","towards":"Sidcup"},{"icsId":"1009068","id":"490009068W","lat":51.39783,"lon":0.10545,"name":"Leesons Primary School","parentId":"490G00009068","stationId":"490G00009068","stopLetter":"T","topMostParentId":"490G00009068","towards":"Chislehurst Or Grovelands"},{"icsId":"1005361","id":"490005361W","lat":51.39736,"lon":0.10209,"name":"Clarendon Way","parentId":"490G00005361","stationId":"490G00005361","stopLetter":"U","topMostParentId":"490G00005361","towards":"Chislehurst Or Grovelands"},{"icsId":"1009556","id":"490009556W","lat":51.39895,"lon":0.09634,"name":"Manorfields Close","parentId":"490G00009556","stationId":"490G00009556","stopLetter":"V","topMostParentId":"490G00009556","towards":"Chislehurst Or Grovelands"},{"icsId":"1009679","id":"490009679W","lat":51.39968,"lon":0.09334,"name":"Marlings Park Avenue","parentId":"490G00009679","stationId":"490G00009679","stopLetter":"DK","topMostParentId":"490G00009679","towards":"Chislehurst Or Grovelands"},{"icsId":"1009067","id":"490009067N","lat":51.40235,"lon":0.08633,"name":"St Pauls Cray Road / Leesons Hill","parentId":"490G00009067","stationId":"490G00009067","stopLetter":"DA","topMostParentId":"490G00009067","towards":"Chislehurst"},{"icsId":"1009572","id":"490009572N","lat":51.40938,"lon":0.07916,"name":"Manor Park Road","parentId":"490G00009572","stationId":"490G00009572","stopLetter":"->N","topMostParentId":"490G00009572","towards":"Chislehurst And Grove Park"},{"icsId":"1005199","id":"490005197E","lat":51.41073,"lon":0.07739,"name":"St Pauls Cray Road / Church Lane","parentId":"490G00005199","stationId":"490G00005199","stopLetter":"W","topMostParentId":"490G00005199","towards":"Chislehurst and Grove Park"},{"icsId":"1005205","id":"490005205N","lat":51.41344,"lon":0.07267,"name":"Centre Common Road / War Memorial","parentId":"490G00005205","stationId":"490G00005205","stopLetter":"N","topMostParentId":"490G00005205","towards":"Eltham Or Grove Park"},{"icsId":"1010817","id":"490011196L","lat":51.41662,"lon":0.0691,"name":"Chislehurst / Ashfield Lane","parentId":"490G00010817","stationId":"490G00010817","stopLetter":"L","topMostParentId":"490G00010817","towards":"Eltham Or Grove Park"},{"icsId":"1005204","id":"490005204J","lat":51.41884,"lon":0.06679,"name":"Chislehurst Sainsbury's","parentId":"490G00005204","stationId":"490G00005204","stopLetter":"A","topMostParentId":"490G00005204","towards":"Eltham Or Grove Park"},{"icsId":"1013496","id":"490013496N","lat":51.42187,"lon":0.06212,"name":"Ingleby Way","parentId":"490G00013496","stationId":"490G00013496","stopLetter":"B","topMostParentId":"490G00013496","towards":"Eltham Or Grove Park"},{"icsId":"1010478","id":"490010478W","lat":51.4247,"lon":0.05831,"name":"Oakdene Avenue","parentId":"490G00010478","stationId":"490G00010478","stopLetter":"P","topMostParentId":"490G00010478","towards":"Eltham Or Grove Park"},{"icsId":"1006521","id":"490006521N","lat":51.42787,"lon":0.05432,"name":"Elmstead Lane","parentId":"490G00006521","stationId":"490G00006521","stopLetter":"Q","topMostParentId":"490G00006521","towards":"Eltham Or Grove Park"},{"icsId":"1006254","id":"490006254W","lat":51.42893,"lon":0.05251,"name":"Dunkery Road / Mottingham Road","parentId":"490G00006254","stationId":"490G00006254","stopLetter":"R","topMostParentId":"490G00006254","towards":"Grove Park"},{"icsId":"1015403","id":"490015403W","lat":51.42878,"lon":0.04912,"name":"Dunkery Road / Ravensworth Road","parentId":"490G00015403","stationId":"490G00015403","stopLetter":"S","topMostParentId":"490G00015403","towards":"Grove Park"},{"icsId":"1003709","id":"490003709W","lat":51.42972,"lon":0.04556,"name":"Beaconsfield Road","parentId":"490G00003709","stationId":"490G00003709","stopLetter":"T","topMostParentId":"490G00003709","towards":"Grove Park"},{"icsId":"1005655","id":"490005655W","lat":51.42975,"lon":0.04199,"name":"Court Farm Road","parentId":"490G00005655","stationId":"490G00005655","stopLetter":"G","topMostParentId":"490G00005655","towards":"Grove Park"},{"icsId":"1006215","id":"490006215W","lat":51.429,"lon":0.03806,"name":"Duddington Close","parentId":"490G00006215","stationId":"490G00006215","stopLetter":"H","topMostParentId":"490G00006215","towards":"Grove Park"},{"icsId":"1008073","id":"490008073W","lat":51.42803,"lon":0.0344,"name":"Henry Cooper Way","parentId":"490G00008073","stationId":"490G00008073","stopLetter":"J","topMostParentId":"490G00008073","towards":"Grove Park"},{"icsId":"1009706","id":"490009706N1","lat":51.42858,"lon":0.03368,"name":"Marvels Lane Primary School","parentId":"490G00009706","stationId":"490G00009706","stopLetter":"K","topMostParentId":"490G00009706","towards":"Bromley, Catford Or Lee"},{"icsId":"1013403","id":"490013403N","lat":51.43122,"lon":0.03165,"name":"Marvels Lane / Chinbrook Road","parentId":"490G00013403","stationId":"490G00013403","stopLetter":"L","topMostParentId":"490G00013403","towards":"Bromley, Catford Or Lee"},{"icsId":"1009634","id":"490009634N","lat":51.43304,"lon":0.02909,"name":"Marbrook Court","parentId":"490G00009634","stationId":"490G00009634","stopLetter":"->N","topMostParentId":"490G00009634","towards":"Catford Or Lee"},{"icsId":"1007568","id":"490007568W","lat":51.43271,"lon":0.02568,"name":"Le May Avenue / Luffman Road","parentId":"490G00007568","stationId":"490G00007568","stopLetter":"U","topMostParentId":"490G00007568","towards":"Lee"},{"icsId":"1018573","id":"490018573W","lat":51.43268,"lon":0.02194,"name":"Baring Road","parentId":"490G00018573","stationId":"490G00018573","stopLetter":"V","topMostParentId":"490G00018573","towards":"Lee"},{"icsId":"1018572","id":"490018572N","lat":51.43362,"lon":0.02087,"name":"St Augustine's Church","parentId":"490G00018572","stationId":"490G00018572","stopLetter":"N","topMostParentId":"490G00018572","towards":"Lee Or Grove Park Cemetery"},{"icsId":"1015292","id":"490015292N","lat":51.43524,"lon":0.01998,"name":"Baring Road / Coopers Lane","parentId":"490G00015292","stationId":"490G00015292","stopLetter":"P","topMostParentId":"490G00015292","towards":"Grove Park Cemetery Or Lee"},{"icsId":"1004611","id":"490004611S","lat":51.44252,"lon":0.01905,"name":"Guibal Road","parentId":"490G00004611","stationId":"490G00004611","stopLetter":"->S","topMostParentId":"490G00004611"},{"icsId":"1003550","id":"490003550N","lat":51.44554,"lon":0.01534,"name":"Horncastle Road","parentId":"490G00003550","stationId":"490G00003550","stopLetter":"->N","topMostParentId":"490G00003550"},{"icsId":"1014480","id":"490014480N","lat":51.44708,"lon":0.01381,"name":"Westhorne Avenue","parentId":"490G00014480","stationId":"490G00014480","stopLetter":"C","topMostParentId":"490G00014480","towards":"Blackheath Or Lewisham"},{"icsId":"1001176","id":"490001176N","lat":51.44839,"lon":0.01304,"name":"Lee Station","stopLetter":"A","topMostParentId":"490001176N","towards":"Blackheath Or Lewisham"},{"icsId":"1018709","id":"490018709W","lat":51.45155,"lon":0.00155,"name":"Fernbrook Crescent","parentId":"490G00018709","stationId":"490G00018709","stopLetter":"Y","topMostParentId":"490G00018709","towards":"Lewisham"},{"icsId":"1001152","id":"490018708N","lat":51.45269,"lon":-0.00103,"name":"Hither Green Station","stopLetter":"Z","topMostParentId":"490018708N","towards":"Lewisham"},{"icsId":"1018707","id":"490018707N","lat":51.45467,"lon":-0.00021,"name":"Kellerton Road","parentId":"490G00018707","stationId":"490G00018707","stopLetter":"->N","topMostParentId":"490G00018707","towards":"Lewisham"},{"icsId":"1018706","id":"490018706N","lat":51.45566,"lon":-0.00146,"name":"Northbrook Road","parentId":"490G00018706","stationId":"490G00018706","stopLetter":"->N","topMostParentId":"490G00018706","towards":"Lewisham"},{"icsId":"1018705","id":"490018705N","lat":51.45838,"lon":-0.00202,"name":"Manor Park / Lee High Road","parentId":"490G00018705","stationId":"490G00018705","stopLetter":"K","topMostParentId":"490G00018705","towards":"Lewisham"},{"icsId":"1003868","id":"490003868W","lat":51.45923,"lon":-0.00349,"name":"Belmont Park","parentId":"490G00003868","stationId":"490G00003868","stopLetter":"V","topMostParentId":"490G00003868","towards":"Ladywell Or New Cross"},{"icsId":"1009656","id":"490009656W","lat":51.46081,"lon":-0.00547,"name":"Marischal Road","parentId":"490G00009656","stationId":"490G00009656","stopLetter":"W","topMostParentId":"490G00009656","towards":"Ladywell Or New Cross"},{"icsId":"1003864","id":"490003864M","lat":51.46204,"lon":-0.00801,"name":"Belmont Hill","parentId":"490G00003864","stationId":"490G00003864","stopLetter":"M","topMostParentId":"490G00003864","towards":"Ladywell Or New Cross"},{"icsId":"1009106","id":"490009106P","lat":51.46266,"lon":-0.0103,"name":"Lewisham Clock Tower","parentId":"490G00009106","stationId":"490G00009106","stopLetter":"P","topMostParentId":"490G00009106","towards":"Blackheath Or Greenwich"},{"icsId":"1001177","id":"490009104A","lat":51.46438,"lon":-0.01119,"name":"Lewisham Station","stopLetter":"G","topMostParentId":"490009104A","towards":"Blackheath Or Greenwich","zone":"2+3"},{"icsId":"1009116","id":"490009116N","lat":51.4662,"lon":-0.01215,"name":"Conington Road","parentId":"490G00009116","stationId":"490G00009116","stopLetter":"->N","topMostParentId":"490G00009116"}]}]}