{"direction":"inbound","lineId":"276","lineName":"276","mode":"bus","stopPointSequences":[{"stopPoint":[{"icsId":"1012837","id":"490012837K","lat":51.56086,"lon":-0.07032,"name":"Stoke Newington Common","parentId":"490G00012837","stationId":"490G00012837","stopLetter":"K","topMostParentId":"490G00012837","towards":"Hackney Central Or Newington Green"},{"icsId":"1015168","id":"490015168L","lat":51.55977,"lon":-0.0701,"name":"Rectory Road / Brooke Road","parentId":"490G00015168","stationId":"490G00015168","stopLetter":"L","topMostParentId":"490G00015168","towards":"Dalston Junction Or Hackney Central"},{"icsId":"1006962","id":"490013133S","lat":51.55652,"lon":-0.06813,"name":"Downs Road","parentId":"490G00006962","stationId":"490G00006962","stopLetter":"L","topMostParentId":"490G00006962","towards":"Homerton Hospital"},{"icsId":"1019707","id":"490015434S","lat":51.5539,"lon":-0.06765,"name":"Shacklewell Lane","parentId":"490G00019707","stationId":"490G00019707","stopLetter":"A","topMostParentId":"490G00019707","towards":"Homerton Hospital"},{"icsId":"1006182","id":"490006182S","lat":51.55197,"lon":-0.06593,"name":"Downs Park Road","parentId":"490G00006182","stationId":"490G00006182","stopLetter":"B","topMostParentId":"490G00006182","towards":"Homerton Hospital"},{"icsId":"1011912","id":"490011912S","lat":51.55038,"lon":-0.06376,"name":"Sandringham Road","parentId":"490G00011912","stationId":"490G00011912","stopLetter":"C","topMostParentId":"490G00011912","towards":"Homerton Hospital"},{"icsId":"1001128","id":"490001128O","lat":51.54969,"lon":-0.06108,"name":"Hackney Downs Station","stopLetter":"D","topMostParentId":"490001128O","towards":"Homerton Hospital"},{"icsId":"1001127","id":"490001127E","lat":51.54747,"lon":-0.05567,"name":"Hackney Central Station","stopLetter":"T","topMostParentId":"490001127E","towards":"Dalston Or Hackney Wick (until 22/05/25)"},{"icsId":"1007618","id":"490007618D","lat":51.54659,"lon":-0.05298,"name":"Morning Lane / Trelawney Estate","parentId":"490G00007618","stationId":"490G00007618","stopLetter":"D","topMostParentId":"490G00007618","towards":"Hackney Wick Or Leyton"},{"icsId":"1008329","id":"490008329S","lat":51.54698,"lon":-0.04894,"name":"Homerton Terrace","parentId":"490G00008329","stationId":"490G00008329","stopLetter":"S","topMostParentId":"490G00008329","towards":"Hackney Wick Or Leyton"},{"icsId":"1006795","id":"490006795C","lat":51.54837,"lon":-0.04721,"name":"Fenn Street","parentId":"490G00006795","stationId":"490G00006795","stopLetter":"C","topMostParentId":"490G00006795","towards":"Hackney Wick, Leyton Or Mile End"},{"icsId":"1019143","id":"490008327D","lat":51.54931,"lon":-0.04712,"name":"Homerton Hospital / Homerton Row","parentId":"490G00019143","stationId":"490G00019143","stopLetter":"D","topMostParentId":"490G00019143","towards":"Hackney Wick, Leyton Or Mile End"},{"icsId":"1016762","id":"490008327E","lat":51.54983,"lon":-0.0446,"name":"Homerton Hospital / Wardle Street","parentId":"490G00016762","stationId":"490G00016762","stopLetter":"E","topMostParentId":"490G00016762","towards":"Hackney Wick, Leyton Or Mile End"},{"icsId":"1007622","id":"490007622L","lat":51.54886,"lon":-0.04,"name":"Glyn Road","parentId":"490G00007622","stationId":"490G00007622","stopLetter":"L","topMostParentId":"490G00007622","towards":"Hackney Wick, Leyton Or Stratford City"},{"icsId":"1003222","id":"490003222E","lat":51.55015,"lon":-0.03408,"name":"Adley Street","parentId":"490G00003222","stationId":"490G00003222","stopLetter":"A","topMostParentId":"490G00003222","towards":"Hackney Wick, Leyton Or Stratford"},{"icsId":"1008803","id":"490008803E","lat":51.55084,"lon":-0.03193,"name":"Kingsmead Estate","parentId":"490G00008803","stationId":"490G00008803","stopLetter":"B","topMostParentId":"490G00008803","towards":"Hackney Wick, Leyton Or Stratford"},{"icsId":"1009058","id":"490009058S","lat":51.5506,"lon":-0.03039,"name":"Lee Conservancy Road / Poplar Close","parentId":"490G00009058","stationId":"490G00009058","stopLetter":"C","topMostParentId":"490G00009058","towards":"Hackney Wick"},{"icsId":"1005831","id":"490005831S","lat":51.54905,"lon":-0.02854,"name":"Crowfoot Close","parentId":"490G00005831","stationId":"490G00005831","stopLetter":"D","topMostParentId":"490G00005831","towards":"Hackney Wick"},{"icsId":"1013813","id":"490013813W","lat":51.54764,"lon":-0.02784,"name":"Trowbridge Estate","parentId":"490G00013813","stationId":"490G00013813","stopLetter":"Q","topMostParentId":"490G00013813","towards":"Old Ford Or Cambridge Heath"},{"icsId":"1010647","id":"490010647S","lat":51.54656,"lon":-0.02796,"name":"Osborne Road","parentId":"490G00010647","stationId":"490G00010647","stopLetter":"R","topMostParentId":"490G00010647","towards":"Bow Church"},{"icsId":"1003926","id":"490003926S2","lat":51.54567,"lon":-0.02585,"name":"Berkshire Road","parentId":"490G00003926","stationId":"490G00003926","stopLetter":"T","topMostParentId":"490G00003926","towards":"Bow Church"},{"icsId":"1001129","id":"490011721E","lat":51.54269,"lon":-0.02492,"name":"Hackney Wick Station","stopLetter":"B","topMostParentId":"490011721E","towards":"Stratford"},{"icsId":"1014198","id":"490014198S","lat":51.54168,"lon":-0.02667,"name":"Rothbury Road","parentId":"490G00014198","stationId":"490G00014198","stopLetter":"E","topMostParentId":"490G00014198","towards":"Bow Or Mile End"},{"icsId":"1009968","id":"490009968W","lat":51.53929,"lon":-0.02573,"name":"Monier Road","parentId":"490G00009968","stationId":"490G00009968","stopLetter":"OH","topMostParentId":"490G00009968","towards":"Bow Or Mile End"},{"icsId":"1008556","id":"490008556W","lat":51.53866,"lon":-0.02749,"name":"Wick Lane","parentId":"490G00008556","stationId":"490G00008556","stopLetter":"OJ","topMostParentId":"490G00008556","towards":"Bow Church"},{"icsId":"1010552","id":"490010552S","lat":51.53683,"lon":-0.02852,"name":"Old Ford Road","parentId":"490G00010552","stationId":"490G00010552","stopLetter":"OK","topMostParentId":"490G00010552","towards":"Bow Church"},{"icsId":"1011654","id":"490011654S","lat":51.53492,"lon":-0.02734,"name":"Roman Road Market","parentId":"490G00011654","stationId":"490G00011654","stopLetter":"OL","topMostParentId":"490G00011654","towards":"Bow Church Or Bromley-By-Bow"},{"icsId":"1013779","id":"490013779S","lat":51.53214,"lon":-0.02329,"name":"Tredegar Road","parentId":"490G00013779","stationId":"490G00013779","stopLetter":"Q","topMostParentId":"490G00013779","towards":"Stratford Or Bromley-By-Bow Station"},{"icsId":"1004205","id":"490004205D","lat":51.52995,"lon":-0.02082,"name":"Bow Bus Garage","parentId":"490G00004205","stationId":"490G00004205","stopLetter":"D","topMostParentId":"490G00004205","towards":"Stratford Or Bromley-By-Bow Station"},{"icsId":"1004206","id":"490004215M","lat":51.52895,"lon":-0.01688,"name":"Bow Church","parentId":"490G000421","stationId":"490G000421","stopLetter":"M","topMostParentId":"490G000421","towards":"Stratford Or Bromley-By-Bow Station."},{"icsId":"1009695","id":"490009695MA","lat":51.53128,"lon":-0.0112,"name":"Marshgate Lane","parentId":"490G000661","stationId":"490G000661","stopLetter":"W","topMostParentId":"490G000661","towards":"Stratford Or Stratford City"},{"icsId":"1014249","id":"490003025E","lat":51.53465,"lon":-0.00655,"name":"Warton Road","parentId":"490G00014249","stationId":"490G00014249","stopLetter":"M","topMostParentId":"490G00014249","towards":"Stratford Or Stratford City"},{"icsId":"1014215","id":"490014215N","lat":51.53689,"lon":-0.00366,"name":"Stratford High St Stn  / Carpenters Rd","parentId":"490G00014215","stationId":"490G00014215","stopLetter":"N","topMostParentId":"490G00014215","towards":"Canning Town Or Forest Gate"},{"icsId":"1012904","id":"490012904D","lat":51.54052,"lon":-0.00184,"name":"Stratford Bus Station","parentId":"490G000773","stationId":"490G000773","stopLetter":"D","topMostParentId":"HUBSRA"},{"icsId":"1012903","id":"490012903Z","lat":51.54037,"lon":0.00268,"name":"Stratford Broadway","parentId":"490G00012903","stationId":"490G00012903","stopLetter":"L","topMostParentId":"490G00012903","towards":"Canning Town, Plaistow Or Upton Park"},{"icsId":"1014466","id":"490014466S","lat":51.53756,"lon":0.00595,"name":"Barnby Street","parentId":"490G00014466","stationId":"490G00014466","stopLetter":"H","topMostParentId":"490G00014466","towards":"Canning Town, Plaistow Or Upton Park"},{"icsId":"1005308","id":"490005308S","lat":51.53576,"lon":0.00745,"name":"Church Street","parentId":"490G00005308","stationId":"490G00005308","stopLetter":"J","topMostParentId":"490G00005308","towards":"Canning Town Or Plaistow"},{"icsId":"1009956","id":"490009956S","lat":51.5332,"lon":0.00816,"name":"Mitre Road","parentId":"490G00009956","stationId":"490G00009956","stopLetter":"K","topMostParentId":"490G00009956","towards":"Canning Town"},{"icsId":"1020315","id":"490009144S","lat":51.5311,"lon":0.00598,"name":"Corporation Street","parentId":"490G00020315","stationId":"490G00020315","stopLetter":"A","topMostParentId":"490G00020315","towards":"Canning Town"},{"icsId":"1000262","id":"490000262B","lat":51.52733,"lon":0.00489,"name":"West Ham Station","stopLetter":"B","topMostParentId":"490000262B","towards":"Canning Town","zone":"2/3"},{"icsId":"1009929","id":"490009929S","lat":51.52628,"lon":0.00492,"name":"Milner Road","parentId":"490G00009929","stationId":"490G00009929","stopLetter":"C","topMostParentId":"490G00009929","towards":"Canning Town"},{"icsId":"1007263","id":"490007263S","lat":51.5245,"lon":0.00478,"name":"Godbold Road","parentId":"490G00007263","stationId":"490G00007263","stopLetter":"D","topMostParentId":"490G00007263","towards":"Canning Town"},{"icsId":"1003005","id":"490016355S","lat":51.52007,"lon":0.00467,"name":"Star Lane Station","parentId":"940GZZDLSTL","stationId":"940GZZDLSTL","stopLetter":"F","topMostParentId":"940GZZDLSTL","towards":"Canning Town","zone":"2/3"},{"icsId":"1016356","id":"490016356S","lat":51.51675,"lon":0.00768,"name":"Barking Road / Manor Road","parentId":"490G00016356","stationId":"490G00016356","stopLetter":"W","topMostParentId":"490G00016356","towards":"Canning Town"},{"icsId":"1011429","id":"490011429J","lat":51.51664,"lon":0.0098,"name":"Rathbone Market","parentId":"490G00011429","stationId":"490G00011429","stopLetter":"J","topMostParentId":"490G00011429","towards":"Plaistow Or Stratford"},{"icsId":"1003750","id":"490003750L","lat":51.51755,"lon":0.01201,"name":"Hermit Road","parentId":"490G00003750","stationId":"490G00003750","stopLetter":"L","topMostParentId":"490G00003750","towards":"Plaistow Or Stratford"},{"icsId":"1005902","id":"490005902E","lat":51.51956,"lon":0.01641,"name":"Rokeby School","parentId":"490G00005902","stationId":"490G00005902","stopLetter":"S","topMostParentId":"490G00005902","towards":"Plaistow"},{"icsId":"1008834","id":"490008834E","lat":51.52081,"lon":0.01922,"name":"King Street","parentId":"490G00008834","stationId":"490G00008834","stopLetter":"BH","topMostParentId":"490G00008834","towards":"Plaistow"},{"icsId":"1003551","id":"490003551E","lat":51.52216,"lon":0.02196,"name":"Balaam Street","parentId":"490G00003551","stationId":"490G00003551","stopLetter":"BJ","topMostParentId":"490G00003551","towards":"Beckton Or Upton Park"},{"icsId":"1011047","id":"490011047E","lat":51.52342,"lon":0.02491,"name":"Plaistow Police Station","parentId":"490G00011047","stationId":"490G00011047","stopLetter":"BK","topMostParentId":"490G00011047","towards":"Beckton Or Upton Park"},{"icsId":"1011053","id":"490011040E1","lat":51.52539,"lon":0.02817,"name":"Khartoum Road","parentId":"490G00011053","stationId":"490G00011053","stopLetter":"BL","topMostParentId":"490G00011053","towards":"Newham University Hospital"},{"icsId":"1003730","id":"490003730S","lat":51.52506,"lon":0.02996,"name":"Beaumont Road","parentId":"490G00003730","stationId":"490G00003730","stopLetter":"GS","topMostParentId":"490G00003730","towards":"Keir Hardie Estate, Beckton Or City Airport"},{"icsId":"1020388","id":"490010215S","lat":51.52251,"lon":0.03107,"name":"Newham University Hosp / New Vic College","parentId":"490G000006","stationId":"490G000006","stopLetter":"HD","topMostParentId":"490G000006","towards":"Keir Hardie Estate, Becton Or City Airport"},{"icsId":"1015395","id":"490007236E","lat":51.52251,"lon":0.03286,"name":"Newham University Hosp Emergency Dept","parentId":"490G00015395","stationId":"490G00015395","stopLetter":"HC","topMostParentId":"490G00015395","towards":"Upton Park And East Ham"},{"icsId":"1007236","id":"490007236E1","lat":51.52223,"lon":0.03727,"name":"Newham University Hosp Main Reception","parentId":"490G00007236","stationId":"490G00007236","stopLetter":"HG","topMostParentId":"490G00007236","towards":"Beckton, Upton Park & East Ham"},{"icsId":"1018884","id":"490018884S","lat":51.52075,"lon":0.03976,"name":"Gateway Surgical Centre","parentId":"490G00018884","stationId":"490G00018884","stopLetter":"HS","topMostParentId":"490G00018884","towards":"Canning Town And Stratford"}]}]}