{"direction":"inbound","lineId":"278","lineName":"278","mode":"bus","stopPointSequences":[{"stopPoint":[{"icsId":"1011781","id":"490011781C","lat":51.57258,"lon":-0.42287,"name":"Brickwall Lane","parentId":"490G00011781","stationId":"490G00011781","stopLetter":"C","topMostParentId":"490G00011781","towards":"Ickenham Or Northwood"},{"icsId":"1008454","id":"490008454F","lat":51.57412,"lon":-0.4248,"name":"Midcroft","parentId":"490G00008454","stationId":"490G00008454","stopLetter":"F","topMostParentId":"490G00008454","towards":"Ickenham Or Northwood"},{"icsId":"1013488","id":"490013488W","lat":51.57238,"lon":-0.43095,"name":"Church Avenue","parentId":"490G00013488","stationId":"490G00013488","stopLetter":"Q","topMostParentId":"490G00013488","towards":"Ickenham, Uxbridge Or Yeading"},{"icsId":"1012038","id":"490012038W","lat":51.57187,"lon":-0.43211,"name":"Sharps Lane","parentId":"490G00012038","stationId":"490G00012038","stopLetter":"R","topMostParentId":"490G00012038","towards":"Ickenham Or Uxbridge"},{"icsId":"1000267","id":"490000267A","lat":51.56963,"lon":-0.43808,"name":"West Ruislip Station","stopLetter":"S","topMostParentId":"490000267A","towards":"Ickenham Or Uxbridge","zone":"6"},{"icsId":"1010472","id":"490010472W","lat":51.56687,"lon":-0.44181,"name":"Oak Avenue","parentId":"490G00010472","stationId":"490G00010472","stopLetter":"T","topMostParentId":"490G00010472","towards":"Hillingdon Or Uxbridge"},{"icsId":"1000120","id":"490013091C","lat":51.56406,"lon":-0.44362,"name":"Ickenham Station","stopLetter":"C","topMostParentId":"490013091C","towards":"Hillingdon Or Uxbridge","zone":"6"},{"icsId":"1006136","id":"490006136S","lat":51.55911,"lon":-0.44566,"name":"Douay Martyrs School","parentId":"490G00006136","stationId":"490G00006136","stopLetter":"EE","topMostParentId":"490G00006136","towards":"Hayes End"},{"icsId":"1013089","id":"490013089S","lat":51.55683,"lon":-0.44664,"name":"Swakeleys Drive","parentId":"490G00013089","stationId":"490G00013089","stopLetter":"->S","topMostParentId":"490G00013089","towards":"Hayes End"},{"icsId":"1000111","id":"490000111B","lat":51.55351,"lon":-0.44841,"name":"Hillingdon Station","stopLetter":"B","topMostParentId":"490000111B","towards":"Hayes End or Hillingdon Hospital","zone":"6"},{"icsId":"1003928","id":"490008222S","lat":51.55086,"lon":-0.44892,"name":"Hillingdon Circus","parentId":"490G000413","stationId":"490G000413","stopLetter":"F","topMostParentId":"490G000413","towards":"Hayes End Or Hillingdon Hospital"},{"icsId":"1007540","id":"490007540S","lat":51.54553,"lon":-0.44959,"name":"Grosvenor Crescent","parentId":"490G00007540","stationId":"490G00007540","stopLetter":"->S","topMostParentId":"490G00007540","towards":"Hayes End"},{"icsId":"1010483","id":"490010483S","lat":51.54146,"lon":-0.45039,"name":"Oak Farm Library","parentId":"490G00010483","stationId":"490G00010483","stopLetter":"->S","topMostParentId":"490G00010483","towards":"Hayes End Or Hillingdon Hospital"},{"icsId":"1005422","id":"490005422S","lat":51.53869,"lon":-0.45201,"name":"Clifton Gardens","parentId":"490G00005422","stationId":"490G00005422","stopLetter":"UU","topMostParentId":"490G00005422","towards":"Hayes End Or Hillingdon Hospital"},{"icsId":"1013974","id":"490013974S","lat":51.53316,"lon":-0.45249,"name":"Crescent Parade","parentId":"490G00013974","stationId":"490G00013974","stopLetter":"UV","topMostParentId":"490G00013974","towards":"Hayes End Or Hillingdon Hospital"},{"icsId":"1008227","id":"490008227E","lat":51.53208,"lon":-0.4504,"name":"Hillingdon Primary School","parentId":"490G00008227","stationId":"490G00008227","stopLetter":"UE","topMostParentId":"490G00008227","towards":"Hillingdon Hospital Or Hayes End"},{"icsId":"1009069","id":"490009069E","lat":51.52992,"lon":-0.44676,"name":"Hillingdon Heath / Lees Road","parentId":"490G00009069","stationId":"490G00009069","stopLetter":"UF","topMostParentId":"490G00009069","towards":"Hayes End"},{"icsId":"1008006","id":"490008006E","lat":51.52827,"lon":-0.44302,"name":"Heath Road","parentId":"490G00008006","stationId":"490G00008006","stopLetter":"UG","topMostParentId":"490G00008006","towards":"Hayes Or Southall"},{"icsId":"1008117","id":"490008117E","lat":51.52704,"lon":-0.43911,"name":"Hewens Road","parentId":"490G00008117","stationId":"490G00008117","stopLetter":"XA","topMostParentId":"490G00008117","towards":"Hayes Or Southall"},{"icsId":"1007952","id":"490007952E","lat":51.52536,"lon":-0.43408,"name":"Hayes Police Station","parentId":"490G00007952","stationId":"490G00007952","stopLetter":"XB","topMostParentId":"490G00007952","towards":"Hayes Or Southall"},{"icsId":"1007946","id":"490007946E","lat":51.52468,"lon":-0.4307,"name":"Hayes End","parentId":"490G00007946","stationId":"490G00007946","stopLetter":"XC","topMostParentId":"490G00007946","towards":"Hayes Or Southall"},{"icsId":"1010802","id":"490010802E","lat":51.52408,"lon":-0.42696,"name":"Park Road","parentId":"490G00010802","stationId":"490G00010802","stopLetter":"XD","topMostParentId":"490G00010802","towards":"Hayes Or Southall"},{"icsId":"1011690","id":"490011690A","lat":51.52368,"lon":-0.42448,"name":"Rosedale Park","parentId":"490G00011690","stationId":"490G00011690","stopLetter":"A","topMostParentId":"490G00011690","towards":"Southall Or Hayes"},{"icsId":"1008962","id":"490008962E","lat":51.52237,"lon":-0.42012,"name":"Uxbridge County Court","parentId":"490G00008962","stationId":"490G00008962","stopLetter":"E","topMostParentId":"490G00008962","towards":"Hayes Or Southall"},{"icsId":"1013977","id":"490013977H","lat":51.52076,"lon":-0.41741,"name":"Church Road / Swift Close","parentId":"490G00013977","stationId":"490G00013977","stopLetter":"H","topMostParentId":"490G00013977","towards":"Hayes Town"},{"icsId":"1005262","id":"490005262S","lat":51.51786,"lon":-0.41885,"name":"Church Green","parentId":"490G00005262","stationId":"490G00005262","stopLetter":"SK","topMostParentId":"490G00005262","towards":"Harlington Or Southall"},{"icsId":"1009334","id":"490009334S","lat":51.51539,"lon":-0.41994,"name":"Longmead Road","parentId":"490G00009334","stationId":"490G00009334","stopLetter":"SL","topMostParentId":"490G00009334","towards":"Harlington Or Southall"},{"icsId":"1013751","id":"490013751S","lat":51.51295,"lon":-0.41998,"name":"Townfield Road","parentId":"490G00013751","stationId":"490G00013751","stopLetter":"SM","topMostParentId":"490G00013751","towards":"Harlington Or Southall"},{"icsId":"1004178","id":"490004178S","lat":51.5093,"lon":-0.42086,"name":"Botwell Lane","parentId":"490G00004178","stationId":"490G00004178","stopLetter":"SN","topMostParentId":"490G00004178","towards":"Harlington Or Southall"},{"icsId":"1004177","id":"490004177E","lat":51.50762,"lon":-0.41933,"name":"Botwell Green","parentId":"490G00004177","stationId":"490G00004177","stopLetter":"SP","topMostParentId":"490G00004177","towards":"Harlington, Prologis Park Or Southall"},{"icsId":"1000828","id":"490000828Y","lat":51.50654,"lon":-0.41886,"name":"Hayes Town Centre","parentId":"490G000162","stationId":"490G000162","stopLetter":"D","topMostParentId":"490G000162","towards":"Harlington, Prologis Park Or Southall"},{"icsId":"1001144","id":"490001144M","lat":51.50306,"lon":-0.42079,"name":"Hayes & Harlington Station","stopLetter":"E","topMostParentId":"490001144M","towards":"Harlington, Southall Or Stockley Park"},{"icsId":"1006702","id":"490006702S1","lat":51.50095,"lon":-0.42422,"name":"Fairey Corner","parentId":"490G00006702","stationId":"490G00006702","stopLetter":"F","topMostParentId":"490G00006702","towards":"Harlington Or Prologis Park"},{"icsId":"1011489","id":"490011489S1","lat":51.49789,"lon":-0.42641,"name":"Redmead Road","parentId":"490G00011489","stationId":"490G00011489","stopLetter":"R","topMostParentId":"490G00011489","towards":"Harlington Or Prologis Park"},{"icsId":"1007812","id":"490007812S","lat":51.49666,"lon":-0.42732,"name":"Croyde Avenue","parentId":"490G00007812","stationId":"490G00007812","stopLetter":"S","topMostParentId":"490G00007812","towards":"Harlington Corner"},{"icsId":"1007808","id":"490007808S","lat":51.4895,"lon":-0.43505,"name":"Brickfield Lane","parentId":"490G00007808","stationId":"490G00007808","stopLetter":"A","topMostParentId":"490G00007808","towards":"Cranford, Hatton Cross Or Heathrow"},{"icsId":"1009564","id":"490009564S","lat":51.48672,"lon":-0.43544,"name":"Harlington High Street / Sipson Lane","parentId":"490G00009564","stationId":"490G00009564","stopLetter":"B","topMostParentId":"490G00009564","towards":"Cranford, Hatton Cross Or Heathrow"},{"icsId":"1014434","id":"490014434A","lat":51.4838,"lon":-0.43413,"name":"West End Lane","parentId":"490G00014434","stationId":"490G00014434","stopLetter":"C","topMostParentId":"490G00014434","towards":"Cranford, Hatton Cross Or Heathrow"},{"icsId":"1007811","id":"490007811D","lat":51.48058,"lon":-0.43562,"name":"Harlington Corner","parentId":"490G00007811","stationId":"490G00007811","stopLetter":"J","topMostParentId":"490G00007811","towards":"Heathrow Airport, West Drayton Or Slough"},{"icsId":"1004149","id":"490004149W","lat":51.48098,"lon":-0.44459,"name":"Mondial Way","parentId":"490G00004149","stationId":"490G00004149","stopLetter":"BL","topMostParentId":"490G00004149","towards":"Heathrow Airport, West Drayton Or Slough"},{"icsId":"1012176","id":"490012176W","lat":51.48106,"lon":-0.44771,"name":"Nene Road","parentId":"490G00012176","stationId":"490G00012176","stopLetter":"BM","topMostParentId":"490G00012176","towards":"Heathrow Airport, West Drayton Or Slough"},{"icsId":"1008016","id":"490008016S","lat":51.47154,"lon":-0.45259,"name":"Heathrow Central Bus Station","parentId":"910GHTRWCBS","stationId":"910GHTRWCBS","stopLetter":"->S","topMostParentId":"HUBH13"}]}]}