{"direction":"inbound","lineId":"279","lineName":"279","mode":"bus","stopPointSequences":[{"stopPoint":[{"icsId":"1000142","id":"490000142F","lat":51.5715,"lon":-0.09408,"name":"Manor House Station","stopLetter":"F","topMostParentId":"490000142F","towards":"Tottenham","zone":"2+3"},{"icsId":"1014812","id":"490014812E","lat":51.57234,"lon":-0.09151,"name":"Woodberry Grove","parentId":"490G00014812","stationId":"490G00014812","stopLetter":"G","topMostParentId":"490G00014812","towards":"Tottenham Or Stamford Hill"},{"icsId":"1019705","id":"490003306E","lat":51.57374,"lon":-0.08758,"name":"Amhurst Park","parentId":"490G00019705","stationId":"490G00019705","stopLetter":"S","topMostParentId":"490G00019705","towards":"Tottenham"},{"icsId":"1014012","id":"490014012E","lat":51.57561,"lon":-0.08522,"name":"Vartry Road","parentId":"490G00014012","stationId":"490G00014012","topMostParentId":"490G00014012","towards":"Tottenham"},{"icsId":"1008123","id":"490008123N","lat":51.57728,"lon":-0.08349,"name":"Heysham Road","parentId":"490G00008123","stationId":"490G00008123","stopLetter":"TV","topMostParentId":"490G00008123","towards":"Tottenham"},{"icsId":"1012432","id":"490012432N","lat":51.57888,"lon":-0.08169,"name":"St Ann's Road","parentId":"490G00012432","stationId":"490G00012432","stopLetter":"TW","topMostParentId":"490G00012432","towards":"Tottenham"},{"icsId":"1007439","id":"490015855N","lat":51.58091,"lon":-0.07745,"name":"Elizabeth Road","parentId":"490G000543","stationId":"490G000543","stopLetter":"TX","topMostParentId":"490G000543","towards":"Tottenham"},{"icsId":"1004037","id":"490004037BE","lat":51.5818,"lon":-0.07539,"name":"Birstall Road / Seven Sisters Stn","parentId":"490G000419","stationId":"490G000419","stopLetter":"B","topMostParentId":"490G000419","towards":"Tottenham"},{"icsId":"1000201","id":"490000201J","lat":51.58359,"lon":-0.07247,"name":"Seven Sisters Station","stopLetter":"D","topMostParentId":"490000201J","towards":"Wood Green Or Northumberland Park","zone":"3"},{"icsId":"1013739","id":"490015083E","lat":51.58502,"lon":-0.07199,"name":"College of North East London","parentId":"490G00013739","stationId":"490G00013739","stopLetter":"G","topMostParentId":"490G00013739","towards":"Northumberland Park Or Edmonton"},{"icsId":"1015083","id":"490013739M","lat":51.58799,"lon":-0.07093,"name":"Tottenham Town Hall","parentId":"490G000860","stationId":"490G000860","stopLetter":"V","topMostParentId":"490G000860","towards":"Northumberland Park Or Edmonton"},{"icsId":"1013736","id":"490013736N","lat":51.59039,"lon":-0.07026,"name":"Tottenham Police Station","parentId":"490G00013736","stationId":"490G00013736","stopLetter":"F","topMostParentId":"490G00013736","towards":"Edmonton, Wood Green Or Northumberland Park"},{"icsId":"1018845","id":"490018845N","lat":51.59207,"lon":-0.06998,"name":"St Loys Road","parentId":"490G00018845","stationId":"490G00018845","stopLetter":"G","topMostParentId":"490G00018845","towards":"Turnpike Lane Or Wood Green"},{"icsId":"1009360","id":"490009360N","lat":51.59789,"lon":-0.06811,"name":"Lordship Lane","parentId":"490G00009360","stationId":"490G00009360","stopLetter":"R","topMostParentId":"490G00009360","towards":"Northumberland Park Or Edmonton"},{"icsId":"1013738","id":"490013738N","lat":51.60202,"lon":-0.06791,"name":"Tottenham Sports Centre","parentId":"490G00013738","stationId":"490G00013738","stopLetter":"S","topMostParentId":"490G00013738","towards":"Edmonton Green"},{"icsId":"1013733","id":"490013733R","lat":51.60367,"lon":-0.06807,"name":"Tottenham Hotspur Football Club","parentId":"490G00013733","stationId":"490G00013733","stopLetter":"T","topMostParentId":"490G00013733","towards":"Edmonton Green"},{"icsId":"1001335","id":"490001335S","lat":51.60509,"lon":-0.06827,"name":"White Hart Lane Station","stopLetter":"U","topMostParentId":"490001335S","towards":"Edmonton Green"},{"icsId":"1004262","id":"490004262C","lat":51.60823,"lon":-0.06788,"name":"Brantwood Road","parentId":"490G00004262","stationId":"490G00004262","stopLetter":"V","topMostParentId":"490G00004262","towards":"Edmonton Green"},{"icsId":"1005690","id":"490005690N","lat":51.60976,"lon":-0.06638,"name":"Nutfield Close","parentId":"490G00005690","stationId":"490G00005690","stopLetter":"W","topMostParentId":"490G00005690","towards":"Ponders End"},{"icsId":"1005520","id":"490005520L","lat":51.61312,"lon":-0.06484,"name":"Colyton Way","parentId":"490G00005520","stationId":"490G00005520","stopLetter":"L","topMostParentId":"490G00005520","towards":"Ponders End"},{"icsId":"1003322","id":"490010801H","lat":51.61614,"lon":-0.06404,"name":"Angel Corner","parentId":"490G00003322","stationId":"490G00003322","stopLetter":"H","topMostParentId":"490G00003322","towards":"Ponders End"},{"icsId":"1010801","id":"490010801Z","lat":51.6178,"lon":-0.06341,"name":"Brettenham Road","topMostParentId":"490010801Z","towards":"Ponders End"},{"icsId":"1011968","id":"490011968N","lat":51.6209,"lon":-0.06212,"name":"Shrubbery Road","parentId":"490G00011968","stationId":"490G00011968","stopLetter":"L","topMostParentId":"490G00011968","towards":"Ponders End"},{"icsId":"1006445","id":"490006445B","lat":51.6227,"lon":-0.06157,"name":"Edmonton Police Station","parentId":"490G00006445","stationId":"490G00006445","stopLetter":"M","topMostParentId":"490G00006445","towards":"Bush Hill Park Or Ponders End"},{"icsId":"1001092","id":"490006442R","lat":51.62451,"lon":-0.06074,"name":"Edmonton Green Station","stopLetter":"N","topMostParentId":"490006442R","towards":"Ponders End Or Bush Hill Park"},{"icsId":"1009983","id":"490009983B","lat":51.62533,"lon":-0.05854,"name":"Edmonton Green Bus Station","parentId":"490G00009983","stationId":"490G00009983","stopLetter":"B","topMostParentId":"490G00009983","towards":"Ponders End Or Bush Hill Park"},{"icsId":"1004181","id":"490009983P","lat":51.62666,"lon":-0.05725,"name":"Monmouth Road","parentId":"490G00004181","stationId":"490G00004181","stopLetter":"P","topMostParentId":"490G00004181","towards":"Bush Hill Park Or Ponders End"},{"icsId":"1004180","id":"490004180N1","lat":51.62789,"lon":-0.05648,"name":"Bounces Road","parentId":"490G00004180","stationId":"490G00004180","stopLetter":"LJ","topMostParentId":"490G00004180","towards":"Ponders End Or Bush Hill Park"},{"icsId":"1006043","id":"490006043N","lat":51.63145,"lon":-0.0553,"name":"Bury Street","parentId":"490G00006043","stationId":"490G00006043","stopLetter":"LL","topMostParentId":"490G00006043","towards":"Ponders End"},{"icsId":"1006933","id":"490008387N","lat":51.6335,"lon":-0.05378,"name":"Forest Road / Jubilee Park","parentId":"490G00006933","stationId":"490G00006933","stopLetter":"LM","topMostParentId":"490G00006933","towards":"Ponders End"},{"icsId":"1013770","id":"490013770N","lat":51.63578,"lon":-0.05191,"name":"Tramway Avenue","parentId":"490G00013770","stationId":"490G00013770","stopLetter":"LN","topMostParentId":"490G00013770","towards":"Ponders End Or Waltham Cross"},{"icsId":"1005881","id":"490005881N","lat":51.63788,"lon":-0.0501,"name":"Cuckoo Hall Lane","parentId":"490G00005881","stationId":"490G00005881","stopLetter":"LP","topMostParentId":"490G00005881","towards":"Waltham Cross"},{"icsId":"1007087","id":"490007087N","lat":51.64047,"lon":-0.0478,"name":"Nightingale Road","parentId":"490G00007087","stationId":"490G00007087","stopLetter":"LR","topMostParentId":"490G00007087","towards":"Enfield Town Or Waltham Cross"},{"icsId":"1010364","id":"490012335N","lat":51.64278,"lon":-0.04695,"name":"Orchard Road","parentId":"490G00010364","stationId":"490G00010364","stopLetter":"M","topMostParentId":"490G00010364","towards":"Enfield Town Or Waltham Cross"},{"icsId":"1011367","id":"490011367K","lat":51.64597,"lon":-0.04686,"name":"Ponders End Park","parentId":"490G00011367","stationId":"490G00011367","stopLetter":"K","topMostParentId":"490G00011367","towards":"Enfield Island Village Or Waltham Cross"},{"icsId":"1015442","id":"490015441H","lat":51.64783,"lon":-0.04666,"name":"Southbury Road","parentId":"490G00015442","stationId":"490G00015442","stopLetter":"H","topMostParentId":"490G00015442","towards":"Enfield Island Village Or Waltham Cross"},{"icsId":"1015441","id":"490015441G","lat":51.65032,"lon":-0.04673,"name":"Durants Road","parentId":"490G000895","stationId":"490G000895","stopLetter":"G","topMostParentId":"490G000895","towards":"Brimsdown, Enfield Lock Or Waltham Cross"},{"icsId":"1006579","id":"490006579N","lat":51.65272,"lon":-0.04794,"name":"Enfield College","parentId":"490G00006579","stationId":"490G00006579","stopLetter":"EJ","topMostParentId":"490G00006579","towards":"Brimsdown, Enfield Lock Or Waltham Cross"},{"icsId":"1004314","id":"490013883N","lat":51.6562,"lon":-0.0476,"name":"Green Street","parentId":"490G00004314","stationId":"490G00004314","stopLetter":"EK","topMostParentId":"490G00004314","towards":"Brimsdown, Enfield Lock Or Waltham Cross"},{"icsId":"1004828","id":"490004314N","lat":51.65915,"lon":-0.04712,"name":"Carterhatch Lane","parentId":"490G00004828","stationId":"490G00004828","stopLetter":"EL","topMostParentId":"490G00004828","towards":"Enfield Lock Or Waltham Cross"},{"icsId":"1003254","id":"490004828N","lat":51.66128,"lon":-0.04624,"name":"Oatlands Road","parentId":"490G00003254","stationId":"490G00003254","stopLetter":"EM","topMostParentId":"490G00003254","towards":"Brimsdown, Enfield Lock Or Waltham Cross"},{"icsId":"1012493","id":"490012493N","lat":51.66328,"lon":-0.04525,"name":"Durants School","parentId":"490G00012493","stationId":"490G00012493","stopLetter":"EN","topMostParentId":"490G00012493","towards":"Brimsdown, Enfield Lock Or Waltham Cross"},{"icsId":"1005757","id":"490005757N","lat":51.66526,"lon":-0.04387,"name":"Ingersoll Road","parentId":"490G00005757","stationId":"490G00005757","stopLetter":"E","topMostParentId":"490G00005757","towards":"Brimsdown, Enfield Lock Or Waltham Cross"},{"icsId":"1003140","id":"490003136N","lat":51.66791,"lon":-0.04179,"name":"Albany Leisure Centre","parentId":"490G00003140","stationId":"490G00003140","stopLetter":"F","topMostParentId":"490G00003140","towards":"Enfield Lock Or Waltham Cross"},{"icsId":"1001299","id":"490001299D","lat":51.67036,"lon":-0.04102,"name":"Turkey Street Station","stopLetter":"G","topMostParentId":"490001299D","towards":"Enfield Lock Or Waltham Cross"},{"icsId":"1011290","id":"490010626N","lat":51.67237,"lon":-0.03975,"name":"Totteridge Road","parentId":"490G00011290","stationId":"490G00011290","stopLetter":"H","topMostParentId":"490G00011290","towards":"Waltham Cross"},{"icsId":"1003227","id":"490003227N","lat":51.67485,"lon":-0.03736,"name":"Oakhurst Road","parentId":"490G00003227","stationId":"490G00003227","stopLetter":"J","topMostParentId":"490G00003227","towards":"Waltham Cross"},{"icsId":"1008308","id":"490008308N","lat":51.67756,"lon":-0.03478,"name":"Mandeville Road","parentId":"490G00008308","stationId":"490G00008308","stopLetter":"C","topMostParentId":"490G00008308","towards":"Waltham Cross"},{"icsId":"1004574","id":"490003378H","lat":51.68102,"lon":-0.03391,"name":"Bullsmoor Lane / Mollison Avenue","parentId":"490G00004574","stationId":"490G00004574","stopLetter":"G","topMostParentId":"490G00004574","towards":"Waltham Cross Bus Station"},{"icsId":"1014156","id":"210021703440","lat":51.685733,"lon":-0.031347,"name":"Waltham Cross Bus Station","parentId":"210G432","stationId":"210G432","topMostParentId":"210G432"}]}]}