{"direction":"inbound","lineId":"28","lineName":"28","mode":"bus","stopPointSequences":[{"stopPoint":[{"icsId":"1009631","id":"490009631N","lat":51.45386,"lon":-0.19222,"name":"Mapleton Road","parentId":"490G00009631","stationId":"490G00009631","stopLetter":"->N","topMostParentId":"490G00009631","towards":"Putney Bridge Or Wandsworth Bridge"},{"icsId":"1019847","id":"490014184T","lat":51.45612,"lon":-0.19278,"name":"Southside Shopping Centre","parentId":"490G00019847","stationId":"490G00019847","stopLetter":"T","topMostParentId":"490G00019847","towards":"Wandsworth Bridge"},{"icsId":"1011413","id":"490011413Q","lat":51.4574,"lon":-0.19237,"name":"Ram Street","parentId":"490G00011413","stationId":"490G00011413","stopLetter":"Q","topMostParentId":"490G00011413","towards":"Battersea Or Fulham"},{"icsId":"1013707","id":"490013707K","lat":51.45949,"lon":-0.19016,"name":"Tonsley Street","parentId":"490G00013707","stationId":"490G00013707","stopLetter":"K","topMostParentId":"490G00013707","towards":"Battersea Or Fulham"},{"icsId":"1001311","id":"490001311E","lat":51.46109,"lon":-0.18755,"name":"Wandsworth Town Station","stopLetter":"AA","topMostParentId":"490001311E","towards":"Battersea Or Fulham"},{"icsId":"1012212","id":"490012212E","lat":51.46199,"lon":-0.18685,"name":"Swandon Way","parentId":"490G00012212","stationId":"490G00012212","stopLetter":"TC","topMostParentId":"490G00012212","towards":"Battersea Or Fulham"},{"icsId":"1004326","id":"490004326N","lat":51.46351,"lon":-0.18667,"name":"Bridgend Road","parentId":"490G00004326","stationId":"490G00004326","stopLetter":"TD","topMostParentId":"490G00004326","towards":"Chelsea Harbour Or Fulham"},{"icsId":"1008434","id":"490008434N","lat":51.46747,"lon":-0.19017,"name":"Townmead Road","parentId":"490G00008434","stationId":"490G00008434","stopLetter":"TE","topMostParentId":"490G00008434","towards":"Fulham Broadway"},{"icsId":"1010474","id":"490010474N","lat":51.47045,"lon":-0.19121,"name":"Oakbury Road","parentId":"490G00010474","stationId":"490G00010474","stopLetter":"TF","topMostParentId":"490G00010474","towards":"Fulham Broadway"},{"icsId":"1011916","id":"490011916N","lat":51.47245,"lon":-0.19168,"name":"Sands End / Hazlebury Road","parentId":"490G00011916","stationId":"490G00011916","stopLetter":"->N","topMostParentId":"490G00011916","towards":"Fulham Broadway"},{"icsId":"1010225","id":"490010225N","lat":51.47568,"lon":-0.19272,"name":"New Kings Road","parentId":"490G00010225","stationId":"490G00010225","stopLetter":"GP","topMostParentId":"490G00010225","towards":"Hammersmith Or West Kensington"},{"icsId":"1013888","id":"490013888N","lat":51.47747,"lon":-0.19231,"name":"Tyrawley Road","parentId":"490G00013888","stationId":"490G00013888","stopLetter":"GK","topMostParentId":"490G00013888","towards":"Hammersmith, Fulham Or Olympia"},{"icsId":"1007057","id":"490007057H","lat":51.47945,"lon":-0.19514,"name":"Fulham Town Hall","parentId":"490G000526","stationId":"490G000526","stopLetter":"H","topMostParentId":"490G000526","towards":"Hammersmith, West Kensington Or Fulham Cross"},{"icsId":"1000352","id":"490008547F","lat":51.48023,"lon":-0.19812,"name":"Fulham Broadway","parentId":"490G00000352","stationId":"490G00000352","stopLetter":"F","topMostParentId":"490G00000352","towards":"Hammersmith, Olympia Or Putney Bridge"},{"icsId":"1012117","id":"490015064A","lat":51.48172,"lon":-0.19978,"name":"Shorrolds Road","parentId":"490G00012117","stationId":"490G00012117","stopLetter":"A","topMostParentId":"490G00012117","towards":"Hammersmith Or Kensington High Street"},{"icsId":"1009156","id":"490009156V","lat":51.48487,"lon":-0.20225,"name":"Lillie Road","parentId":"490G00009156","stationId":"490G00009156","stopLetter":"BK","topMostParentId":"490G00009156","towards":"Hammersmith Or Kensington High Street"},{"icsId":"1014485","id":"490014485N","lat":51.48798,"lon":-0.204,"name":"West Kensington Estate","parentId":"490G00014485","stationId":"490G00014485","stopLetter":"BT","topMostParentId":"490G00014485","towards":"Hammersmith Or Kensington High Street"},{"icsId":"1000265","id":"490000265B","lat":51.48992,"lon":-0.20648,"name":"West Kensington Station","stopLetter":"T","topMostParentId":"490000265B","towards":"Hammersmith Or Kensington High Street","zone":"2"},{"icsId":"1009492","id":"490009492N","lat":51.49334,"lon":-0.20893,"name":"Lytton Estate","parentId":"490G00009492","stationId":"490G00009492","stopLetter":"U","topMostParentId":"490G00009492","towards":"Hammersmith Or Kensington High Street"},{"icsId":"1019922","id":"490007709H","lat":51.49461,"lon":-0.211,"name":"Kensington Olympia / Hammersmith Road","parentId":"490G00019922","stationId":"490G00019922","stopLetter":"V","topMostParentId":"HUBKPA","towards":"Hammersmith Or Kensington High Street"},{"icsId":"1008287","id":"490008287E","lat":51.49697,"lon":-0.2052,"name":"Holland Road","parentId":"490G00008287","stationId":"490G00008287","stopLetter":"L","topMostParentId":"490G00008287","towards":"Knightsbridge Or Notting Hill Gate"},{"icsId":"1003106","id":"490003106E","lat":51.49745,"lon":-0.2038,"name":"Warwick Gardens","parentId":"490G00003106","stationId":"490G00003106","stopLetter":"W","topMostParentId":"490G00003106","towards":"Knightsbridge Or Notting Hill Gate"},{"icsId":"1005528","id":"490005528Y","lat":51.49855,"lon":-0.20082,"name":"The Design Museum","parentId":"490G00005528","stationId":"490G00005528","stopLetter":"Y","topMostParentId":"490G00005528","towards":"Knightsbridge Or Notting Hill Gate"},{"icsId":"1010984","id":"490010984U","lat":51.49998,"lon":-0.1968,"name":"Phillimore Gardens","parentId":"490G00010984","stationId":"490G00010984","stopLetter":"U","topMostParentId":"490G00010984","towards":"Palace Gate Or Notting Hill Gate"},{"icsId":"1000110","id":"490000110A","lat":51.50098,"lon":-0.19341,"name":"High Street Kensington Station","stopLetter":"A","topMostParentId":"490000110A","towards":"Notting Hill Gate Or South Kensington","zone":"1"},{"icsId":"1008288","id":"490008288H","lat":51.5031,"lon":-0.19165,"name":"Kensington Church Street / Holland St","parentId":"490G00008288","stationId":"490G00008288","stopLetter":"H","topMostParentId":"490G00008288","towards":"Ladbroke Grove Or Westbourne Park"},{"icsId":"1012055","id":"490012055N","lat":51.50612,"lon":-0.19448,"name":"Sheffield Terrace","parentId":"490G00012055","stationId":"490G00012055","stopLetter":"X","topMostParentId":"490G00012055","towards":"Ladbroke Grove Or Westbourne Park"},{"icsId":"1000167","id":"490000167G","lat":51.50877,"lon":-0.1953,"name":"Notting Hill Gate Station","stopLetter":"G","topMostParentId":"490000167G","towards":"Ladbroke Grove Or Westbourne Park","zone":"1+2"},{"icsId":"1015039","id":"490015039B","lat":51.50949,"lon":-0.1974,"name":"Notting Hill Gate Stn  / Pembridge Rd","parentId":"490G000848","stationId":"490G000848","stopLetter":"B","topMostParentId":"490G000848","towards":"Paddington Or Westbourne Park"},{"icsId":"1005085","id":"490005085N","lat":51.51307,"lon":-0.19745,"name":"Chepstow Crescent","parentId":"490G00005085","stationId":"490G00005085","stopLetter":"PU","topMostParentId":"490G00005085","towards":"Paddington Or Westbourne Park"},{"icsId":"1005089","id":"490005089E","lat":51.51471,"lon":-0.19561,"name":"Pembridge Villas / Westbourne Grove","parentId":"490G00005089","stationId":"490G00005089","stopLetter":"PV","topMostParentId":"490G00005089","towards":"Paddington Or Westbourne Park"},{"icsId":"1019713","id":"490014402A","lat":51.51583,"lon":-0.19542,"name":"Artesian Road","parentId":"490G00019713","stationId":"490G00019713","stopLetter":"PC","topMostParentId":"490G00019713","towards":"Kilburn Or Ladbroke Grove"},{"icsId":"1012948","id":"490012948N","lat":51.51857,"lon":-0.19629,"name":"St Stephens Gardens","parentId":"490G00012948","stationId":"490G00012948","stopLetter":"->N","topMostParentId":"490G00012948","towards":"Kilburn Or Ladbroke Grove"},{"icsId":"1014404","id":"490014404P","lat":51.51912,"lon":-0.1991,"name":"Brunel Estate","parentId":"490G00014404","stationId":"490G00014404","stopLetter":"P","topMostParentId":"490G00014404","towards":"Kilburn Or Kensal Rise"},{"icsId":"1000259","id":"490000259A","lat":51.52122,"lon":-0.20093,"name":"Westbourne Park Station","stopLetter":"A","topMostParentId":"490000259A","towards":"Kilburn Or Kensal Rise","zone":"2"},{"icsId":"1019459","id":"490007861C","lat":51.52351,"lon":-0.20189,"name":"Harrow Road","parentId":"490G00019459","stationId":"490G00019459","stopLetter":"C","topMostParentId":"490G00019459","towards":"Kilburn Or Kensal Rise"},{"icsId":"1003444","id":"490003444W","lat":51.52481,"lon":-0.20289,"name":"Ashmore Road","parentId":"490G00003444","stationId":"490G00003444","stopLetter":"S","topMostParentId":"490G00003444","towards":"Ladbroke Grove, Kensal Rise Or Harlesden"},{"icsId":"1007666","id":"490007666W","lat":51.52633,"lon":-0.20684,"name":"Second Avenue","parentId":"490G00007666","stationId":"490G00007666","stopLetter":"T","topMostParentId":"490G00007666","towards":"Ladbroke Grove, Kensal Rise Or Harlesden"},{"icsId":"1006832","id":"490006832W","lat":51.52691,"lon":-0.21148,"name":"Fifth Avenue / Queen's Park Library","parentId":"490G00006832","stationId":"490G00006832","stopLetter":"Y","topMostParentId":"490G00006832","towards":"Ladbroke Grove, Kensal Rise Or Harlesden"},{"icsId":"1008711","id":"490008711V","lat":51.52749,"lon":-0.21494,"name":"Ladbroke Grove / Kilburn Lane","parentId":"490G00008711","stationId":"490G00008711","stopLetter":"V","topMostParentId":"490G00008711","towards":"Ladbroke Grove, Kensal Rise Or Harlesden"},{"icsId":"1007861","id":"490007860N","lat":51.52844,"lon":-0.2161,"name":"Kilburn Lane / Harrow Road","parentId":"490G000044","stationId":"490G000044","stopLetter":"KT","topMostParentId":"490G000044","towards":"Willesden Or Cricklewood"},{"icsId":"1003583","id":"490003583N","lat":51.53057,"lon":-0.21652,"name":"Banister Road","parentId":"490G00003583","stationId":"490G00003583","stopLetter":"KS","topMostParentId":"490G00003583","towards":"Willesden Or Cricklewood"},{"icsId":"1001161","id":"490001161N","lat":51.5337,"lon":-0.21915,"name":"Kensal Rise Station","stopLetter":"KR","topMostParentId":"490001161N","towards":"Harlesden Or Willesden"}]}]}