{"direction":"inbound","lineId":"283","lineName":"283","mode":"bus","stopPointSequences":[{"stopPoint":[{"icsId":"1007705","id":"490007705B","lat":51.49246,"lon":-0.22435,"name":"Hammersmith Bus Station","parentId":"490G000565","stationId":"490G000565","stopLetter":"A","topMostParentId":"HUBHMS","towards":"Shepherd's Bush"},{"icsId":"1007708","id":"490007708V","lat":51.49362,"lon":-0.22404,"name":"Hammersmith Library","parentId":"490G000567","stationId":"490G000567","stopLetter":"Q","topMostParentId":"490G000567","towards":"Ladbroke Grove Or White City"},{"icsId":"1004456","id":"490004456N","lat":51.49766,"lon":-0.22269,"name":"Brook Green","parentId":"490G00004456","stationId":"490G00004456","stopLetter":"C","topMostParentId":"490G00004456","towards":"Ladbroke Grove Or White City"},{"icsId":"1004121","id":"490004121N","lat":51.5004,"lon":-0.22217,"name":"Blythe Road","parentId":"490G00004121","stationId":"490G00004121","stopLetter":"D","topMostParentId":"490G00004121","towards":"Ladbroke Grove Or White City"},{"icsId":"1012127","id":"490012127P","lat":51.50247,"lon":-0.22282,"name":"Goldhawk Road","parentId":"490G00012127","stationId":"490G00012127","stopLetter":"H","topMostParentId":"490G00012127","towards":"Ladbroke Grove Or White City"},{"icsId":"1012068","id":"490012068T","lat":51.50429,"lon":-0.22445,"name":"Shepherds Bush Green","parentId":"490G000742","stationId":"490G000742","stopLetter":"P","topMostParentId":"490G000742","towards":"Acton Or East Acton"},{"icsId":"1012066","id":"490012066A","lat":51.50559,"lon":-0.22737,"name":"Shepherds Bush Market Station","parentId":"490G000741","stationId":"490G000741","stopLetter":"Q","topMostParentId":"490G000741","towards":"Acton Or East Acton"},{"icsId":"1006065","id":"490006065W","lat":51.5061,"lon":-0.22996,"name":"Loftus Road","parentId":"490G00006065","stationId":"490G00006065","stopLetter":"LE","topMostParentId":"490G00006065","towards":"Acton Or East Acton"},{"icsId":"1004111","id":"490004111W","lat":51.50638,"lon":-0.2334,"name":"Bloemfontein Road","parentId":"490G00004111","stationId":"490G00004111","stopLetter":"LF","topMostParentId":"490G00004111","towards":"Acton Or East Acton"},{"icsId":"1003110","id":"490003110W","lat":51.50637,"lon":-0.23676,"name":"Adelaide Grove","parentId":"490G00003110","stationId":"490G00003110","stopLetter":"LH","topMostParentId":"490G00003110","towards":"Acton Or East Acton"},{"icsId":"1008607","id":"490008607W","lat":51.50638,"lon":-0.23927,"name":"Galloway Road","parentId":"490G00008607","stationId":"490G00008607","stopLetter":"LJ","topMostParentId":"490G00008607","towards":"Acton Or East Acton"},{"icsId":"1014946","id":"490014946N","lat":51.50909,"lon":-0.24102,"name":"Wormholt Road","parentId":"490G00014946","stationId":"490G00014946","stopLetter":"LL","topMostParentId":"490G00014946","towards":"East Acton"},{"icsId":"1004541","id":"490004541E","lat":51.51133,"lon":-0.24003,"name":"Bryony Road","parentId":"490G00004541","stationId":"490G00004541","stopLetter":"LM","topMostParentId":"490G00004541","towards":"East Acton"},{"icsId":"1008539","id":"490008539S","lat":51.51133,"lon":-0.23484,"name":"Commonwealth Avenue","parentId":"490G00008539","stationId":"490G00008539","stopLetter":"LN","topMostParentId":"490G00008539","towards":"East Acton Or Hammersmith"},{"icsId":"1011342","id":"490011342LP","lat":51.50994,"lon":-0.23296,"name":"Queens Park Rangers Football Stadium","parentId":"490G00011342","stationId":"490G00011342","stopLetter":"LP","topMostParentId":"490G00011342","towards":"East Acton Or White City Bus Station"},{"icsId":"1009537","id":"490009537E","lat":51.51107,"lon":-0.22997,"name":"Mandela Close","parentId":"490G00009537","stationId":"490G00009537","stopLetter":"LQ","topMostParentId":"490G00009537","towards":"East Acton Or White City Bus Station"},{"icsId":"1012238","id":"490012238N","lat":51.51332,"lon":-0.2256,"name":"Westway","parentId":"490G000748","stationId":"490G000748","stopLetter":"N","topMostParentId":"490G000748","towards":"East Acton Or Harlesden"},{"icsId":"1014876","id":"490014869N","lat":51.5163,"lon":-0.22692,"name":"Cavell House","parentId":"490G00014876","stationId":"490G00014876","stopLetter":"P","topMostParentId":"490G00014876","towards":"East Acton Or Harlesden"},{"icsId":"1014869","id":"490014869W","lat":51.51666,"lon":-0.22888,"name":"Latymer Upper School / Playing Fields","parentId":"490G00014869","stationId":"490G00014869","stopLetter":"D","topMostParentId":"490G00014869","towards":"Acton Or East Acton"},{"icsId":"1007707","id":"490007707F","lat":51.51615,"lon":-0.2346,"name":"Hammersmith Hospital","parentId":"490G00007707","stationId":"490G00007707","stopLetter":"E","topMostParentId":"490G00007707","towards":"East Acton"},{"icsId":"1014971","id":"490014971G","lat":51.5155,"lon":-0.24359,"name":"Wulfstan Street","parentId":"490G00014971","stationId":"490G00014971","stopLetter":"G","topMostParentId":"490G00014971","towards":"Acton Or Chiswick"},{"icsId":"1000065","id":"490000065H","lat":51.51518,"lon":-0.24859,"name":"East Acton Station","stopLetter":"H","topMostParentId":"490000065H","towards":"Acton, Chiswick Or Brunel Road","zone":"2"},{"icsId":"1013349","id":"490013349M","lat":51.51696,"lon":-0.25015,"name":"The Fairway","parentId":"490G00013349","stationId":"490G00013349","stopLetter":"M","topMostParentId":"490G00013349","towards":"Brunel Road Or Willesden Junction"},{"icsId":"1009299","id":"490009299N","lat":51.51896,"lon":-0.25076,"name":"Long Drive","parentId":"490G00009299","stationId":"490G00009299","stopLetter":"N","topMostParentId":"490G00009299","towards":"Brunel Road Or Willesden Junction"},{"icsId":"1004524","id":"490004524W","lat":51.5197,"lon":-0.25382,"name":"Brunel Road","parentId":"490G00004524","stationId":"490G00004524","stopLetter":"X1","topMostParentId":"490G00004524"}]}]}