{"direction":"inbound","lineId":"287","lineName":"287","mode":"bus","stopPointSequences":[{"stopPoint":[{"icsId":"1003037","id":"490003037E","lat":51.52947,"lon":0.21338,"name":"Abbey Wood Lane","parentId":"490G00003037","stationId":"490G00003037","stopLetter":"->E","topMostParentId":"490G00003037","towards":"Rainham Village"},{"icsId":"1003940","id":"490003940S","lat":51.5265,"lon":0.21443,"name":"Thorn Lane","parentId":"490G00003940","stationId":"490G00003940","stopLetter":"->S","topMostParentId":"490G00003940","towards":"Rainham Village"},{"icsId":"1008907","id":"490008907S","lat":51.52547,"lon":0.21755,"name":"Lake Avenue","parentId":"490G00008907","stationId":"490G00008907","stopLetter":"->S","topMostParentId":"490G00008907","towards":"Rainham Village"},{"icsId":"1003066","id":"490003066W","lat":51.52272,"lon":0.21748,"name":"Acer Avenue","parentId":"490G00003066","stationId":"490G00003066","stopLetter":"->W","topMostParentId":"490G00003066","towards":"Rainham Village"},{"icsId":"1008923","id":"490008923W","lat":51.52177,"lon":0.21212,"name":"Lambs Lane North","parentId":"490G00008923","stationId":"490G00008923","stopLetter":"->W","topMostParentId":"490G00008923","towards":"Rainham Village"},{"icsId":"1003232","id":"490003232W","lat":51.52105,"lon":0.20905,"name":"Allen Road","parentId":"490G00003232","stationId":"490G00003232","stopLetter":"->W","topMostParentId":"490G00003232","towards":"Rainham Village"},{"icsId":"1010254","id":"490010254W","lat":51.52037,"lon":0.20469,"name":"New Road","parentId":"490G00010254","stationId":"490G00010254","stopLetter":"->W","topMostParentId":"490G00010254","towards":"Dagenham Or Elm Park"},{"icsId":"1004341","id":"490004341W","lat":51.52007,"lon":0.20246,"name":"Brights Avenue","parentId":"490G00004341","stationId":"490G00004341","stopLetter":"->W","topMostParentId":"490G00004341","towards":"Dagenham Or Elm Park"},{"icsId":"1011395","id":"490011395W","lat":51.51936,"lon":0.19619,"name":"Rainham Village School","parentId":"490G00011395","stationId":"490G00011395","stopLetter":"P","topMostParentId":"490G00011395","towards":"Dagenham Or Elm Park"},{"icsId":"1020119","id":"490020119W","lat":51.51837,"lon":0.192,"name":"St Helen's Court","parentId":"490G00020119","stationId":"490G00020119","stopLetter":"R","topMostParentId":"490G00020119","towards":"Dagenham Or Elm Park"},{"icsId":"1011396","id":"490011396C","lat":51.51853,"lon":0.18996,"name":"Rainham War Memorial","parentId":"490G00011396","stationId":"490G00011396","stopLetter":"C","topMostParentId":"490G00011396","towards":"Dagenham Or Elm Park"},{"icsId":"1011394","id":"490011394F","lat":51.51948,"lon":0.19088,"name":"Rainham Tesco","parentId":"490G00011394","stationId":"490G00011394","stopLetter":"F","topMostParentId":"490G00011394","towards":"Abbey Wood Lane, Dagenham Or Elm Park"},{"icsId":"1006152","id":"490006152G","lat":51.52174,"lon":0.18844,"name":"Dovers Corner","parentId":"490G00006152","stationId":"490G00006152","stopLetter":"G","topMostParentId":"490G00006152","towards":"Dagenham Or Elm Park"},{"icsId":"1015718","id":"490015718W","lat":51.52209,"lon":0.18511,"name":"Cherry Tree Lane","parentId":"490G00015718","stationId":"490G00015718","stopLetter":"Q","topMostParentId":"490G00015718","towards":"Dagenham Or Elm Park"},{"icsId":"1009600","id":"490009600W","lat":51.52313,"lon":0.18014,"name":"Manor Way","parentId":"490G00009600","stationId":"490G00009600","stopLetter":"R","topMostParentId":"490G00009600","towards":"Dagenham"},{"icsId":"1003954","id":"490003954W","lat":51.52409,"lon":0.17555,"name":"Betterton Road","parentId":"490G00003954","stationId":"490G00003954","stopLetter":"S","topMostParentId":"490G00003954","towards":"Dagenham"},{"icsId":"1012385","id":"490012385W","lat":51.52449,"lon":0.17405,"name":"Spencer Road","parentId":"490G00012385","stationId":"490G00012385","stopLetter":"T","topMostParentId":"490G00012385","towards":"Dagenham"},{"icsId":"1016465","id":"490012338W","lat":51.52544,"lon":0.16871,"name":"South Street","parentId":"490G00016465","stationId":"490G00016465","stopLetter":"ME","topMostParentId":"490G00016465","towards":"Dagenham"},{"icsId":"1019964","id":"490016465W","lat":51.52614,"lon":0.16547,"name":"Lower Mardyke Avenue","parentId":"490G00019964","stationId":"490G00019964","stopLetter":"MG","topMostParentId":"490G00019964","towards":"Dagenham Heathway Or Upney"},{"icsId":"1013205","id":"490013205W","lat":51.52671,"lon":0.16265,"name":"Thames Avenue","parentId":"490G00013205","stationId":"490G00013205","stopLetter":"MH","topMostParentId":"490G00013205","towards":"Upney Or Heathway"},{"icsId":"1006909","id":"490006906W","lat":51.52761,"lon":0.1584,"name":"East Entrance","stopLetter":"P","topMostParentId":"490006906W","towards":"Upney and Heathway"},{"icsId":"1019001","id":"490003565W","lat":51.52965,"lon":0.15365,"name":"Ballards Road","parentId":"490G00019001","stationId":"490G00019001","stopLetter":"Q","topMostParentId":"490G00019001","towards":"Becontree Heath, Rush Green Or Upney"},{"icsId":"1015139","id":"490015139W3","lat":51.53068,"lon":0.15064,"name":"Chequers Lane","parentId":"490G00015139","stationId":"490G00015139","stopLetter":"R","topMostParentId":"490G00015139","towards":"Becontree Heath, Rush Green Or Upney"},{"icsId":"1005090","id":"490005090W1","lat":51.53146,"lon":0.1467,"name":"Chequers Lane / Merrielands Retail Park","parentId":"490G00005090","stationId":"490G00005090","stopLetter":"S","topMostParentId":"490G00005090","towards":"Beckton Or Upney"},{"icsId":"1001647","id":"490011099W","lat":51.53044,"lon":0.13799,"name":"Morrison Road","parentId":"490G000281","stationId":"490G000281","stopLetter":"E","topMostParentId":"490G000281","towards":"Beckton Or Upney"},{"icsId":"1010042","id":"490010042W","lat":51.53127,"lon":0.13503,"name":"Dagenham Leisure Park","parentId":"490G00010042","stationId":"490G00010042","stopLetter":"F","topMostParentId":"490G00010042","towards":"Beckton Or Upney"},{"icsId":"1007314","id":"490007314W","lat":51.53153,"lon":0.12715,"name":"Gale Street / Goresbrook Leisure Centre","parentId":"490G00007314","stationId":"490G00007314","stopLetter":"G","topMostParentId":"490G00007314","towards":"Beckton Or Upney"},{"icsId":"1019185","id":"490004842W","lat":51.53166,"lon":0.12217,"name":"Castle Green / Rippleside Commercial Est","parentId":"490G00019185","stationId":"490G00019185","stopLetter":"H","topMostParentId":"490G00019185","towards":"Barking Or Beckton"},{"icsId":"1011527","id":"490011527W","lat":51.53219,"lon":0.11852,"name":"Renwick Road","parentId":"490G00011527","stationId":"490G00011527","stopLetter":"J","topMostParentId":"490G00011527","towards":"Barking Or Beckton"},{"icsId":"1009246","id":"490009246E2","lat":51.53271,"lon":0.11035,"name":"Lodge Avenue","parentId":"490G00009246","stationId":"490G00009246","stopLetter":"P","topMostParentId":"490G00009246","towards":"Barking Or Beckton"},{"icsId":"1013224","id":"490013224W","lat":51.53339,"lon":0.10606,"name":"Barking Industrial Park","parentId":"490G00013224","stationId":"490G00013224","stopLetter":"Q","topMostParentId":"490G00013224","towards":"Barking Town Centre"},{"icsId":"1011591","id":"490011591W","lat":51.53484,"lon":0.10383,"name":"Rippleside Cemetery","parentId":"490G00011591","stationId":"490G00011591","stopLetter":"T","topMostParentId":"490G00011591","towards":"Barking Town Centre"},{"icsId":"1013834","id":"490013834W","lat":51.53568,"lon":0.0981,"name":"Tudor Road","parentId":"490G00013834","stationId":"490G00013834","stopLetter":"X","topMostParentId":"490G00013834","towards":"Barking Town Centre"},{"icsId":"1004086","id":"490004086W","lat":51.53552,"lon":0.09468,"name":"Blake Avenue","parentId":"490G00004086","stationId":"490G00004086","stopLetter":"Y","topMostParentId":"490G00004086","towards":"Barking Town Centre"},{"icsId":"1008741","id":"490008741W","lat":51.53433,"lon":0.08645,"name":"King Edwards Road","parentId":"490G00008741","stationId":"490G00008741","stopLetter":"W","topMostParentId":"490G00008741","towards":"Goodmayes Or Ilford"},{"icsId":"1018827","id":"490018827N","lat":51.53464,"lon":0.08333,"name":"Westbury Road","parentId":"490G00018827","stationId":"490G00018827","stopLetter":"T","topMostParentId":"490G00018827","towards":"Goodmayes, Ilford Or Upney"},{"icsId":"1003033","id":"490003033W","lat":51.53479,"lon":0.07971,"name":"Abbey Sports Centre","parentId":"490G00003033","stationId":"490G00003033","stopLetter":"Y","topMostParentId":"490G00003033","towards":"Chadwell Heath Or Upney"},{"icsId":"1004383","id":"490004383S","lat":51.53547,"lon":0.07704,"name":"Broadway Theatre","parentId":"490G00004383","stationId":"490G00004383","stopLetter":"S","topMostParentId":"490G00004383","towards":"Chadwell Heath Or Upney"},{"icsId":"1003603","id":"490003603A","lat":51.53711,"lon":0.07624,"name":"Barking Abbey","parentId":"490G00003603","stationId":"490G00003603","stopLetter":"A","topMostParentId":"490G00003603","towards":"Chadwell Heath Or Upney"},{"icsId":"1003616","id":"490003616D","lat":51.53816,"lon":0.07825,"name":"Barking Town Centre","parentId":"490G00003616","stationId":"490G00003616","stopLetter":"D","topMostParentId":"490G00003616","towards":"Ilford"},{"icsId":"1000015","id":"490000015L","lat":51.53997,"lon":0.08206,"name":"Barking Station","stopLetter":"L","topMostParentId":"490000015L","towards":"Ilford","zone":"4"}]}]}