{"direction":"inbound","lineId":"288","lineName":"288","mode":"bus","stopPointSequences":[{"stopPoint":[{"icsId":"1009762","id":"490009762E","lat":51.62947,"lon":-0.27232,"name":"Meadfield","parentId":"490G00009762","stationId":"490G00009762","topMostParentId":"490G00009762","towards":"Edgware"},{"icsId":"1012413","id":"490012413E","lat":51.62964,"lon":-0.26909,"name":"Springwood Crescent","parentId":"490G00012413","stationId":"490G00012413","stopLetter":"->E","topMostParentId":"490G00012413","towards":"Edgware"},{"icsId":"1008630","id":"490008630S","lat":51.62815,"lon":-0.26733,"name":"Morley Crescent","parentId":"490G00008630","stationId":"490G00008630","stopLetter":"->S","topMostParentId":"490G00008630","towards":"Edgware"},{"icsId":"1003188","id":"490003188W","lat":51.62631,"lon":-0.26899,"name":"Aldridge Avenue","parentId":"490G00003188","stationId":"490G00003188","stopLetter":"->W","topMostParentId":"490G00003188","towards":"Edgware"},{"icsId":"1007230","id":"490007230S","lat":51.62646,"lon":-0.27298,"name":"Glengall Road","parentId":"490G00007230","stationId":"490G00007230","stopLetter":"->S","topMostParentId":"490G00007230","towards":"Edgware"},{"icsId":"1013401","id":"490014801S","lat":51.62239,"lon":-0.27425,"name":"Broadhurst Avenue","parentId":"490G00013401","stationId":"490G00013401","stopLetter":"K","topMostParentId":"490G00013401","towards":"Edgware"},{"icsId":"1006423","id":"490006423S","lat":51.6206,"lon":-0.27748,"name":"Edgwarebury Lane / Edgware Way","parentId":"490G00006423","stationId":"490G00006423","stopLetter":"G","topMostParentId":"490G00006423","towards":"Belmont Or Queensbury Station"},{"icsId":"1006422","id":"490006422S","lat":51.61747,"lon":-0.27709,"name":"Edgwarebury Gardens","parentId":"490G00006422","stationId":"490G00006422","stopLetter":"H","topMostParentId":"490G00006422","towards":"Belmont Or Queensbury Station"},{"icsId":"1000070","id":"490000070G","lat":51.6134,"lon":-0.27552,"name":"Edgware Station","stopLetter":"G","topMostParentId":"490000070G","zone":"5"},{"icsId":"1000070","id":"490000070C","lat":51.6131,"lon":-0.27486,"name":"Edgware Station","stopLetter":"C","topMostParentId":"490000070C","towards":"Harrow Or Queensbury","zone":"5"},{"icsId":"1014573","id":"490014573N","lat":51.61018,"lon":-0.27848,"name":"Whitchurch Lane","parentId":"490G00014573","stationId":"490G00014573","stopLetter":"N","topMostParentId":"490G00014573","towards":"Burnt Oak"},{"icsId":"1006004","id":"490006004HD","lat":51.60772,"lon":-0.2756,"name":"Deansbrook Road","parentId":"490G00006004","stationId":"490G00006004","stopLetter":"HD","topMostParentId":"490G00006004","towards":"Colindale, Mill Hill Or Queensbury"},{"icsId":"1013000","id":"490013000W","lat":51.60602,"lon":-0.27692,"name":"Summit Close","parentId":"490G00013000","stationId":"490G00013000","stopLetter":"->W","topMostParentId":"490G00013000","towards":"Queensbury"},{"icsId":"1003537","id":"490003537W","lat":51.60414,"lon":-0.28112,"name":"Bacon Lane","parentId":"490G00003537","stationId":"490G00003537","stopLetter":"->W","topMostParentId":"490G00003537","towards":"Queensbury"},{"icsId":"1009815","id":"490009815E1","lat":51.60316,"lon":-0.28374,"name":"Merlin Crescent","parentId":"490G00009815","stationId":"490G00009815","stopLetter":"->W","topMostParentId":"490G00009815","towards":"Queensbury"},{"icsId":"1012639","id":"490012639W","lat":51.6017,"lon":-0.28781,"name":"St Bride's Avenue","parentId":"490G00012639","stationId":"490G00012639","stopLetter":"L","topMostParentId":"490G00012639","towards":"Queensbury"},{"icsId":"1004334","id":"490004334S","lat":51.5987,"lon":-0.29063,"name":"Bridgewater Gardens","parentId":"490G00004334","stationId":"490G00004334","stopLetter":"M","topMostParentId":"490G00004334","towards":"Queensbury Station"},{"icsId":"1009966","id":"490009966S","lat":51.59623,"lon":-0.28837,"name":"Mollison Way","parentId":"490G00009966","stationId":"490G00009966","stopLetter":"N","topMostParentId":"490G00009966","towards":"Queensbury Station"},{"icsId":"1000185","id":"490000185BB","lat":51.59474,"lon":-0.28504,"name":"Queensbury Station","stopLetter":"BB","topMostParentId":"490000185BB","towards":"Harrow, Wembley Or Hendon","zone":"4"},{"icsId":"1011328","id":"490011328S","lat":51.59172,"lon":-0.28539,"name":"Queensbury Morrisons","parentId":"490G00011328","stationId":"490G00011328","stopLetter":"->S","topMostParentId":"490G00011328","towards":"Wembley Or Hendon"}]}]}