{"direction":"inbound","lineId":"293","lineName":"293","mode":"bus","stopPointSequences":[{"stopPoint":[{"icsId":"1006605","id":"40004406036B","lat":51.326276,"lon":-0.274494,"name":"Epsom Hospital","parentId":"400G4406036A","stationId":"400G4406036A","stopLetter":"Q","topMostParentId":"400G4406036A","towards":"Epsom"},{"icsId":"1006396","id":"40004406114B","lat":51.325324,"lon":-0.278248,"name":"Westlands Court","parentId":"400G4406114C","stationId":"400G4406114C","topMostParentId":"400G4406114C","towards":"Ashtead Or Langley Vale"},{"icsId":"1018348","id":"40004406164A","lat":51.321252,"lon":-0.278371,"name":"Woodcote Side","topMostParentId":"40004406164A","towards":"Drift Bridge, Ewell Or Langley Vale"},{"icsId":"1014831","id":"40004406009B","lat":51.322774,"lon":-0.274884,"name":"Hylands Road","parentId":"400G4406009B","stationId":"400G4406009B","topMostParentId":"400G4406009B","towards":"Drift Bridge Or Ewell"},{"icsId":"1014830","id":"40004406010B","lat":51.324189,"lon":-0.272047,"name":"Woodcote Green Road","parentId":"400G4406010A","stationId":"400G4406010A","stopLetter":"S","topMostParentId":"400G4406010A","towards":"Drift Bridge Or Ewell"},{"icsId":"1014826","id":"40004406011B","lat":51.327996,"lon":-0.270411,"name":"Avenue Road","parentId":"400G4406011A","stationId":"400G4406011A","topMostParentId":"400G4406011A","towards":"Drift Bridge Or Ewell"},{"icsId":"1006600","id":"40004406038A","lat":51.333272,"lon":-0.268404,"name":"Epsom Clock Tower","parentId":"400G4406038A","stationId":"400G4406038A","stopLetter":"A","topMostParentId":"910GEPSM","towards":"Ewell or West Ewell"},{"icsId":"1006610","id":"40004406039A","lat":51.333991,"lon":-0.265347,"name":"Epsom High Street","parentId":"400G4406039A","stationId":"400G4406039A","stopLetter":"G","topMostParentId":"910GEPSM"},{"icsId":"1015601","id":"40004406040A","lat":51.336319,"lon":-0.260996,"name":"Rainbow Leisure Centre","parentId":"400G4406040A","stationId":"400G4406040A","topMostParentId":"400G4406040A","towards":"Ewell"},{"icsId":"1008717","id":"40004406117A","lat":51.338032,"lon":-0.258304,"name":"Kiln Lane","parentId":"400G4406117A","stationId":"400G4406117A","topMostParentId":"400G4406117A","towards":"Ewell"},{"icsId":"1015600","id":"40004406041A","lat":51.339588,"lon":-0.25589,"name":"Windmill Lane","parentId":"400G4406041A","stationId":"400G4406041A","topMostParentId":"400G4406041A","towards":"West Ewell, Cheam, North Cheam Or Stoneleigh"},{"icsId":"1008111","id":"40004406043A","lat":51.342954,"lon":-0.25246,"name":"Hessle Grove","parentId":"400G4406043A","stationId":"400G4406043A","topMostParentId":"400G4406043A","towards":"West Ewell, Cheam, North Cheam Or Stoneleigh"},{"icsId":"1015599","id":"40004406044A","lat":51.344965,"lon":-0.251637,"name":"Mongers Lane","parentId":"400G4406044A","stationId":"400G4406044A","topMostParentId":"400G4406044A","towards":"West Ewell, Cheam, North Cheam Or Stoneleigh"},{"icsId":"1006676","id":"40004406045A","lat":51.346787,"lon":-0.250763,"name":"Reigate Road / Green Man","topMostParentId":"40004406045A","towards":"West Ewell, Cheam, North Cheam Or Stoneleigh"},{"icsId":"1006679","id":"40004406915A","lat":51.350565,"lon":-0.25026,"name":"The Spring","parentId":"400G4406055B","stationId":"400G4406055B","topMostParentId":"400G4406055B","towards":"North Cheam Or Stoneleigh"},{"icsId":"1012795","id":"40004406056A","lat":51.353785,"lon":-0.246676,"name":"Welbeck Close","parentId":"400G4406056A","stationId":"400G4406056A","topMostParentId":"400G4406056A","towards":"North Cheam"},{"icsId":"1010755","id":"40004406058A","lat":51.355512,"lon":-0.243709,"name":"Ewell Park Way","parentId":"400G4406058A","stationId":"400G4406058A","topMostParentId":"400G4406058A","towards":"North Cheam"},{"icsId":"1004311","id":"40004406059A","lat":51.359805,"lon":-0.239725,"name":"Briarwood Road","parentId":"400G4406059A","stationId":"400G4406059A","topMostParentId":"400G4406059A","towards":"Morden Park"},{"icsId":"1010293","id":"40004406060A","lat":51.362595,"lon":-0.236931,"name":"Nonsuch Park","parentId":"400G4406060A","stationId":"400G4406060A","topMostParentId":"400G4406060A","towards":"Morden Park"},{"icsId":"1012370","id":"40004406146A","lat":51.364779,"lon":-0.234463,"name":"Sparrow Farm Road","parentId":"400G4406145A","stationId":"400G4406145A","topMostParentId":"400G4406145A","towards":"Morden Park"},{"icsId":"1010502","id":"490010502W","lat":51.36798,"lon":-0.23142,"name":"Oaks Avenue","parentId":"490G00010502","stationId":"490G00010502","stopLetter":"W","topMostParentId":"490G00010502","towards":"Morden"},{"icsId":"1010323","id":"490010323C","lat":51.37165,"lon":-0.2274,"name":"North Cheam / Queen Victoria","parentId":"490G00010323","stationId":"490G00010323","stopLetter":"C","topMostParentId":"490G00010323","towards":"Morden"},{"icsId":"1010325","id":"490010325N","lat":51.37487,"lon":-0.22422,"name":"North Cheam Sports Club","parentId":"490G00010325","stationId":"490G00010325","stopLetter":"HJ","topMostParentId":"490G00010325","towards":"Morden Or Sutton Common"},{"icsId":"1008948","id":"490008948N1","lat":51.37644,"lon":-0.22225,"name":"Langley Avenue","parentId":"490G00008948","stationId":"490G00008948","stopLetter":"HK","topMostParentId":"490G00008948","towards":"Morden Or Sutton Common"},{"icsId":"1012580","id":"490012580N","lat":51.37793,"lon":-0.22071,"name":"St Anthony's Hospital","parentId":"490G00012580","stationId":"490G00012580","stopLetter":"HL","topMostParentId":"490G00012580","towards":"Morden"},{"icsId":"1007130","id":"490007130AF","lat":51.38066,"lon":-0.21803,"name":"Garth Road / Stonecot Hill","parentId":"490G00007130","stationId":"490G00007130","stopLetter":"HP","topMostParentId":"490G00007130","towards":"Lower Morden"},{"icsId":"1016460","id":"490016460N","lat":51.38395,"lon":-0.22467,"name":"Alpha Place","parentId":"490G00016460","stationId":"490G00016460","stopLetter":"->N","topMostParentId":"490G00016460","towards":"Morden"},{"icsId":"1016493","id":"490016493N","lat":51.38915,"lon":-0.22696,"name":"Rosebery Close","parentId":"490G00016493","stationId":"490G00016493","stopLetter":"LE","topMostParentId":"490G00016493","towards":"Morden"},{"icsId":"1016459","id":"490016459N","lat":51.39045,"lon":-0.22604,"name":"Lower Morden Lane / Morden Cemetery","parentId":"490G00016459","stationId":"490G00016459","stopLetter":"LF","topMostParentId":"490G00016459","towards":"Morden"},{"icsId":"1009429","id":"490009424E","lat":51.39144,"lon":-0.22178,"name":"Tudor Drive","parentId":"490G00009429","stationId":"490G00009429","stopLetter":"HE","topMostParentId":"490G00009429","towards":"Morden"},{"icsId":"1005317","id":"490005317E","lat":51.39294,"lon":-0.21705,"name":"Churston Drive","parentId":"490G00005317","stationId":"490G00005317","stopLetter":"HF","topMostParentId":"490G00005317","towards":"Morden"},{"icsId":"1008212","id":"490008212E","lat":51.39531,"lon":-0.2142,"name":"Hillcross Avenue","parentId":"490G00008212","stationId":"490G00008212","stopLetter":"HG","topMostParentId":"490G00008212","towards":"Morden"},{"icsId":"1009974","id":"490009974E","lat":51.39715,"lon":-0.21164,"name":"Monkleigh Road","parentId":"490G00009974","stationId":"490G00009974","stopLetter":"HH","topMostParentId":"490G00009974","towards":"Morden"},{"icsId":"1003447","id":"490003447E","lat":51.3984,"lon":-0.20673,"name":"Ashridge Way","parentId":"490G00003447","stationId":"490G00003447","stopLetter":"A","topMostParentId":"490G00003447","towards":"Morden"},{"icsId":"1009731","id":"490009731E","lat":51.3993,"lon":-0.20283,"name":"Maycross Avenue","parentId":"490G00009731","stationId":"490G00009731","stopLetter":"B","topMostParentId":"490G00009731","towards":"Morden"},{"icsId":"1009187","id":"490009187N","lat":51.40115,"lon":-0.19995,"name":"Links Avenue","parentId":"490G00009187","stationId":"490G00009187","stopLetter":"C","topMostParentId":"490G00009187","towards":"Morden"},{"icsId":"1000151","id":"490000151K","lat":51.40189,"lon":-0.19557,"name":"Morden Station","stopLetter":"M","topMostParentId":"490000151K","zone":"4"}]}]}