{"direction":"inbound","lineId":"3","lineName":"3","mode":"bus","stopPointSequences":[{"stopPoint":[{"icsId":"1005879","id":"490005869D","lat":51.42043,"lon":-0.07808,"name":"Crystal Palace Bus Station","parentId":"490G00005879","stationId":"490G00005879","stopLetter":"D","topMostParentId":"490G00005879","towards":"Herne Hill, Norwood Junction Or Streatham"},{"icsId":"1005869","id":"490005869B","lat":51.4219,"lon":-0.07747,"name":"Crystal Palace Parade","parentId":"490G00005869","stationId":"490G00005869","stopLetter":"B","topMostParentId":"490G00005869","towards":"Herne Hill, Penge Or Sydenham"},{"icsId":"1005494","id":"490005494N","lat":51.42355,"lon":-0.07655,"name":"Crystal Palace Parade / College Road","parentId":"490G00005494","stationId":"490G00005494","stopLetter":"W","topMostParentId":"490G00005494","towards":"Herne Hill Or Sydenham"},{"icsId":"1015289","id":"490015289W","lat":51.42617,"lon":-0.07896,"name":"Dulwich Wood Park / College Road","parentId":"490G00015289","stationId":"490G00015289","stopLetter":"A","topMostParentId":"490G00015289","towards":"Herne Hill Or Sydenham"},{"icsId":"1008839","id":"490008839W","lat":51.42731,"lon":-0.08244,"name":"Dulwich Wood Park / Kingswood Drive","parentId":"490G00008839","stationId":"490G00008839","stopLetter":"B","topMostParentId":"490G00008839","towards":"Herne Hill Or Sydenham"},{"icsId":"1007190","id":"490007190W","lat":51.42786,"lon":-0.08561,"name":"Gipsy Hill","parentId":"490G00007190","stationId":"490G00007190","stopLetter":"E","topMostParentId":"490G00007190","towards":"Herne Hill"},{"icsId":"1003233","id":"490003233N","lat":51.43002,"lon":-0.08875,"name":"Alleyn Road","parentId":"490G00003233","stationId":"490G00003233","stopLetter":"WM","topMostParentId":"490G00003233","towards":"Herne Hill"},{"icsId":"1005246","id":"490005246N","lat":51.43118,"lon":-0.08918,"name":"Church Approach","parentId":"490G00005246","stationId":"490G00005246","stopLetter":"WN","topMostParentId":"490G00005246","towards":"Herne Hill"},{"icsId":"1012270","id":"490012270N","lat":51.43382,"lon":-0.08996,"name":"South Croxted Road","parentId":"490G00012270","stationId":"490G00012270","stopLetter":"WP","topMostParentId":"490G00012270","towards":"Herne Hill"},{"icsId":"1010774","id":"490010774N","lat":51.43573,"lon":-0.09049,"name":"Park Hall Road","parentId":"490G00010774","stationId":"490G00010774","stopLetter":"WQ","topMostParentId":"490G00010774","towards":"Herne Hill"},{"icsId":"1009183","id":"490009183N","lat":51.43885,"lon":-0.09204,"name":"Lings Coppice","parentId":"490G00009183","stationId":"490G00009183","stopLetter":"WR","topMostParentId":"490G00009183","towards":"Herne Hill"},{"icsId":"1013657","id":"490013657N","lat":51.44069,"lon":-0.09283,"name":"Croxted Road / Thurlow Park Road","parentId":"490G000799","stationId":"490G000799","stopLetter":"WS","topMostParentId":"490G000799","towards":"Herne Hill"},{"icsId":"1011293","id":"490011293N","lat":51.44346,"lon":-0.09462,"name":"Pymers Mead","parentId":"490G00011293","stationId":"490G00011293","stopLetter":"WU","topMostParentId":"490G00011293","towards":"Brixton"},{"icsId":"1013847","id":"490013847N","lat":51.44698,"lon":-0.09648,"name":"Turney Road","parentId":"490G00013847","stationId":"490G00013847","stopLetter":"WV","topMostParentId":"490G00013847","towards":"Brixton"},{"icsId":"1005850","id":"490005850N","lat":51.44813,"lon":-0.09801,"name":"Croxted Close","parentId":"490G00005850","stationId":"490G00005850","stopLetter":"Z","topMostParentId":"490G00005850","towards":"Brixton"},{"icsId":"1010451","id":"490010451J","lat":51.45027,"lon":-0.10043,"name":"Norwood Road","parentId":"490G00010451","stationId":"490G00010451","stopLetter":"J","topMostParentId":"490G00010451","towards":"Brixton"},{"icsId":"1004403","id":"490004403N","lat":51.45154,"lon":-0.10124,"name":"Brockwell Park","parentId":"490G000428","stationId":"490G000428","stopLetter":"H","topMostParentId":"490G000428","towards":"Brixton Or Camberwell"},{"icsId":"1001149","id":"490001149L","lat":51.45245,"lon":-0.10291,"name":"Herne Hill Station","stopLetter":"L","topMostParentId":"490001149L","towards":"Brixton"},{"icsId":"1004402","id":"490004402W","lat":51.4537,"lon":-0.10679,"name":"Brockwell Lido","parentId":"490G00004402","stationId":"490G00004402","stopLetter":"S","topMostParentId":"490G00004402","towards":"Clapham Common, Kennington Or Stockwell"},{"icsId":"1005054","id":"490005054N","lat":51.45527,"lon":-0.11027,"name":"Chaucer Road / Effra Parade","parentId":"490G00005054","stationId":"490G00005054","stopLetter":"T","topMostParentId":"490G00005054","towards":"Clapham Common, Kennington Or Stockwell"},{"icsId":"1015275","id":"490015275W","lat":51.45518,"lon":-0.11257,"name":"Brixton Water Lane","parentId":"490G00015275","stationId":"490G00015275","stopLetter":"V","topMostParentId":"490G00015275","towards":"Clapham Common, Kennington Or Stockwell"},{"icsId":"1005847","id":"490005847N","lat":51.45661,"lon":-0.1144,"name":"Morval Road","parentId":"490G00005847","stationId":"490G00005847","stopLetter":"N","topMostParentId":"490G00005847","towards":"Clapham Common, Kennington Or Stockwell"},{"icsId":"1012810","id":"490012810N","lat":51.45835,"lon":-0.11508,"name":"St Matthews Estate","parentId":"490G00012810","stationId":"490G00012810","stopLetter":"P","topMostParentId":"490G00012810","towards":"Clapham Common, Kennington Or Stockwell"},{"icsId":"1008919","id":"490008919X","lat":51.45988,"lon":-0.11671,"name":"Lambeth Town Hall","parentId":"490G000627","stationId":"490G000627","stopLetter":"X","topMostParentId":"490G000627","towards":"Kennington Church"},{"icsId":"1000031","id":"490000031R","lat":51.46224,"lon":-0.11529,"name":"Brixton Station","stopLetter":"R","topMostParentId":"490000031R","towards":"Kennington Oval","zone":"2"},{"icsId":"1007523","id":"490007523D","lat":51.46561,"lon":-0.1139,"name":"Brixton Road / Brixton Police Station","parentId":"490G000549","stationId":"490G000549","stopLetter":"D","topMostParentId":"490G000549","towards":"Lambeth Bridge Or Lambeth North"},{"icsId":"1014085","id":"490014085N","lat":51.46742,"lon":-0.11292,"name":"Villa Road","parentId":"490G00014085","stationId":"490G00014085","stopLetter":"RA","topMostParentId":"490G00014085","towards":"Elephant & Castle Or Imperial War Museum"},{"icsId":"1009373","id":"490009373N1","lat":51.46958,"lon":-0.11261,"name":"Loughborough Road","parentId":"490G00009373","stationId":"490G00009373","stopLetter":"RB","topMostParentId":"490G00009373","towards":"Kennington Oval"},{"icsId":"1007587","id":"490007587N","lat":51.47288,"lon":-0.11288,"name":"Groveway","parentId":"490G00007587","stationId":"490G00007587","stopLetter":"RC","topMostParentId":"490G00007587","towards":"Elephant & Castle Or Imperial War Museum"},{"icsId":"1008248","id":"490008248N","lat":51.47474,"lon":-0.11305,"name":"Hillyard Street","parentId":"490G00008248","stationId":"490G00008248","stopLetter":"RD","topMostParentId":"490G00008248","towards":"Elephant & Castle Or Imperial War Museum"},{"icsId":"1014013","id":"490014013N","lat":51.47731,"lon":-0.11244,"name":"Vassall Road","parentId":"490G00014013","stationId":"490G00014013","stopLetter":"RE","topMostParentId":"490G00014013","towards":"Elephant & Castle Or Imperial War Museum"},{"icsId":"1008642","id":"490008642H","lat":51.48064,"lon":-0.11106,"name":"St Mark's Church","parentId":"490G00008642","stationId":"490G00008642","stopLetter":"H","topMostParentId":"490G00008642","towards":"Elephant & Castle, Lambeth Bdg Or Lambeth Nth"},{"icsId":"1008645","id":"490008645U","lat":51.48504,"lon":-0.11088,"name":"Kennington Park Post Office","parentId":"490G00008645","stationId":"490G00008645","stopLetter":"U","topMostParentId":"490G00008645","towards":"Parliament Square Or Waterloo"},{"icsId":"1014773","id":"490014773KP","lat":51.4877,"lon":-0.11145,"name":"Windmill Row","parentId":"490G00014773","stationId":"490G00014773","stopLetter":"KP","topMostParentId":"490G00014773","towards":"Parliament Square Or Waterloo"},{"icsId":"1008643","id":"490008643KH","lat":51.49005,"lon":-0.11125,"name":"Kennington Lane","parentId":"490G00008643","stationId":"490G00008643","stopLetter":"KH","topMostParentId":"490G00008643","towards":"Parliament Square"},{"icsId":"1006864","id":"490006864N1","lat":51.49279,"lon":-0.11109,"name":"Fitzalan Street","parentId":"490G00006864","stationId":"490G00006864","stopLetter":"KG","topMostParentId":"490G00006864","towards":"Parliament Square Or Waterloo"},{"icsId":"1008476","id":"490008473F","lat":51.49597,"lon":-0.11135,"name":"Kennington Road / Imperial War Museum","parentId":"490G000608","stationId":"490G000608","stopLetter":"F","topMostParentId":"490G000608","towards":"Parliament Square Via Lambeth Bridge"},{"icsId":"1008647","id":"490008647W","lat":51.49622,"lon":-0.11235,"name":"Lambeth Road / Kennington Road","parentId":"490G00008647","stationId":"490G00008647","stopLetter":"H","topMostParentId":"490G00008647","towards":"Vauxhall"},{"icsId":"1011169","id":"490011169W","lat":51.49516,"lon":-0.11661,"name":"Pratt Walk","parentId":"490G00011169","stationId":"490G00011169","stopLetter":"->W","topMostParentId":"490G00011169","towards":"Vauxhall Or Westminster"},{"icsId":"1009881","id":"490009881W","lat":51.49469,"lon":-0.12652,"name":"Millbank","parentId":"490G00009881","stationId":"490G00009881","stopLetter":"NE","topMostParentId":"490G00009881","towards":"Victoria"},{"icsId":"1009694","id":"490009694W","lat":51.4948,"lon":-0.13096,"name":"Marsham Street","parentId":"490G00009694","stationId":"490G00009694","stopLetter":"NQ","topMostParentId":"490G00009694","towards":"Victoria"},{"icsId":"1012941","id":"490012941W","lat":51.49631,"lon":-0.13373,"name":"Strutton Ground","parentId":"490G00012941","stationId":"490G00012941","stopLetter":"SJ","topMostParentId":"490G00012941","towards":"Victoria"},{"icsId":"1003384","id":"490003384SB","lat":51.49715,"lon":-0.13745,"name":"Westminster City Hall","parentId":"490G000394","stationId":"490G000394","stopLetter":"SB","topMostParentId":"490G000394","towards":"Marble Arch, Pimlico Or Sloane Square"},{"icsId":"1014502","id":"490014496M","lat":51.4966,"lon":-0.1411,"name":"Westminster Cathedral / Victoria Stn","parentId":"490G000830","stationId":"490G000830","stopLetter":"M","topMostParentId":"490G000830","towards":"Marble Arch, Pimlico Or Sloane Square"},{"icsId":"1014050","id":"490014050B","lat":51.49601,"lon":-0.14382,"name":"Victoria Bus Station","parentId":"490G000812","stationId":"490G000812","stopLetter":"B","topMostParentId":"HUBVIC"}]}]}