{"direction":"inbound","lineId":"300","lineName":"300","mode":"bus","stopPointSequences":[{"stopPoint":[{"icsId":"1000039","id":"490000039F","lat":51.5145,"lon":0.00848,"name":"Canning Town Bus Station","stopLetter":"F","topMostParentId":"490000039F","zone":"2/3"},{"icsId":"1011429","id":"490011429J","lat":51.51664,"lon":0.0098,"name":"Rathbone Market","parentId":"490G00011429","stationId":"490G00011429","stopLetter":"J","topMostParentId":"490G00011429","towards":"Plaistow Or Stratford"},{"icsId":"1003750","id":"490003750L","lat":51.51755,"lon":0.01201,"name":"Hermit Road","parentId":"490G00003750","stationId":"490G00003750","stopLetter":"L","topMostParentId":"490G00003750","towards":"Plaistow Or Stratford"},{"icsId":"1005902","id":"490005902E","lat":51.51956,"lon":0.01641,"name":"Rokeby School","parentId":"490G00005902","stationId":"490G00005902","stopLetter":"S","topMostParentId":"490G00005902","towards":"Plaistow"},{"icsId":"1008834","id":"490008834E","lat":51.52081,"lon":0.01922,"name":"King Street","parentId":"490G00008834","stationId":"490G00008834","stopLetter":"BH","topMostParentId":"490G00008834","towards":"Plaistow"},{"icsId":"1003551","id":"490003551E","lat":51.52216,"lon":0.02196,"name":"Balaam Street","parentId":"490G00003551","stationId":"490G00003551","stopLetter":"BJ","topMostParentId":"490G00003551","towards":"Beckton Or Upton Park"},{"icsId":"1006040","id":"490006040S","lat":51.51958,"lon":0.0243,"name":"Denmark Street","parentId":"490G00006040","stationId":"490G00006040","stopLetter":"->S","topMostParentId":"490G00006040","towards":"Beckton Or Prince Regent"},{"icsId":"1010219","id":"490010219S","lat":51.51794,"lon":0.02365,"name":"Newham Way","parentId":"490G00010219","stationId":"490G00010219","stopLetter":"->S","topMostParentId":"490G00010219","towards":"Beckton Or Prince Regent"},{"icsId":"1000361","id":"490011814S","lat":51.51488,"lon":0.02547,"name":"Canning Town Recreation Ground","parentId":"490G000012","stationId":"490G000012","stopLetter":"->S","topMostParentId":"490G000012","towards":"Keir Hardie Estate Or Prince Regent"},{"icsId":"1010212","id":"490010212S","lat":51.51181,"lon":0.02535,"name":"Vandome Close","parentId":"490G00010212","stationId":"490G00010212","stopLetter":"->S","topMostParentId":"490G00010212","towards":"Keir Hardie Estate Or Prince Regent"},{"icsId":"1009092","id":"490009092E","lat":51.51022,"lon":0.02614,"name":"Leslie Road / Custom House Station","parentId":"490G00009092","stationId":"490G00009092","stopLetter":"E","topMostParentId":"490G00009092","towards":"Keir Hardie Estate Or Prince Regent"},{"icsId":"1002264","id":"490001079B","lat":51.51001,"lon":0.02825,"name":"Chauntler Close / Cundy Park","stopLetter":"B","topMostParentId":"490001079B","towards":"North Woolwich, Beckton Or Plaistow"},{"icsId":"1011201","id":"490011201L","lat":51.51023,"lon":0.03386,"name":"Victoria Dock Road","parentId":"490G00011201","stationId":"490G00011201","stopLetter":"L","topMostParentId":"490G00011201","towards":"East Ham Or Plaistow"},{"icsId":"1013781","id":"490013781N","lat":51.51226,"lon":0.03222,"name":"Tree Road","parentId":"490G00013781","stationId":"490G00013781","stopLetter":"P","topMostParentId":"490G00013781","towards":"East Ham Or Plaistow"},{"icsId":"1010220","id":"490016785N","lat":51.51518,"lon":0.03167,"name":"Newham Way","parentId":"490G00010220","stationId":"490G00010220","stopLetter":"S","topMostParentId":"490G00010220","towards":"East Ham Or Plaistow"},{"icsId":"1005505","id":"490005505E","lat":51.51703,"lon":0.03547,"name":"Colman Road","parentId":"490G00005505","stationId":"490G00005505","stopLetter":"H","topMostParentId":"490G00005505","towards":"Beckton Bus Station"},{"icsId":"1003753","id":"490003753E","lat":51.51682,"lon":0.03929,"name":"Sullivan Avenue","parentId":"490G00003753","stationId":"490G00003753","stopLetter":"J","topMostParentId":"490G00003753","towards":"Beckton Bus Station"},{"icsId":"1003748","id":"490003748E","lat":51.51658,"lon":0.04434,"name":"Beckton District Park","parentId":"490G00003748","stationId":"490G00003748","stopLetter":"CA","topMostParentId":"490G00003748","towards":"East Ham Or Gallions Reach"},{"icsId":"1006142","id":"490006142E","lat":51.51649,"lon":0.04647,"name":"Dove Approach","parentId":"490G00006142","stationId":"490G00006142","stopLetter":"BA","topMostParentId":"490G00006142","towards":"East Ham Or Gallions Reach"},{"icsId":"1013097","id":"490013097E","lat":51.51623,"lon":0.05335,"name":"Swallow Street","parentId":"490G00013097","stationId":"490G00013097","stopLetter":"BB","topMostParentId":"490G00013097","towards":"East Ham Or Gallions Reach"},{"icsId":"1008776","id":"490008776E","lat":51.51614,"lon":0.05644,"name":"Kingsford Way","parentId":"490G00008776","stationId":"490G00008776","stopLetter":"BC","topMostParentId":"490G00008776","towards":"East Ham Or Gallions Reach"},{"icsId":"1006317","id":"490006317D","lat":51.51443,"lon":0.05999,"name":"Beckton Bus Station","parentId":"490G000496","stationId":"490G000496","stopLetter":"D","topMostParentId":"490G000496","towards":"Cyprus, East Ham Or Dagenham"},{"icsId":"1013691","id":"490013691F","lat":51.51683,"lon":0.06012,"name":"Tollgate Road","parentId":"490G00013691","stationId":"490G00013691","stopLetter":"F","topMostParentId":"490G00013691","towards":"Dagenham, East Ham Or Upton Park"},{"icsId":"1003747","id":"490003747N","lat":51.5195,"lon":0.05951,"name":"Albatross Close","parentId":"490G00003747","stationId":"490G00003747","stopLetter":"BE","topMostParentId":"490G00003747","towards":"Dagenham, East Ham Or Upton Park"},{"icsId":"1009348","id":"490009348N","lat":51.5216,"lon":0.0581,"name":"Lonsdale Avenue","parentId":"490G00009348","stationId":"490G00009348","stopLetter":"BH","topMostParentId":"490G00009348","towards":"East Ham"},{"icsId":"1010045","id":"490010045N","lat":51.5246,"lon":0.05711,"name":"Mortimer Road","parentId":"490G00010045","stationId":"490G00010045","stopLetter":"BJ","topMostParentId":"490G00010045","towards":"East Ham"},{"icsId":"1014040","id":"490014040E","lat":51.52575,"lon":0.05733,"name":"Vicarage Primary School","parentId":"490G00014040","stationId":"490G00014040","stopLetter":"P","topMostParentId":"490G00014040","towards":"East Ham"},{"icsId":"1014041","id":"490014041N","lat":51.52677,"lon":0.06151,"name":"Becket Avenue","parentId":"490G00014041","stationId":"490G00014041","stopLetter":"R","topMostParentId":"490G00014041","towards":"East Ham"},{"icsId":"1003745","id":"490003745S","lat":51.52653,"lon":0.06359,"name":"Charlemont Road","parentId":"490G00003745","stationId":"490G00003745","stopLetter":"->S","topMostParentId":"490G00003745","towards":"East Ham"},{"icsId":"1006885","id":"490006885N","lat":51.52546,"lon":0.0655,"name":"Wolsey Avenue","parentId":"490G00006885","stationId":"490G00006885","stopLetter":"->S","topMostParentId":"490G00006885","towards":"East Ham"},{"icsId":"1006320","id":"490006320N","lat":51.52612,"lon":0.06727,"name":"Blaney Crescent","parentId":"490G00006320","stationId":"490G00006320","stopLetter":"K","topMostParentId":"490G00006320","towards":"East Ham"},{"icsId":"1009717","id":"490009717N","lat":51.52745,"lon":0.0661,"name":"Brighton Road","parentId":"490G00009717","stationId":"490G00009717","stopLetter":"->N","topMostParentId":"490G00009717","towards":"East Ham"},{"icsId":"1018555","id":"490006884N","lat":51.52887,"lon":0.06434,"name":"Flanders Road","parentId":"490G00018555","stationId":"490G00018555","stopLetter":"->N","topMostParentId":"490G00018555","towards":"East Ham"},{"icsId":"1017357","id":"490017351N","lat":51.53137,"lon":0.06346,"name":"Market Street","parentId":"490G00017357","stationId":"490G00017357","stopLetter":"M","topMostParentId":"490G00017357","towards":"East Ham"},{"icsId":"1016756","id":"490016756N","lat":51.53311,"lon":0.06272,"name":"Nelson Street","parentId":"490G00016756","stationId":"490G00016756","stopLetter":"N","topMostParentId":"490G00016756","towards":"East Ham"},{"icsId":"1003280","id":"490003280W","lat":51.53361,"lon":0.05919,"name":"Altmore Avenue","parentId":"490G00003280","stationId":"490G00003280","stopLetter":"T","topMostParentId":"490G00003280","towards":"Forest Gate Or Upton Park"},{"icsId":"1010218","id":"490010218W","lat":51.53328,"lon":0.05673,"name":"Newham Town Hall","parentId":"490G00010218","stationId":"490G00010218","stopLetter":"W","topMostParentId":"490G00010218","towards":"Forest Gate Or Upton Park"},{"icsId":"1013645","id":"490013645L","lat":51.53474,"lon":0.053,"name":"Kempton Road","parentId":"490G00013645","stationId":"490G00013645","stopLetter":"L","topMostParentId":"490G00013645","towards":"Forest Gate, Ilford Or Manor Park"},{"icsId":"1004881","id":"490004881J","lat":51.53589,"lon":0.05246,"name":"Caledon Road","parentId":"490G00004881","stationId":"490G00004881","stopLetter":"J","topMostParentId":"490G00004881","towards":"Forest Gate, Ilford Or Manor Park"},{"icsId":"1003888","id":"490003888D","lat":51.53811,"lon":0.05138,"name":"Bendish Road","parentId":"490G00003888","stationId":"490G00003888","stopLetter":"D","topMostParentId":"490G00003888","towards":"Ilford, Stratford, Forest Gate Or Manor Park"},{"icsId":"1000068","id":"490000068B","lat":51.53938,"lon":0.05105,"name":"East Ham Station","stopLetter":"B","topMostParentId":"490000068B","towards":"Ilford, Stratford Or Forest Gate","zone":"3+4"},{"icsId":"1014942","id":"490014942W2","lat":51.54157,"lon":0.04993,"name":"Wordsworth Health Centre","parentId":"490G00014942","stationId":"490G00014942","stopLetter":"Y","topMostParentId":"490G00014942"}]}]}