{"direction":"inbound","lineId":"301","lineName":"301","mode":"bus","stopPointSequences":[{"stopPoint":[{"icsId":"1002162","id":"490014934E","lat":51.4914,"lon":0.07138,"name":"Woolwich","parentId":"910GWOLWXR","stationId":"910GWOLWXR","stopLetter":"K","topMostParentId":"910GWOLWXR","towards":"Plumstead"},{"icsId":"1009723","id":"490009723E","lat":51.49117,"lon":0.07723,"name":"Maxey Road","parentId":"490G00009723","stationId":"490G00009723","stopLetter":"->E","topMostParentId":"490G00009723","towards":"Abbey Wood, Bexleyheath Or Thamesmead"},{"icsId":"1011069","id":"490011069A","lat":51.49104,"lon":0.08116,"name":"Plumstead Bus Garage","parentId":"490G00011069","stationId":"490G00011069","stopLetter":"A","topMostParentId":"490G00011069","towards":"Bexleyheath, Abbey Wood Or Thamesmead"},{"icsId":"1007629","id":"490007629E","lat":51.49178,"lon":0.09146,"name":"Hadden Road","parentId":"490G00007629","stationId":"490G00007629","stopLetter":"R","topMostParentId":"490G00007629","towards":"Thamesmead Town Centre"},{"icsId":"1004179","id":"490004179E","lat":51.49341,"lon":0.09445,"name":"Boughton Road","parentId":"490G00004179","stationId":"490G00004179","stopLetter":"->E","topMostParentId":"490G00004179","towards":"Thamesmead Town Centre"},{"icsId":"1011256","id":"490011256E","lat":51.49552,"lon":0.09842,"name":"Purland Road West","parentId":"490G00011256","stationId":"490G00011256","stopLetter":"P","topMostParentId":"490G00011256","towards":"Thamesmead Town Centre"},{"icsId":"1011255","id":"490011255E","lat":51.49536,"lon":0.10266,"name":"Purland Road East","parentId":"490G00011255","stationId":"490G00011255","stopLetter":"Q","topMostParentId":"490G00011255","towards":"Thamesmead Town Centre"},{"icsId":"1006344","id":"490006344N","lat":51.49794,"lon":0.10457,"name":"Nathan Way / Eastern Way","parentId":"490G00006344","stationId":"490G00006344","stopLetter":"R","topMostParentId":"490G00006344","towards":"Thamesmead Town Centre"},{"icsId":"1007382","id":"490007382N","lat":51.50237,"lon":0.10286,"name":"Grasshaven Way","parentId":"490G00007382","stationId":"490G00007382","stopLetter":"Y","topMostParentId":"490G00007382","towards":"Abbey Wood Or Crossway"},{"icsId":"1014285","id":"490014285N","lat":51.50513,"lon":0.10471,"name":"Watersmeet Place","parentId":"490G00014285","stationId":"490G00014285","stopLetter":"->N","topMostParentId":"490G00014285","towards":"Abbey Wood Or Crossway"},{"icsId":"1016617","id":"490013214B","lat":51.50597,"lon":0.10671,"name":"Central Way / Thamesmead Town Centre","parentId":"490G00016617","stationId":"490G00016617","stopLetter":"B","topMostParentId":"490G00016617","towards":"Abbey Wood Or Crossway"},{"icsId":"1007092","id":"490007092G","lat":51.5059,"lon":0.11083,"name":"Gallions Reach Health Centre","parentId":"490G00007092","stationId":"490G00007092","stopLetter":"G","topMostParentId":"490G00007092","towards":"Abbey Wood Or Crossway"},{"icsId":"1007923","id":"490007923S","lat":51.50388,"lon":0.11161,"name":"Hawksmoor School","parentId":"490G00007923","stationId":"490G00007923","stopLetter":"SA","topMostParentId":"490G00007923","towards":"Abbey Wood Or Crossway"},{"icsId":"1012364","id":"490012364S","lat":51.50227,"lon":0.11281,"name":"Southwood Road","parentId":"490G00012364","stationId":"490G00012364","stopLetter":"SB","topMostParentId":"490G00012364","towards":"Abbey Wood Or Crossway"},{"icsId":"1013459","id":"490013459E","lat":51.50367,"lon":0.11756,"name":"Titmuss Avenue","parentId":"490G00013459","stationId":"490G00013459","stopLetter":"SC","topMostParentId":"490G00013459","towards":"Abbey Wood Or Crossway"},{"icsId":"1004130","id":"490004130S","lat":51.50373,"lon":0.1192,"name":"Thamesmead / Carlyle Road","parentId":"490G00004130","stationId":"490G00004130","stopLetter":"SJ","topMostParentId":"490G00004130","towards":"Abbey Wood Or Belvedere"},{"icsId":"1010190","id":"490010190S","lat":51.49873,"lon":0.12165,"name":"Southmere Lake","parentId":"490G00010190","stationId":"490G00010190","stopLetter":"->S","topMostParentId":"490G00010190","towards":"Erith Or Plumstead"},{"icsId":"1013257","id":"490013257B","lat":51.49517,"lon":0.1212,"name":"Harrow Manorway / Yarnton Way","parentId":"490G00013257","stationId":"490G00013257","stopLetter":"B","topMostParentId":"490G00013257","towards":"Bexleyheath Or Erith"},{"icsId":"1010675","id":"490010675BA","lat":51.49348,"lon":0.12129,"name":"Overton Road","parentId":"490G00010675","stationId":"490G00010675","stopLetter":"BA","topMostParentId":"490G00010675","towards":"Bexleyheath Or Erith"},{"icsId":"1019855","id":"490001001D","lat":51.4906,"lon":0.12232,"name":"Harrow Manorway / Abbey Wood Station","parentId":"490G000957","stationId":"490G000957","stopLetter":"D","topMostParentId":"490G000957","towards":"Bexleyheath Or Erith"},{"icsId":"1003039","id":"490003039E","lat":51.48934,"lon":0.12118,"name":"Abbey Wood Road","parentId":"490G000378","stationId":"490G000378","stopLetter":"E","topMostParentId":"490G000378","towards":"Bexleyheath Or Erith"},{"icsId":"1006898","id":"490006877S","lat":51.48939,"lon":0.12407,"name":"Abbey Road","parentId":"490G00006898","stationId":"490G00006898","stopLetter":"W","topMostParentId":"490G00006898","towards":"Bexleyheath Or Erith"},{"icsId":"1016308","id":"490016308S","lat":51.48792,"lon":0.12577,"name":"Woodland Way","parentId":"490G00016308","stationId":"490G00016308","stopLetter":"->S","topMostParentId":"490G00016308","towards":"Bexleyheath Or Erith"},{"icsId":"1016307","id":"490016307S","lat":51.48235,"lon":0.12636,"name":"Hurst Lane","parentId":"490G00016307","stationId":"490G00016307","stopLetter":"F","topMostParentId":"490G00016307","towards":"Bexleyheath Or Erith"},{"icsId":"1010253","id":"490010253W","lat":51.48119,"lon":0.12546,"name":"New Road","parentId":"490G00010253","stationId":"490G00010253","stopLetter":"H","topMostParentId":"490G00010253","towards":"Bexleyheath Or Woolwich"},{"icsId":"1001977","id":"490001977Z","lat":51.48024,"lon":0.12279,"name":"Burcharbro Road","parentId":"490G000301","stationId":"490G000301","stopLetter":"->S","topMostParentId":"490G000301"},{"icsId":"1002147","id":"490002147ZZ","lat":51.4787,"lon":0.12341,"name":"West Heath Road","parentId":"490G000368","stationId":"490G000368","stopLetter":"->S","topMostParentId":"490G000368"},{"icsId":"1000987","id":"490000987ZZ","lat":51.47684,"lon":0.1242,"name":"Brampton Road / Lessness Avenue","parentId":"490G000267","stationId":"490G000267","stopLetter":"->S","topMostParentId":"490G000267"},{"icsId":"1012539","id":"490012539ZZ","lat":51.47519,"lon":0.12557,"name":"St Andrew's Parish Church","parentId":"490G00012539","stationId":"490G00012539","stopLetter":"->S","topMostParentId":"490G00012539"},{"icsId":"1004249","id":"490004249S","lat":51.47411,"lon":0.12664,"name":"Brampton Road / Long Lane","parentId":"490G00004249","stationId":"490G00004249","stopLetter":"Q","topMostParentId":"490G00004249","towards":"Bexleyheath"},{"icsId":"1009788","id":"490009788S","lat":51.47268,"lon":0.1319,"name":"Melanie Close","parentId":"490G00009788","stationId":"490G00009788","topMostParentId":"490G00009788","towards":"Bexleyheath"},{"icsId":"1005898","id":"490005898S","lat":51.47176,"lon":0.13467,"name":"Long Lane / Kipling Road","parentId":"490G00005898","stationId":"490G00005898","stopLetter":"->E","topMostParentId":"490G00005898","towards":"Bexleyheath"},{"icsId":"1002146","id":"490002146ZZ","lat":51.47122,"lon":0.13738,"name":"Franklin Road","parentId":"490G000367","stationId":"490G000367","stopLetter":"->S","topMostParentId":"490G000367"},{"icsId":"1002145","id":"490002145ZZ","lat":51.47002,"lon":0.13935,"name":"Hudson Road","parentId":"490G000366","stationId":"490G000366","stopLetter":"->S","topMostParentId":"490G000366"},{"icsId":"1002144","id":"490002144ZZ","lat":51.46856,"lon":0.14143,"name":"Cloudesley Road","parentId":"490G000364","stationId":"490G000364","stopLetter":"->S","topMostParentId":"490G000364"},{"icsId":"1008116","id":"490008116E","lat":51.4661,"lon":0.14592,"name":"Heversham Road","parentId":"490G00008116","stationId":"490G00008116","stopLetter":"->E","topMostParentId":"490G00008116","towards":"Bexleyheath"},{"icsId":"1014931","id":"490014931S","lat":51.46374,"lon":0.14914,"name":"Woolwich Road / Long Lane","parentId":"490G00014931","stationId":"490G00014931","stopLetter":"NC","topMostParentId":"490G00014931","towards":"Bexleyheath"},{"icsId":"1010459","id":"490010459S","lat":51.46226,"lon":0.14783,"name":"Garden Avenue","parentId":"490G00010459","stationId":"490G00010459","stopLetter":"ND","topMostParentId":"490G00010459","towards":"Bexleyheath"},{"icsId":"1010890","id":"490010890S","lat":51.45916,"lon":0.14636,"name":"Pelham Road","parentId":"490G00010890","stationId":"490G00010890","stopLetter":"NE","topMostParentId":"490G00010890","towards":"Bexleyheath"},{"icsId":"1003977","id":"490007152TB","lat":51.45719,"lon":0.14799,"name":"Market Place","parentId":"490G00003977","stationId":"490G00003977","stopLetter":"TB","topMostParentId":"490G00003977"}]}]}