{"direction":"inbound","lineId":"302","lineName":"302","mode":"bus","stopPointSequences":[{"stopPoint":[{"icsId":"1001161","id":"490001161S","lat":51.53394,"lon":-0.21917,"name":"Kensal Rise Station","stopLetter":"KQ","topMostParentId":"490001161S","towards":"Willesden"},{"icsId":"1014620","id":"490001161N1","lat":51.53532,"lon":-0.22011,"name":"Wrentham Avenue","parentId":"490G00014620","stationId":"490G00014620","stopLetter":"KP","topMostParentId":"490G00014620","towards":"Harlesden Or Willesden"},{"icsId":"1010521","id":"490010521N","lat":51.5376,"lon":-0.22238,"name":"Okehampton Road","parentId":"490G00010521","stationId":"490G00010521","stopLetter":"KB","topMostParentId":"490G00010521","towards":"Willesden"},{"icsId":"1003256","id":"490003256N","lat":51.54101,"lon":-0.22588,"name":"All Souls Avenue","parentId":"490G00003256","stationId":"490G00003256","stopLetter":"E","topMostParentId":"490G00003256","towards":"Willesden"},{"icsId":"1012147","id":"490012147E","lat":51.54279,"lon":-0.22552,"name":"Hanover Road","parentId":"490G00012147","stationId":"490G00012147","stopLetter":"F","topMostParentId":"490G00012147","towards":"Neasden Or Willesden"},{"icsId":"1014691","id":"490014691W2","lat":51.54683,"lon":-0.22874,"name":"Willesden Green Library","parentId":"490G00014691","stationId":"490G00014691","stopLetter":"L","topMostParentId":"490G00014691","towards":"Neasden Shopping Centre"},{"icsId":"1014088","id":"490014088W","lat":51.5473,"lon":-0.23393,"name":"Villiers Road","parentId":"490G00014088","stationId":"490G00014088","stopLetter":"T","topMostParentId":"490G00014088","towards":"Harlesden Or Neasden"},{"icsId":"1014688","id":"490014687S","lat":51.54773,"lon":-0.2365,"name":"Strode Road","parentId":"490G00014688","stationId":"490G00014688","stopLetter":"WZ","topMostParentId":"490G00014688","towards":"Neasden"},{"icsId":"1009844","id":"490009844N","lat":51.54933,"lon":-0.2395,"name":"Meyrick Road","parentId":"490G00009844","stationId":"490G00009844","stopLetter":"WL","topMostParentId":"490G00009844","towards":"Cricklewood Or Kingsbury"},{"icsId":"1004989","id":"490006047D","lat":51.55044,"lon":-0.24094,"name":"Chapter Road","parentId":"490G000447","stationId":"490G000447","stopLetter":"DK","topMostParentId":"490G000447","towards":"Cricklewood Or Kingsbury"},{"icsId":"1004607","id":"490004607W","lat":51.55312,"lon":-0.2437,"name":"Burnley Road","parentId":"490G00004607","stationId":"490G00004607","stopLetter":"DE","topMostParentId":"490G00004607","towards":"Kingsbury"},{"icsId":"1010118","id":"490010118N","lat":51.55673,"lon":-0.24615,"name":"Mulgrave Road","parentId":"490G00010118","stationId":"490G00010118","topMostParentId":"490G00010118","towards":"Kingsbury"},{"icsId":"1006097","id":"490006097LL","lat":51.55731,"lon":-0.24724,"name":"Clifford Way","parentId":"490G00006097","stationId":"490G00006097","stopLetter":"RR","topMostParentId":"490G00006097","towards":"Kingsbury"},{"icsId":"1010163","id":"490010163N","lat":51.55856,"lon":-0.25061,"name":"Neasden Underpass","parentId":"490G00010163","stationId":"490G00010163","stopLetter":"EE","topMostParentId":"490G00010163","towards":"Brent Park, Kingsbury Or Wembley Park"},{"icsId":"1003524","id":"490003524N","lat":51.56214,"lon":-0.25727,"name":"Aylesbury Street","parentId":"490G00003524","stationId":"490G00003524","stopLetter":"BP","topMostParentId":"490G00003524","towards":"Kingsbury, Sudbury Or Wembley"},{"icsId":"1011297","id":"490011297W","lat":51.56329,"lon":-0.26005,"name":"Quainton Street","parentId":"490G00011297","stationId":"490G00011297","stopLetter":"BQ","topMostParentId":"490G00011297","towards":"Kingsbury, Sudbury Or Wembley"},{"icsId":"1004052","id":"490004052N","lat":51.56456,"lon":-0.26299,"name":"Blackbird Hill","parentId":"490G00004052","stationId":"490G00004052","stopLetter":"BR","topMostParentId":"490G00004052","towards":"Kingsbury, Sudbury Or Wembley"},{"icsId":"1015261","id":"490015261N","lat":51.56652,"lon":-0.26471,"name":"Tudor Gardens","parentId":"490G00015261","stationId":"490G00015261","stopLetter":"BC","topMostParentId":"490G00015261","towards":"Burnt Oak Or West Hendon"},{"icsId":"1006005","id":"490006005N","lat":51.56917,"lon":-0.26313,"name":"Deanscroft Avenue","parentId":"490G00006005","stationId":"490G00006005","stopLetter":"BD","topMostParentId":"490G00006005","towards":"Burnt Oak Or West Hendon"},{"icsId":"1009002","id":"490009002N","lat":51.57226,"lon":-0.26254,"name":"Lavender Avenue","parentId":"490G00009002","stationId":"490G00009002","stopLetter":"BE","topMostParentId":"490G00009002","towards":"Burnt Oak Or West Hendon"},{"icsId":"1011327","id":"490011327N","lat":51.57532,"lon":-0.26261,"name":"Queensbury Road","parentId":"490G00011327","stationId":"490G00011327","stopLetter":"P","topMostParentId":"490G00011327","towards":"Burnt Oak Or West Hendon"},{"icsId":"1012201","id":"490012201N","lat":51.5792,"lon":-0.26288,"name":"Slough Lane","parentId":"490G00012201","stationId":"490G00012201","stopLetter":"R","topMostParentId":"490G00012201","towards":"Burnt Oak Or West Hendon"},{"icsId":"1008761","id":"490008761N","lat":51.58243,"lon":-0.2624,"name":"Kingsbury Green","parentId":"490G00008761","stationId":"490G00008761","stopLetter":"S","topMostParentId":"490G00008761","towards":"Burnt Oak Or West Hendon"},{"icsId":"1005997","id":"490005271W","lat":51.58303,"lon":-0.26304,"name":"Kingsbury  / Pipers Green","parentId":"490G00005997","stationId":"490G00005997","stopLetter":"H","topMostParentId":"490G00005997","towards":"Burnt Oak Or Kingsbury"},{"icsId":"1011636","id":"490011636N","lat":51.58499,"lon":-0.26574,"name":"Highfield Avenue","parentId":"490G00011636","stationId":"490G00011636","stopLetter":"T","topMostParentId":"490G00011636","towards":"Colindale, Edgware Or Hendon"},{"icsId":"1007959","id":"490007959N","lat":51.58696,"lon":-0.26507,"name":"Fairfields Crescent","parentId":"490G00007959","stationId":"490G00007959","stopLetter":"RH","topMostParentId":"490G00007959","towards":"Colindale, Edgware Or Hendon"},{"icsId":"1007566","id":"490007566N","lat":51.59065,"lon":-0.2661,"name":"Grove Park","parentId":"490G00007566","stationId":"490G00007566","stopLetter":"RJ","topMostParentId":"490G00007566","towards":"Burnt Oak"},{"icsId":"1002126","id":"490002126Z","lat":51.59305,"lon":-0.26669,"name":"Kingsbury Health and Wellbeing","parentId":"490G000348","stationId":"490G000348","stopLetter":"->N","topMostParentId":"490G000348","towards":"Burnt Oak Or Colindale Station"},{"icsId":"1015303","id":"490015303N","lat":51.59495,"lon":-0.26852,"name":"Carlisle Road","parentId":"490G00015303","stationId":"490G00015303","stopLetter":"RK","topMostParentId":"490G00015303","towards":"Mill Hill"},{"icsId":"1008320","id":"490008320N","lat":51.59763,"lon":-0.27047,"name":"Holyrood Gardens","parentId":"490G00008320","stationId":"490G00008320","stopLetter":"W","topMostParentId":"490G00008320","towards":"Mill Hill"},{"icsId":"1013255","id":"490014307L","lat":51.60128,"lon":-0.26636,"name":"Watling Avenue","parentId":"490G00013255","stationId":"490G00013255","stopLetter":"L","topMostParentId":"490G00013255","towards":"Grahame Park Or Deansbrook Road"},{"icsId":"1000034","id":"490000034N","lat":51.60257,"lon":-0.26404,"name":"Burnt Oak Station","stopLetter":"N","topMostParentId":"490000034N","towards":"Grahame Park , Colindale Or Mill Hill Broadway #","zone":"4"},{"icsId":"1004170","id":"490004170N","lat":51.60616,"lon":-0.26471,"name":"Boston Road","parentId":"490G00004170","stationId":"490G00004170","stopLetter":"P","topMostParentId":"490G00004170","towards":"Mill Hill"},{"icsId":"1014306","id":"490014306N","lat":51.60843,"lon":-0.26559,"name":"Ruddock Close","parentId":"490G00014306","stationId":"490G00014306","stopLetter":"N","topMostParentId":"490G00014306","towards":"Mill Hill"},{"icsId":"1006006","id":"490006006E","lat":51.60944,"lon":-0.2648,"name":"Deans Lane","parentId":"490G00006006","stationId":"490G00006006","stopLetter":"T","topMostParentId":"490G00006006","towards":"Mill Hill"},{"icsId":"1005779","id":"490005779E","lat":51.61016,"lon":-0.26047,"name":"Edwin Road","parentId":"490G00005779","stationId":"490G00005779","stopLetter":"U","topMostParentId":"490G00005779","towards":"Mill Hill"},{"icsId":"1007375","id":"490007355E","lat":51.61026,"lon":-0.25456,"name":"Goldbeaters Grove","parentId":"490G00007375","stationId":"490G00007375","stopLetter":"V","topMostParentId":"490G00007375","towards":"Grahame Park"},{"icsId":"1009466","id":"490009466E","lat":51.61084,"lon":-0.24917,"name":"Lyndhurst Avenue","parentId":"490G00009466","stationId":"490G00009466","stopLetter":"->E","topMostParentId":"490G00009466","towards":"Mill Hill Broadway"},{"icsId":"1001193","id":"490001193C","lat":51.61341,"lon":-0.24895,"name":"Mill Hill Broadway Station","stopLetter":"C","topMostParentId":"490001193C","towards":"Kingsbury"}]}]}