{"direction":"inbound","lineId":"304","lineName":"304","mode":"bus","stopPointSequences":[{"stopPoint":[{"icsId":"1009569","id":"490009569N","lat":51.55471,"lon":0.0448,"name":"Manor Park / Gladding Road","parentId":"490G00009569","stationId":"490G00009569","stopLetter":"->N","topMostParentId":"490G00009569","towards":"Beckton, Upton Park & East Ham"},{"icsId":"1001189","id":"490001189S","lat":51.55283,"lon":0.04665,"name":"Manor Park Station","stopLetter":"B","topMostParentId":"490001189S","towards":"East Ham Or Ilford"},{"icsId":"1011661","id":"490011661S","lat":51.5514,"lon":0.04727,"name":"Romford Road","parentId":"490G00011661","stationId":"490G00011661","stopLetter":"J","topMostParentId":"490G00011661","towards":"East Ham Or Ilford"},{"icsId":"1005694","id":"490005694D","lat":51.54968,"lon":0.04828,"name":"Cranbourne Road","parentId":"490G000469","stationId":"490G000469","stopLetter":"D","topMostParentId":"490G000469","towards":"East Ham"},{"icsId":"1003921","id":"490003921S","lat":51.54649,"lon":0.04884,"name":"Berkeley Road","parentId":"490G00003921","stationId":"490G00003921","stopLetter":"A","topMostParentId":"490G00003921","towards":"Beckton Or Newham Hospital"},{"icsId":"1011801","id":"490011801S1","lat":51.54537,"lon":0.04944,"name":"Ruskin Avenue","parentId":"490G00011801","stationId":"490G00011801","stopLetter":"B","topMostParentId":"490G00011801","towards":"Beckton Or Newham Hospital"},{"icsId":"1012058","id":"490012058S1","lat":51.54345,"lon":0.04993,"name":"Shelley Avenue","parentId":"490G00012058","stationId":"490G00012058","stopLetter":"C","topMostParentId":"490G00012058","towards":"Beckton Or Newham Hospital"},{"icsId":"1007200","id":"490007200F","lat":51.54155,"lon":0.05057,"name":"Gladstone Avenue","parentId":"490G00007200","stationId":"490G00007200","stopLetter":"D","topMostParentId":"490G00007200","towards":"Beckton Or Upton Park"},{"icsId":"1000068","id":"490000068A","lat":51.54003,"lon":0.05097,"name":"East Ham Station","stopLetter":"A","topMostParentId":"490000068A","towards":"Barking, Beckton Or Newham Hospital","zone":"3+4"},{"icsId":"1003888","id":"490003888N","lat":51.53754,"lon":0.05171,"name":"Bendish Road","parentId":"490G00003888","stationId":"490G00003888","stopLetter":"N","topMostParentId":"490G00003888","towards":"Barking, Beckton Or Newham Hospital"},{"icsId":"1011001","id":"490011001M","lat":51.53553,"lon":0.05136,"name":"Ron Leighton Way","parentId":"490G00011001","stationId":"490G00011001","stopLetter":"M","topMostParentId":"490G00011001","towards":"Newham Hospital, Beckton Or Upton Park"},{"icsId":"1006360","id":"490006360R","lat":51.53292,"lon":0.05309,"name":"High Street North","parentId":"490G00006360","stationId":"490G00006360","stopLetter":"R","topMostParentId":"490G00006360","towards":"Beckton Or Upton Park"},{"icsId":"1010218","id":"490010218V","lat":51.53188,"lon":0.05529,"name":"Newham Town Hall","parentId":"490G00010218","stationId":"490G00010218","stopLetter":"V","topMostParentId":"490G00010218","towards":"Beckton Or Newham Hospital"},{"icsId":"1009662","id":"490009662S","lat":51.53059,"lon":0.0559,"name":"Market Street","parentId":"490G00009662","stationId":"490G00009662","stopLetter":"N","topMostParentId":"490G00009662","towards":"Bbeckton Or Newham Hospitaleckton Or Upton Park"},{"icsId":"1006358","id":"490006358S1","lat":51.52739,"lon":0.05636,"name":"East Ham / Central Park","parentId":"490G00006358","stationId":"490G00006358","stopLetter":"L","topMostParentId":"490G00006358","towards":"Beckton Or Newham Hospital"},{"icsId":"1014049","id":"490014040S","lat":51.52517,"lon":0.05708,"name":"Vicarage Lane","parentId":"490G00014049","stationId":"490G00014049","stopLetter":"BK","topMostParentId":"490G00014049","towards":"Beckton Or Newham Hospital"},{"icsId":"1006359","id":"490006359S","lat":51.52365,"lon":0.05755,"name":"East Ham Fire Station","parentId":"490G00006359","stationId":"490G00006359","stopLetter":"BL","topMostParentId":"490G00006359","towards":"Beckton Or Newham Hospital"},{"icsId":"1007408","id":"490007408W","lat":51.52173,"lon":0.05661,"name":"Greatfield Avenue","parentId":"490G00007408","stationId":"490G00007408","stopLetter":"BT","topMostParentId":"490G00007408","towards":"Upton Park Or Prince Regent"},{"icsId":"1011902","id":"490011902W","lat":51.52195,"lon":0.05225,"name":"Sandford Road","parentId":"490G00011902","stationId":"490G00011902","stopLetter":"BU","topMostParentId":"490G00011902","towards":"Upton Park"},{"icsId":"1009349","id":"490009349W","lat":51.52256,"lon":0.04754,"name":"Lonsdale Close","parentId":"490G00009349","stationId":"490G00009349","stopLetter":"BV","topMostParentId":"490G00009349","towards":"Newham Hospital Or Upton Park"},{"icsId":"1009346","id":"490009346W","lat":51.5233,"lon":0.04183,"name":"Hatherley Gardens","parentId":"490G00009346","stationId":"490G00009346","stopLetter":"HK","topMostParentId":"490G00009346","towards":"Newham Hospital Or Upton Park"},{"icsId":"1004182","id":"490004182S","lat":51.52286,"lon":0.03991,"name":"Brampton Manor School","parentId":"490G00004182","stationId":"490G00004182","stopLetter":"HN","topMostParentId":"490G00004182","towards":"Beckton Or Prince Regent"},{"icsId":"1007236","id":"490007236HA","lat":51.52219,"lon":0.03691,"name":"Newham University Hosp Main Reception","parentId":"490G00007236","stationId":"490G00007236","stopLetter":"HA","topMostParentId":"490G00007236","towards":"Prince Regent, Beckton Or Stratford"},{"icsId":"1015395","id":"490015395W","lat":51.52249,"lon":0.03332,"name":"Newham University Hosp Emergency Dept","parentId":"490G00015395","stationId":"490G00015395","stopLetter":"HB","topMostParentId":"490G00015395","towards":"Prince Regent, Beckton Or Stratford"},{"icsId":"1003898","id":"490003898S","lat":51.51971,"lon":0.0324,"name":"Bennett Road","parentId":"490G00003898","stationId":"490G00003898","stopLetter":"A","topMostParentId":"490G00003898","towards":"Keir Hardie Estate, Beckton Or City Airport"},{"icsId":"1010216","id":"490010216S","lat":51.51844,"lon":0.03222,"name":"Newham Leisure Centre","parentId":"490G00010216","stationId":"490G00010216","stopLetter":"->S","topMostParentId":"490G00010216","towards":"Keir Hardie Estate, Beckton Or City Airport"},{"icsId":"1010220","id":"490010220S","lat":51.51637,"lon":0.03215,"name":"Newham Way","parentId":"490G00010220","stationId":"490G00010220","stopLetter":"C","topMostParentId":"490G00010220","towards":"Keir Hardie Estate, Beckton Or City Airport"},{"icsId":"1010050","id":"490010050S","lat":51.51454,"lon":0.03176,"name":"Mortlake Road","parentId":"490G00010050","stationId":"490G00010050","stopLetter":"D","topMostParentId":"490G00010050","towards":"Keir Hardie Estate, Beckton Or City Airport"},{"icsId":"1013781","id":"490013781S","lat":51.51302,"lon":0.03188,"name":"Tree Road","parentId":"490G00013781","stationId":"490G00013781","stopLetter":"E","topMostParentId":"490G00013781","towards":"Keir Hardie Estate, Beckton Or City Airport"},{"icsId":"1011201","id":"490011201M","lat":51.51033,"lon":0.03398,"name":"Victoria Dock Road","parentId":"490G00011201","stationId":"490G00011201","stopLetter":"M","topMostParentId":"490G00011201","towards":"Keir Hardie Estate, Beckton Or City Airport"},{"icsId":"1002264","id":"490001079A","lat":51.50994,"lon":0.0295,"name":"Chauntler Close / Cundy Park","stopLetter":"A","topMostParentId":"490001079A","towards":"Plaistow Or Keir Hardie Estate"},{"icsId":"1001079","id":"490015080C","lat":51.50986,"lon":0.02522,"name":"Custom House Station","stopLetter":"C","topMostParentId":"490015080C","towards":"Canning Town","zone":"3"}]}]}