{"direction":"inbound","lineId":"306","lineName":"306","mode":"bus","stopPointSequences":[{"stopPoint":[{"icsId":"1011917","id":"490011917W","lat":51.46808,"lon":-0.186,"name":"Sands End / Sainsbury's","parentId":"490G00011917","stationId":"490G00011917","stopLetter":"TS","topMostParentId":"490G00011917","towards":"Fulham Broadway"},{"icsId":"1011918","id":"490011918E","lat":51.46888,"lon":-0.18645,"name":"William Morris Way / Sainsbury's","parentId":"490G00011918","stationId":"490G00011918","stopLetter":"TW","topMostParentId":"490G00011918","towards":"Earls Court Or Fulham Broadway"},{"icsId":"1007237","id":"490007237E","lat":51.47076,"lon":-0.18521,"name":"Glenrosa Street","parentId":"490G00007237","stationId":"490G00007237","stopLetter":"H","topMostParentId":"490G00007237","towards":"Earls Court Or Fulham Broadway"},{"icsId":"1019028","id":"490005070N","lat":51.47323,"lon":-0.1839,"name":"Imperial Wharf Station  / Imperial Road","parentId":"490G000929","stationId":"490G000929","stopLetter":"J","topMostParentId":"490G000929","towards":"Earls Court Or Fulham Broadway"},{"icsId":"1016613","id":"490016613N","lat":51.47459,"lon":-0.18579,"name":"Imperial Road / Chelsea Harbour","parentId":"490G00016613","stationId":"490G00016613","stopLetter":"L","topMostParentId":"490G00016613","towards":"Fulham Broadway"},{"icsId":"1018645","id":"490018645N","lat":51.47557,"lon":-0.18844,"name":"Fulmead Street","parentId":"490G00018645","stationId":"490G00018645","stopLetter":"M","topMostParentId":"490G00018645","towards":"Fulham Broadway"},{"icsId":"1016612","id":"490016612N","lat":51.47625,"lon":-0.19017,"name":"Harwood Terrace","parentId":"490G00016612","stationId":"490G00016612","stopLetter":"N","topMostParentId":"490G00016612","towards":"Fulham Broadway and Olympia"},{"icsId":"1013888","id":"490013888N","lat":51.47747,"lon":-0.19231,"name":"Tyrawley Road","parentId":"490G00013888","stationId":"490G00013888","stopLetter":"GK","topMostParentId":"490G00013888","towards":"Hammersmith, Fulham Or Olympia"},{"icsId":"1007057","id":"490007057H","lat":51.47945,"lon":-0.19514,"name":"Fulham Town Hall","parentId":"490G000526","stationId":"490G000526","stopLetter":"H","topMostParentId":"490G000526","towards":"Hammersmith, West Kensington Or Fulham Cross"},{"icsId":"1000352","id":"490008547F","lat":51.48023,"lon":-0.19812,"name":"Fulham Broadway","parentId":"490G00000352","stationId":"490G00000352","stopLetter":"F","topMostParentId":"490G00000352","towards":"Hammersmith, Olympia Or Putney Bridge"},{"icsId":"1012117","id":"490015064A","lat":51.48172,"lon":-0.19978,"name":"Shorrolds Road","parentId":"490G00012117","stationId":"490G00012117","stopLetter":"A","topMostParentId":"490G00012117","towards":"Hammersmith Or Kensington High Street"},{"icsId":"1009156","id":"490009156V","lat":51.48487,"lon":-0.20225,"name":"Lillie Road","parentId":"490G00009156","stationId":"490G00009156","stopLetter":"BK","topMostParentId":"490G00009156","towards":"Hammersmith Or Kensington High Street"},{"icsId":"1014485","id":"490014485N","lat":51.48798,"lon":-0.204,"name":"West Kensington Estate","parentId":"490G00014485","stationId":"490G00014485","stopLetter":"BT","topMostParentId":"490G00014485","towards":"Hammersmith Or Kensington High Street"},{"icsId":"1000265","id":"490000265B","lat":51.48992,"lon":-0.20648,"name":"West Kensington Station","stopLetter":"T","topMostParentId":"490000265B","towards":"Hammersmith Or Kensington High Street","zone":"2"},{"icsId":"1009492","id":"490009492N","lat":51.49334,"lon":-0.20893,"name":"Lytton Estate","parentId":"490G00009492","stationId":"490G00009492","stopLetter":"U","topMostParentId":"490G00009492","towards":"Hammersmith Or Kensington High Street"},{"icsId":"1019922","id":"490007709H","lat":51.49461,"lon":-0.211,"name":"Kensington Olympia / Hammersmith Road","parentId":"490G00019922","stationId":"490G00019922","stopLetter":"V","topMostParentId":"HUBKPA","towards":"Hammersmith Or Kensington High Street"},{"icsId":"1004455","id":"490004455BA","lat":51.49351,"lon":-0.21595,"name":"Brook Green","parentId":"490G00004455","stationId":"490G00004455","stopLetter":"F","topMostParentId":"490G00004455","towards":"Acton"},{"icsId":"1008997","id":"490008990Q","lat":51.49321,"lon":-0.21838,"name":"Latymer Court","parentId":"490G00008997","stationId":"490G00008997","stopLetter":"X","topMostParentId":"490G00008997","towards":"Acton"},{"icsId":"1007702","id":"490007704QA","lat":51.49298,"lon":-0.22179,"name":"Hammersmith Broadway","parentId":"490G000563","stationId":"490G000563","stopLetter":"Z4","topMostParentId":"490G000563","towards":"Acton"},{"icsId":"1007705","id":"490007705C","lat":51.49228,"lon":-0.22388,"name":"Hammersmith Bus Station","parentId":"490G000565","stationId":"490G000565","stopLetter":"B","topMostParentId":"HUBHMS","towards":"Chiswick"},{"icsId":"1008801","id":"490008801P","lat":51.49266,"lon":-0.22728,"name":"Livat Hammersmith Shopping Centre","parentId":"490G000625","stationId":"490G000625","stopLetter":"U","topMostParentId":"490G000625","towards":"Acton Or Chiswick"},{"icsId":"1007711","id":"490007711WA","lat":51.49251,"lon":-0.23286,"name":"Hammersmith Town Hall","parentId":"490G00007711","stationId":"490G00007711","stopLetter":"WA","topMostParentId":"490G00007711","towards":"Chiswick Or Acton"},{"icsId":"1000188","id":"490000188A","lat":51.49548,"lon":-0.23456,"name":"Ravenscourt Park Station","stopLetter":"A","topMostParentId":"490000188A","towards":"Acton","zone":"2"},{"icsId":"1008559","id":"490008559N","lat":51.49695,"lon":-0.23538,"name":"John Betts School","parentId":"490G00008559","stationId":"490G00008559","stopLetter":"SR","topMostParentId":"490G00008559","towards":"Acton"},{"icsId":"1012004","id":"490012004N","lat":51.49948,"lon":-0.23789,"name":"Goldhawk Road","parentId":"490G00012004","stationId":"490G00012004","stopLetter":"ST","topMostParentId":"490G00012004","towards":"Acton"},{"icsId":"1012595","id":"490012595N","lat":51.50034,"lon":-0.23982,"name":"Kelmscott Gardens","parentId":"490G00012595","stationId":"490G00012595","stopLetter":"SU","topMostParentId":"490G00012595","towards":"Acton"},{"icsId":"1007145","id":"490007145N","lat":51.50324,"lon":-0.24338,"name":"Askew Road Library / Gayford Road","parentId":"490G00007145","stationId":"490G00007145","stopLetter":"AE","topMostParentId":"490G00007145","towards":"Acton"},{"icsId":"1018989","id":"490003456N1","lat":51.50605,"lon":-0.24494,"name":"Uxbridge Road","parentId":"490G00018989","stationId":"490G00018989","stopLetter":"AF","topMostParentId":"490G00018989","towards":"Acton"},{"icsId":"1013612","id":"490013612W","lat":51.50661,"lon":-0.24883,"name":"Third Avenue","parentId":"490G00013612","stationId":"490G00013612","stopLetter":"VK","topMostParentId":"490G00013612","towards":"Chiswick, Ealing Or North Acton"},{"icsId":"1004438","id":"490004438W","lat":51.50663,"lon":-0.25142,"name":"Acton Vale / Bromyard Avenue","parentId":"490G00004438","stationId":"490G00004438","stopLetter":"VL","topMostParentId":"490G00004438","towards":"Chiswick, Ealing Or North Acton"}]}]}