{"direction":"inbound","lineId":"307","lineName":"307","mode":"bus","stopPointSequences":[{"stopPoint":[{"icsId":"1003637","id":"490003637E","lat":51.65188,"lon":-0.21425,"name":"Barnet Hospital","parentId":"490G00003637","stationId":"490G00003637","stopLetter":"A","topMostParentId":"490G00003637","towards":"New Barnet Or Barnet Church"},{"icsId":"1013909","id":"490013909E","lat":51.65304,"lon":-0.20731,"name":"Union Street","parentId":"490G00013909","stationId":"490G00013909","stopLetter":"M","topMostParentId":"490G00013909","towards":"New Barnet Or Whetstone"},{"icsId":"1015142","id":"490015142F","lat":51.65306,"lon":-0.20161,"name":"Barnet Church / Wood Street","parentId":"490G00015142","stationId":"490G00015142","stopLetter":"F","topMostParentId":"490G00015142","towards":"New Barnet Or Whetstone"},{"icsId":"1019009","id":"490003634H","lat":51.65262,"lon":-0.19881,"name":"Barnet High Street / Barnet Church","parentId":"490G00019009","stationId":"490G00019009","stopLetter":"H","topMostParentId":"490G00019009","towards":"New Barnet"},{"icsId":"1009772","id":"490009772N","lat":51.65136,"lon":-0.19691,"name":"High Barnet Station  / Meadway","parentId":"490G000664","stationId":"490G000664","stopLetter":"N","topMostParentId":"490G000664","towards":"Whetstone Or New Barnet"},{"icsId":"1000107","id":"490000107R","lat":51.64934,"lon":-0.19325,"name":"High Barnet Station","stopLetter":"R","topMostParentId":"490000107R","towards":"New Barnet Or Whetstone","zone":"5"},{"icsId":"1003640","id":"490003640S","lat":51.64721,"lon":-0.18829,"name":"Potters Lane","parentId":"490G00003640","stationId":"490G00003640","stopLetter":"A","topMostParentId":"490G00003640","towards":"Whetstone Or New Barnet"},{"icsId":"1012613","id":"490015143E","lat":51.64714,"lon":-0.18644,"name":"Barnet Everyman Cinema","parentId":"490G00012613","stationId":"490G00012613","stopLetter":"B","topMostParentId":"490G00012613","towards":"East Barnet"},{"icsId":"1014253","id":"490014253E","lat":51.64853,"lon":-0.18066,"name":"Warwick Road","parentId":"490G00014253","stationId":"490G00014253","stopLetter":"C","topMostParentId":"490G00014253","towards":"Cockfosters, Oakwood Or Whetstone"},{"icsId":"1001203","id":"490001201D","lat":51.64968,"lon":-0.17609,"name":"New Barnet Station  / Station Road","parentId":"490G00001203","stationId":"490G00001203","stopLetter":"D","topMostParentId":"490G00001203","towards":"Arnos Grove, Oakwood Or Whetstone"},{"icsId":"1010193","id":"490010193C","lat":51.64987,"lon":-0.17157,"name":"New Barnet Sainsbury's","parentId":"490G00010193","stationId":"490G00010193","stopLetter":"C","topMostParentId":"490G00010193","towards":"Arnos Grove, Oakwood Or Whetstone"},{"icsId":"1006313","id":"490006313E","lat":51.64755,"lon":-0.16765,"name":"Victoria Road","parentId":"490G00006313","stationId":"490G00006313","stopLetter":"BA","topMostParentId":"490G00006313","towards":"Arnos Grove, Oakwood Or Whetstone"},{"icsId":"1006315","id":"490006315E","lat":51.64312,"lon":-0.16456,"name":"East Barnet Village","parentId":"490G00006315","stationId":"490G00006315","stopLetter":"BB","topMostParentId":"490G00006315","towards":"Arnos Grove Or Oakwood"},{"icsId":"1006316","id":"490006316E","lat":51.64309,"lon":-0.1621,"name":"East Barnet War Memorial","parentId":"490G00006316","stationId":"490G00006316","stopLetter":"BC","topMostParentId":"490G00006316","towards":"Enfield"},{"icsId":"1010815","id":"490010815E","lat":51.64427,"lon":-0.15977,"name":"Park Road","parentId":"490G00010815","stationId":"490G00010815","stopLetter":"BD","topMostParentId":"490G00010815","towards":"Enfield"},{"icsId":"1003861","id":"490003861E","lat":51.64513,"lon":-0.15618,"name":"Belmont Avenue","parentId":"490G00003861","stationId":"490G00003861","stopLetter":"->E","topMostParentId":"490G00003861","towards":"Enfield"},{"icsId":"1008042","id":"490008042N","lat":51.64538,"lon":-0.15244,"name":"Heddon Court Avenue","parentId":"490G00008042","stationId":"490G00008042","stopLetter":"N","topMostParentId":"490G00008042","towards":"Enfield"},{"icsId":"1005455","id":"490005455E","lat":51.64535,"lon":-0.14483,"name":"Cockfosters Road","parentId":"490G00005455","stationId":"490G00005455","stopLetter":"E","topMostParentId":"490G00005455","towards":"Enfield Town Or Southgate"},{"icsId":"1010869","id":"490010869E","lat":51.64592,"lon":-0.13856,"name":"Peace Close","parentId":"490G00010869","stationId":"490G00010869","stopLetter":"E","topMostParentId":"490G00010869","towards":"Enfield Town Or Southgate"},{"icsId":"1015505","id":"490015505C","lat":51.64803,"lon":-0.13208,"name":"Oakwood Station  / Chase Road","parentId":"490G000905","stationId":"490G000905","stopLetter":"C","topMostParentId":"490G000905","towards":"Enfield Town"},{"icsId":"1013789","id":"490013789E","lat":51.64931,"lon":-0.12923,"name":"Trent Park Golf Course","parentId":"490G00013789","stationId":"490G00013789","stopLetter":"L","topMostParentId":"490G00013789","towards":"Enfield Town"},{"icsId":"1008912","id":"490008912E","lat":51.65164,"lon":-0.12461,"name":"Lakeside","parentId":"490G00008912","stationId":"490G00008912","stopLetter":"->E","topMostParentId":"490G00008912","towards":"Enfield Town"},{"icsId":"1005630","id":"490005630E","lat":51.65398,"lon":-0.11322,"name":"Cotswold Way","parentId":"490G00005630","stationId":"490G00005630","stopLetter":"A","topMostParentId":"490G00005630","towards":"Enfield Town"},{"icsId":"1009190","id":"490009190E","lat":51.65503,"lon":-0.10872,"name":"Links Side","parentId":"490G00009190","stationId":"490G00009190","stopLetter":"B","topMostParentId":"490G00009190","towards":"Enfield Town"},{"icsId":"1005037","id":"490005037E","lat":51.6553,"lon":-0.10137,"name":"Chase Ridings","parentId":"490G00005037","stationId":"490G00005037","stopLetter":"C","topMostParentId":"490G00005037","towards":"Enfield Town"},{"icsId":"1013527","id":"490013527E","lat":51.65383,"lon":-0.09663,"name":"The Ridgeway","parentId":"490G00013527","stationId":"490G00013527","stopLetter":"D","topMostParentId":"490G00013527","towards":"Bush Hill Park, Forty Hill Or Ponders End"},{"icsId":"1001099","id":"490001099CC","lat":51.65367,"lon":-0.08902,"name":"Enfield Chase Station","stopLetter":"CC","topMostParentId":"490001099CC","towards":"Bush Hill Park, Forty Hill Or Ponders End"},{"icsId":"1006587","id":"490006587E","lat":51.65221,"lon":-0.08306,"name":"Enfield Town / Church Street","parentId":"490G00006587","stationId":"490G00006587","stopLetter":"E","topMostParentId":"490G00006587","towards":"Ponders End"},{"icsId":"1001101","id":"490001101K","lat":51.65241,"lon":-0.07863,"name":"Enfield Town Station","stopLetter":"K","topMostParentId":"490001101K","towards":"Bush Hill Park Or Ponders End"},{"icsId":"1008903","id":"490008903E","lat":51.65226,"lon":-0.07408,"name":"Ladysmith Road","parentId":"490G00008903","stationId":"490G00008903","stopLetter":"->E","topMostParentId":"490G00008903","towards":"Bush Hill Park, Ponders End Or Waltham Cross"},{"icsId":"1004902","id":"490004902E","lat":51.65167,"lon":-0.07051,"name":"Cecil Avenue","parentId":"490G00004902","stationId":"490G00004902","stopLetter":"M","topMostParentId":"490G00004902","towards":"Bush Hill Park, Ponders End Or Waltham Cross"},{"icsId":"1003937","id":"490010933E","lat":51.65072,"lon":-0.06592,"name":"Percival Road","parentId":"490G00003937","stationId":"490G00003937","stopLetter":"N","topMostParentId":"490G00003937","towards":"Bush Hill Park, Ponders End Or Waltham Cross"},{"icsId":"1007396","id":"490007396E2","lat":51.65017,"lon":-0.06259,"name":"Great Cambridge Road","parentId":"490G00007396","stationId":"490G00007396","stopLetter":"R","topMostParentId":"490G00007396","towards":"Brimsdown Or Enfield Highway"},{"icsId":"1015329","id":"490015329E","lat":51.64923,"lon":-0.05779,"name":"Baird Road","parentId":"490G00015329","stationId":"490G00015329","stopLetter":"Q","topMostParentId":"490G00015329","towards":"Chingford, Enfield Highway Or Waltham Cross"},{"icsId":"1005843","id":"490005843E","lat":51.64906,"lon":-0.05471,"name":"Crown Road / Southbury Station","parentId":"490G00005843","stationId":"490G00005843","stopLetter":"S","topMostParentId":"490G00005843","towards":"Chingford, Edmonton Green Or Enfield Highway"},{"icsId":"1007258","id":"490007258C","lat":51.64863,"lon":-0.0479,"name":"Glyn Road","parentId":"490G000534","stationId":"490G000534","stopLetter":"C","topMostParentId":"490G000534","towards":"Brimsdown, Edmonton Green Or Enfield Highway"},{"icsId":"1015441","id":"490015441G","lat":51.65032,"lon":-0.04673,"name":"Durants Road","parentId":"490G000895","stationId":"490G000895","stopLetter":"G","topMostParentId":"490G000895","towards":"Brimsdown, Enfield Lock Or Waltham Cross"},{"icsId":"1006579","id":"490006579N","lat":51.65272,"lon":-0.04794,"name":"Enfield College","parentId":"490G00006579","stationId":"490G00006579","stopLetter":"EJ","topMostParentId":"490G00006579","towards":"Brimsdown, Enfield Lock Or Waltham Cross"},{"icsId":"1004314","id":"490013883N","lat":51.6562,"lon":-0.0476,"name":"Green Street","parentId":"490G00004314","stationId":"490G00004314","stopLetter":"EK","topMostParentId":"490G00004314","towards":"Brimsdown, Enfield Lock Or Waltham Cross"},{"icsId":"1004312","id":"490004312E","lat":51.65696,"lon":-0.0464,"name":"Ashley Road","parentId":"490G00004312","stationId":"490G00004312","stopLetter":"ET","topMostParentId":"490G00004312","towards":"Brimsdown"},{"icsId":"1009740","id":"490009740E","lat":51.65584,"lon":-0.03869,"name":"Mayfield Road","parentId":"490G00009740","stationId":"490G00009740","stopLetter":"C","topMostParentId":"490G00009740","towards":"Brimsdown"},{"icsId":"1001033","id":"490001033A","lat":51.65459,"lon":-0.03274,"name":"Brimsdown Station","stopLetter":"A","topMostParentId":"490001033A","towards":"Ponders End"}]}]}