{"direction":"inbound","lineId":"308","lineName":"308","mode":"bus","stopPointSequences":[{"stopPoint":[{"icsId":"1005337","id":"490005337S","lat":51.55928,"lon":-0.05264,"name":"Lea Bridge Road / Upper Clapton Road","parentId":"490G00005337","stationId":"490G00005337","stopLetter":"S","topMostParentId":"490G00005337","towards":"Leyton Or Homerton Hospital"},{"icsId":"1020144","id":"490020144Z","lat":51.5599,"lon":-0.04782,"name":"Millfields Park","parentId":"490G00020144","stationId":"490G00020144","stopLetter":"Z","topMostParentId":"490G00020144","towards":"Homerton Hospital"},{"icsId":"1020145","id":"4900020145S","lat":51.5575,"lon":-0.0465,"name":"Millfields Road","parentId":"490G00020145","stationId":"490G00020145","stopLetter":"->S","topMostParentId":"490G00020145","towards":"Homerton Hospital"},{"icsId":"1016752","id":"490016752S","lat":51.55527,"lon":-0.04561,"name":"Chatsworth Estate","parentId":"490G00016752","stationId":"490G00016752","stopLetter":"->S","topMostParentId":"490G00016752","towards":"Homerton Hospital"},{"icsId":"1003067","id":"490005405G","lat":51.55167,"lon":-0.04382,"name":"Brooksby's Walk","parentId":"490G00003067","stationId":"490G00003067","stopLetter":"G","topMostParentId":"490G00003067","towards":"Homerton Hospital"},{"icsId":"1008327","id":"490008327F","lat":51.54992,"lon":-0.04376,"name":"Homerton Hospital","parentId":"490G00008327","stationId":"490G00008327","stopLetter":"F","topMostParentId":"490G00008327","towards":"Hackney Central Or Clapton Pond"},{"icsId":"1007622","id":"490007622L","lat":51.54886,"lon":-0.04,"name":"Glyn Road","parentId":"490G00007622","stationId":"490G00007622","stopLetter":"L","topMostParentId":"490G00007622","towards":"Hackney Wick, Leyton Or Stratford City"},{"icsId":"1003222","id":"490003222E","lat":51.55015,"lon":-0.03408,"name":"Adley Street","parentId":"490G00003222","stationId":"490G00003222","stopLetter":"A","topMostParentId":"490G00003222","towards":"Hackney Wick, Leyton Or Stratford"},{"icsId":"1008803","id":"490008803E","lat":51.55084,"lon":-0.03193,"name":"Kingsmead Estate","parentId":"490G00008803","stationId":"490G00008803","stopLetter":"B","topMostParentId":"490G00008803","towards":"Hackney Wick, Leyton Or Stratford"},{"icsId":"1000445","id":"490000445Z","lat":51.55187,"lon":-0.02579,"name":"Hackney Marshes Playing Fields","parentId":"490G000094","stationId":"490G000094","stopLetter":"->E","topMostParentId":"490G000094","towards":"Leyton Or Stratford City"},{"icsId":"1006383","id":"490006383E","lat":51.55208,"lon":-0.02218,"name":"Hackney Marshes","parentId":"490G00006383","stationId":"490G00006383","stopLetter":"S","topMostParentId":"490G00006383","towards":"Leyton Or Stratford City"},{"icsId":"1011301","id":"490011301H","lat":51.55305,"lon":-0.01912,"name":"Ruckholt Road Bridge","parentId":"490G00011301","stationId":"490G00011301","stopLetter":"T","topMostParentId":"490G00011301","towards":"Leytonstone Or Stratford"},{"icsId":"1020146","id":"4900020146E","lat":51.55499,"lon":-0.01459,"name":"Lea Interchange Bus Garage","parentId":"490G00020146","stationId":"490G00020146","stopLetter":"V","topMostParentId":"490G00020146","towards":"Stratford"},{"icsId":"1020128","id":"490020128S","lat":51.55114,"lon":-0.00911,"name":"Velopark","parentId":"490G00020128","stationId":"490G00020128","stopLetter":"X","topMostParentId":"490G00020128","towards":"Stratford City"},{"icsId":"1020129","id":"490020129S","lat":51.54767,"lon":-0.00811,"name":"Chobham Academy","parentId":"490G00020129","stationId":"490G00020129","stopLetter":"Y","topMostParentId":"490G00020129","towards":"Stratford City"},{"icsId":"1001556","id":"490018554E","lat":51.54558,"lon":-0.0073,"name":"Stratford International Station","stopLetter":"F","topMostParentId":"490018554E","towards":"Forest Gate, Bow Or Hackney"},{"icsId":"1019793","id":"490019793W","lat":51.54386,"lon":-0.00415,"name":"Stratford City Bus Station","parentId":"490G00019793","stationId":"490G00019793","stopLetter":"W","topMostParentId":"HUBSRA"},{"icsId":"1018979","id":"490003260S","lat":51.54594,"lon":-0.00062,"name":"Windmill Lane","parentId":"490G00018979","stationId":"490G00018979","stopLetter":"Z","topMostParentId":"490G00018979","towards":"Forest Gate Or Plaistow"},{"icsId":"1012902","id":"490012902R","lat":51.54303,"lon":0.00399,"name":"Stratford Library","parentId":"490G00012902","stationId":"490G00012902","stopLetter":"J","topMostParentId":"490G00012902","towards":"Forest Gate Or Plaistow"},{"icsId":"1013480","id":"490013480E","lat":51.54233,"lon":0.00499,"name":"Litchfield Avenue","parentId":"490G00013480","stationId":"490G00013480","stopLetter":"MJ","topMostParentId":"490G00013480","towards":"Forest Gate"},{"icsId":"1014269","id":"490014269E","lat":51.54266,"lon":0.00861,"name":"Water Lane / University of East London","parentId":"490G00014269","stationId":"490G00014269","stopLetter":"MK","topMostParentId":"490G00014269","towards":"Forest Gate"},{"icsId":"1013391","id":"490013391N","lat":51.54398,"lon":0.00822,"name":"U E L Stratford Campus","parentId":"490G00013391","stationId":"490G00013391","stopLetter":"ML","topMostParentId":"490G00013391","towards":"Forest Gate"},{"icsId":"1009392","id":"490009392N","lat":51.54555,"lon":0.00759,"name":"Louise Road","parentId":"490G000647","stationId":"490G000647","stopLetter":"MM","topMostParentId":"490G000647","towards":"Forest Gate"},{"icsId":"1013639","id":"490013639E","lat":51.54688,"lon":0.00908,"name":"Thorogood Gardens","parentId":"490G00013639","stationId":"490G00013639","stopLetter":"MN","topMostParentId":"490G00013639","towards":"Forest Gate"},{"icsId":"1009760","id":"490009760W1","lat":51.54771,"lon":0.01357,"name":"Mcgrath Road","parentId":"490G00009760","stationId":"490G00009760","stopLetter":"->E","topMostParentId":"490G00009760","towards":"Wanstead"},{"icsId":"1009513","id":"490009513E","lat":51.5482,"lon":0.01635,"name":"Magpie Close","parentId":"490G00009513","stationId":"490G00009513","stopLetter":"->E","topMostParentId":"490G00009513","towards":"Wanstead"},{"icsId":"1012728","id":"490012728E","lat":51.54878,"lon":0.01943,"name":"St James' School","parentId":"490G00012728","stationId":"490G00012728","stopLetter":"DD","topMostParentId":"490G00012728","towards":"Wanstead"},{"icsId":"1001111","id":"490001111D","lat":51.54946,"lon":0.02321,"name":"Forest Gate Station","stopLetter":"D","topMostParentId":"490001111D","towards":"Wanstead"},{"icsId":"1001312","id":"490001312N","lat":51.55134,"lon":0.02507,"name":"Wanstead Park Station","stopLetter":"J","topMostParentId":"490001312N","towards":"Leyton Or Wanstead"},{"icsId":"1003999","id":"490003999N","lat":51.55306,"lon":0.02407,"name":"Bignold Road","parentId":"490G00003999","stationId":"490G00003999","stopLetter":"->N","topMostParentId":"490G00003999","towards":"Leyton Or Wanstead"},{"icsId":"1010981","id":"490010981N","lat":51.55538,"lon":0.02102,"name":"Pevensey Road","parentId":"490G00010981","stationId":"490G00010981","stopLetter":"A","topMostParentId":"490G00010981","towards":"Leyton Or Wanstead"},{"icsId":"1014201","id":"490014201N","lat":51.55729,"lon":0.01893,"name":"Wanstead Flats","parentId":"490G00014201","stationId":"490G00014201","stopLetter":"B","topMostParentId":"490G00014201","towards":"Leyton Or Wanstead"},{"icsId":"1008910","id":"490008910E","lat":51.56352,"lon":0.02449,"name":"Windsor Road","parentId":"490G00008910","stationId":"490G00008910","stopLetter":"T","topMostParentId":"490G00008910","towards":"Wanstead"},{"icsId":"1004087","id":"490004087N","lat":51.56663,"lon":0.0246,"name":"Blake Hall Crescent","parentId":"490G00004087","stationId":"490G00004087","stopLetter":"S","topMostParentId":"490G00004087","towards":"Wanstead"},{"icsId":"1004653","id":"490004653N","lat":51.57065,"lon":0.02342,"name":"Bush Road","parentId":"490G00004653","stationId":"490G00004653","stopLetter":"M","topMostParentId":"490G00004653","towards":"Wanstead"},{"icsId":"1004706","id":"490004706N","lat":51.57305,"lon":0.02351,"name":"Cambridge Park","parentId":"490G00004706","stationId":"490G00004706","stopLetter":"L","topMostParentId":"490G00004706","towards":"Wanstead"},{"icsId":"1000250","id":"490015125B","lat":51.57531,"lon":0.02712,"name":"Wanstead Station","stopLetter":"B","topMostParentId":"490015125B","towards":"Ilford Or South Woodford","zone":"4"},{"icsId":"1014816","id":"490014816W","lat":51.57682,"lon":0.02681,"name":"Woodbine Place","parentId":"490G00014816","stationId":"490G00014816","stopLetter":"AP","topMostParentId":"490G00014816"}]}]}