{"direction":"inbound","lineId":"315","lineName":"315","mode":"bus","stopPointSequences":[{"stopPoint":[{"icsId":"1000012","id":"490000012A","lat":51.44304,"lon":-0.15155,"name":"Balham Station","stopLetter":"A","topMostParentId":"490000012A","towards":"Streatham","zone":"3"},{"icsId":"1008204","id":"490008204D","lat":51.44452,"lon":-0.1523,"name":"Hildreth Street Market","parentId":"490G00008204","stationId":"490G00008204","stopLetter":"D","topMostParentId":"490G00008204","towards":"Brixton Or Clapham Common"},{"icsId":"1003560","id":"490003560S","lat":51.44084,"lon":-0.14856,"name":"Balham Health Centre","parentId":"490G00003560","stationId":"490G00003560","stopLetter":"N","topMostParentId":"490G00003560","towards":"Streatham"},{"icsId":"1006888","id":"490006888S","lat":51.43746,"lon":-0.14648,"name":"Fontenoy Road","parentId":"490G00006888","stationId":"490G00006888","stopLetter":"A","topMostParentId":"490G00006888","towards":"Streatham"},{"icsId":"1008206","id":"490008206S","lat":51.43634,"lon":-0.14483,"name":"Hillbury Road","parentId":"490G00008206","stationId":"490G00008206","stopLetter":"B","topMostParentId":"490G00008206","towards":"Streatham"},{"icsId":"1013713","id":"490013713S","lat":51.43347,"lon":-0.13613,"name":"Woodfield Avenue","parentId":"490G00013713","stationId":"490G00013713","stopLetter":"C","topMostParentId":"490G00013713","towards":"West Norwood"},{"icsId":"1015146","id":"490015146S2","lat":51.43105,"lon":-0.13532,"name":"Becmead Avenue","parentId":"490G00015146","stationId":"490G00015146","stopLetter":"D","topMostParentId":"490G00015146","towards":"West Norwood"},{"icsId":"1012933","id":"490012933SX","lat":51.42964,"lon":-0.13229,"name":"Streatham / St Leonard's Church","parentId":"490G00012933","stationId":"490G00012933","stopLetter":"SX","topMostParentId":"490G00012933","towards":"Crystal Palace, Streatham Hill Or West Norwood"},{"icsId":"1012926","id":"490012926Z","lat":51.42927,"lon":-0.1297,"name":"Bournevale Road","parentId":"490G00012926","stationId":"490G00012926","topMostParentId":"490G00012926"},{"icsId":"1007231","id":"490012581Z","lat":51.42859,"lon":-0.12611,"name":"Gleneldon Road / Stanthorpe Road","parentId":"490G00007231","stationId":"490G00007231","topMostParentId":"490G00007231"},{"icsId":"1007381","id":"490007381Z","lat":51.42712,"lon":-0.12117,"name":"Gleneldon Road","parentId":"490G00007381","stationId":"490G00007381","stopLetter":"->E","topMostParentId":"490G00007381"},{"icsId":"1002131","id":"490002131Z","lat":51.42896,"lon":-0.11967,"name":"Valley Road Surgery","parentId":"490G000353","stationId":"490G000353","stopLetter":"->N","topMostParentId":"490G000353"},{"icsId":"1012322","id":"490012322ZZ","lat":51.43105,"lon":-0.11881,"name":"South Oak Road","parentId":"490G00012322","stationId":"490G00012322","stopLetter":"->N","topMostParentId":"490G00012322"},{"icsId":"1004812","id":"490004812Z","lat":51.43275,"lon":-0.11806,"name":"Valley Road / Caroline Close","parentId":"490G00004812","stationId":"490G00004812","topMostParentId":"490G00004812"},{"icsId":"1013999","id":"490013999S","lat":51.43272,"lon":-0.11661,"name":"Leigham Court Road / Valley Road","parentId":"490G00013999","stationId":"490G00013999","stopLetter":"->S","topMostParentId":"490G00013999","towards":"Crown Point Or West Norwood"},{"icsId":"1012886","id":"490012886S","lat":51.43145,"lon":-0.11476,"name":"St Peters Church","parentId":"490G00012886","stationId":"490G00012886","stopLetter":"->S","topMostParentId":"490G00012886","towards":"Crown Point Or West Norwood"},{"icsId":"1019612","id":"490019612Y","lat":51.43179,"lon":-0.11265,"name":"Selsdon Road / Canterbury Grove","parentId":"490G00019612","stationId":"490G00019612","topMostParentId":"490G00019612"},{"icsId":"1019612","id":"490019612ZZ","lat":51.43294,"lon":-0.10992,"name":"Selsdon Road / Canterbury Grove","parentId":"490G00019612","stationId":"490G00019612","stopLetter":"->E","topMostParentId":"490G00019612"},{"icsId":"1019607","id":"490019607N","lat":51.43369,"lon":-0.10972,"name":"Chartham Grove","parentId":"490G00019607","stationId":"490G00019607","topMostParentId":"490G00019607"},{"icsId":"1019609","id":"490019609Z","lat":51.43473,"lon":-0.10881,"name":"Royal Circus","parentId":"490G00019609","stationId":"490G00019609","stopLetter":"->E","topMostParentId":"490G00019609"},{"icsId":"1019606","id":"490019606Y","lat":51.43631,"lon":-0.10537,"name":"York Hill","parentId":"490G00019606","stationId":"490G00019606","stopLetter":"->E","topMostParentId":"490G00019606"},{"icsId":"1008927","id":"490008927L","lat":51.43574,"lon":-0.10411,"name":"Lancaster Avenue","parentId":"490G00008927","stationId":"490G00008927","stopLetter":"L","topMostParentId":"490G00008927","towards":"Crown Point Or Crystal Palace"},{"icsId":"1013670","id":"490013655P","lat":51.43402,"lon":-0.10364,"name":"Norwood Road / Robson Road","parentId":"490G00013670","stationId":"490G00013670","stopLetter":"P","topMostParentId":"490G00013670","towards":"Crown Point Or Crystal Palace"},{"icsId":"1001331","id":"490001331T","lat":51.43166,"lon":-0.10254,"name":"West Norwood Station","stopLetter":"T","topMostParentId":"490001331T","towards":"Crown Point Or Crystal Palace"},{"icsId":"1010444","id":"490010444W","lat":51.42952,"lon":-0.10355,"name":"Norwood Bus Garage","parentId":"490G00010444","stationId":"490G00010444","stopLetter":"U","topMostParentId":"490G00010444","towards":"Upper Norwood"},{"icsId":"1011726","id":"490011726S","lat":51.4289,"lon":-0.10429,"name":"Rothschild Street","parentId":"490G00011726","stationId":"490G00011726","stopLetter":"V","topMostParentId":"490G00011726","towards":"Upper Norwood"}]}]}