{"direction":"inbound","lineId":"316","lineName":"316","mode":"bus","stopPointSequences":[{"stopPoint":[{"icsId":"1003375","id":"490003375WJ","lat":51.50832,"lon":-0.22396,"name":"White City Bus Station","parentId":"490G00003375","stationId":"490G00003375","stopLetter":"WJ","topMostParentId":"490G00003375"},{"icsId":"1000203","id":"490000203D","lat":51.50461,"lon":-0.21801,"name":"Shepherd's Bush Station","stopLetter":"D","topMostParentId":"490000203D","towards":"Kensington Or Ladbroke Grove","zone":"2"},{"icsId":"1011331","id":"490011331N","lat":51.50696,"lon":-0.21494,"name":"Queensdale Road","parentId":"490G00011331","stationId":"490G00011331","stopLetter":"HG","topMostParentId":"490G00011331","towards":"Ladbroke Grove"},{"icsId":"1014722","id":"490014722N","lat":51.50875,"lon":-0.21579,"name":"Wilsham Street","parentId":"490G00014722","stationId":"490G00014722","stopLetter":"D","topMostParentId":"490G00014722","towards":"Ladbroke Grove"},{"icsId":"1012857","id":"490012857N","lat":51.5108,"lon":-0.21682,"name":"Stoneleigh Place","parentId":"490G00012857","stationId":"490G00012857","stopLetter":"C","topMostParentId":"490G00012857","towards":"Ladbroke Grove"},{"icsId":"1000134","id":"490000134B","lat":51.51305,"lon":-0.21787,"name":"Latimer Road Station","stopLetter":"B","topMostParentId":"490000134B","towards":"Ladbroke Grove","zone":"2"},{"icsId":"1005848","id":"490005848N","lat":51.51615,"lon":-0.21758,"name":"Crowthorne Road","parentId":"490G00005848","stationId":"490G00005848","stopLetter":"G","topMostParentId":"490G00005848","towards":"Ladbroke Grove"},{"icsId":"1004699","id":"490004699E","lat":51.51723,"lon":-0.21527,"name":"Cambridge Gardens / St Marks Road","parentId":"490G00004699","stationId":"490G00004699","stopLetter":"E","topMostParentId":"490G00004699","towards":"Ladbroke Grove"},{"icsId":"1019158","id":"490004699N","lat":51.5177,"lon":-0.21534,"name":"Oxford Gardens","parentId":"490G00019158","stationId":"490G00019158","stopLetter":"F","topMostParentId":"490G00019158","towards":"East Acton"},{"icsId":"1012646","id":"490012646N","lat":51.51987,"lon":-0.21789,"name":"St Charles Square","parentId":"490G00012646","stationId":"490G00012646","stopLetter":"G","topMostParentId":"490G00012646","towards":"East Acton Or Queens Park"},{"icsId":"1015456","id":"490015456N","lat":51.521,"lon":-0.21855,"name":"Oakworth Road","parentId":"490G00015456","stationId":"490G00015456","stopLetter":"H","topMostParentId":"490G00015456","towards":"East Acton Or Queens Park"},{"icsId":"1012645","id":"490012645N1","lat":51.52259,"lon":-0.21949,"name":"St Charles Health & Wellbeing Centre","parentId":"490G00012645","stationId":"490G00012645","stopLetter":"J","topMostParentId":"490G00012645","towards":"East Acton Or Queens Park"},{"icsId":"1003618","id":"490003618P","lat":51.52364,"lon":-0.21785,"name":"Barlby Gardens","parentId":"490G00003618","stationId":"490G00003618","stopLetter":"P","topMostParentId":"490G00003618","towards":"Kilburn Or Notting Hill Gate"},{"icsId":"1004737","id":"490004737R","lat":51.52554,"lon":-0.21487,"name":"Kensal House","parentId":"490G00004737","stationId":"490G00004737","stopLetter":"R","topMostParentId":"490G00004737","towards":"Kensal Rise Or Queens Park"},{"icsId":"1008897","id":"490008897T","lat":51.52569,"lon":-0.21552,"name":"Ladbroke Grove Sainsbury's","parentId":"490G00008897","stationId":"490G00008897","stopLetter":"T","topMostParentId":"490G00008897","towards":"Acton, Kilburn Or Willesden"},{"icsId":"1007861","id":"490007860N","lat":51.52844,"lon":-0.2161,"name":"Kilburn Lane / Harrow Road","parentId":"490G000044","stationId":"490G000044","stopLetter":"KT","topMostParentId":"490G000044","towards":"Willesden Or Cricklewood"},{"icsId":"1003583","id":"490003583N","lat":51.53057,"lon":-0.21652,"name":"Banister Road","parentId":"490G00003583","stationId":"490G00003583","stopLetter":"KS","topMostParentId":"490G00003583","towards":"Willesden Or Cricklewood"},{"icsId":"1019003","id":"490003577E","lat":51.5313,"lon":-0.21587,"name":"Kilburn Lane","parentId":"490G00019003","stationId":"490G00019003","stopLetter":"KK","topMostParentId":"490G00019003","towards":"Maida Vale Or Cricklewood"},{"icsId":"1003237","id":"490003237E","lat":51.53215,"lon":-0.21053,"name":"Allington Road","parentId":"490G00003237","stationId":"490G00003237","stopLetter":"A","topMostParentId":"490G00003237","towards":"Maida Vale"},{"icsId":"1000186","id":"490000186A","lat":51.53323,"lon":-0.20455,"name":"Queen's Park Station","stopLetter":"B","topMostParentId":"490000186A","towards":"Maida Vale Or Paddington","zone":"2"},{"icsId":"1005692","id":"490005692E","lat":51.53256,"lon":-0.19994,"name":"Neville Close","parentId":"490G00005692","stationId":"490G00005692","stopLetter":"C","topMostParentId":"490G00005692","towards":"Marble Arch"},{"icsId":"1000911","id":"490004710E","lat":51.53226,"lon":-0.19453,"name":"Cambridge Road","parentId":"490G000228","stationId":"490G000228","stopLetter":"MA","topMostParentId":"490G000228","towards":"Marble Arch"},{"icsId":"1012626","id":"490012626N","lat":51.53327,"lon":-0.19258,"name":"Rudolph Road","parentId":"490G00012626","stationId":"490G00012626","stopLetter":"KC","topMostParentId":"490G00012626","towards":"Swiss Cottage Or West Hampsted"},{"icsId":"1000127","id":"490000127KA","lat":51.5355,"lon":-0.19327,"name":"Kilburn Park Station","stopLetter":"KA","topMostParentId":"490000127KA","towards":"Swiss Cottage Or Cricklewood","zone":"2"},{"icsId":"1001170","id":"490015243Z","lat":51.53631,"lon":-0.19269,"name":"Kilburn High Rd Stn  / Cambridge Avenue","stopLetter":"Z","topMostParentId":"490015243Z","towards":"Swiss Cottage Or West Hampsted"},{"icsId":"1008720","id":"490001170S","lat":51.53752,"lon":-0.19328,"name":"Brondesbury Road","parentId":"490G00008720","stationId":"490G00008720","stopLetter":"S","topMostParentId":"490G00008720","towards":"Cricklewood"},{"icsId":"1015245","id":"490008710P","lat":51.53912,"lon":-0.1949,"name":"Kilburn High Road","parentId":"490G00015245","stationId":"490G00015245","stopLetter":"P","topMostParentId":"490G00015245","towards":"Golders Green, Cricklewood Or Willesden"},{"icsId":"1011235","id":"490011235J","lat":51.54031,"lon":-0.19621,"name":"Priory Park Road","parentId":"490G00011235","stationId":"490G00011235","stopLetter":"J","topMostParentId":"490G00011235","towards":"Cricklewood Or Willesden"},{"icsId":"1004565","id":"490004565N","lat":51.54289,"lon":-0.19934,"name":"Buckley Road","parentId":"490G00004565","stationId":"490G00004565","stopLetter":"F","topMostParentId":"490G00004565","towards":"Cricklewood"},{"icsId":"1001038","id":"490001038N","lat":51.54532,"lon":-0.20209,"name":"Brondesbury Station","stopLetter":"C","topMostParentId":"490001038N","towards":"Cricklewood"},{"icsId":"1000126","id":"490000126A","lat":51.54638,"lon":-0.20326,"name":"Kilburn Station","stopLetter":"A","topMostParentId":"490000126A","towards":"Cricklewood","zone":"2"},{"icsId":"1008768","id":"490008768N","lat":51.54891,"lon":-0.20588,"name":"St Cuthbert's Road","parentId":"490G00008768","stationId":"490G00008768","stopLetter":"BX","topMostParentId":"490G00008768","towards":"Cricklewood"},{"icsId":"1009909","id":"490009909N","lat":51.5506,"lon":-0.20791,"name":"Mill Lane","parentId":"490G00009909","stationId":"490G00009909","stopLetter":"BK","topMostParentId":"490G00009909","towards":"Cricklewood and Neasden"},{"icsId":"1014140","id":"490014140N","lat":51.55379,"lon":-0.21217,"name":"Skardu Road","parentId":"490G00014140","stationId":"490G00014140","stopLetter":"BL","topMostParentId":"490G00014140","towards":"Brent Cross, Colindale Or Neasden"},{"icsId":"1005770","id":"490005770K","lat":51.55617,"lon":-0.21483,"name":"Cricklewood Broadway / the Crown","parentId":"490G000471","stationId":"490G000471","stopLetter":"BN","topMostParentId":"490G000471","towards":"Colindale Or Neasden"},{"icsId":"1005776","id":"490005776A","lat":51.55739,"lon":-0.21634,"name":"Cricklewood Lane","parentId":"490G000474","stationId":"490G000474","stopLetter":"BP","topMostParentId":"490G000474","towards":"Brent Cross, Neasden Or West Hendon"},{"icsId":"1010015","id":"490010015N","lat":51.55936,"lon":-0.21864,"name":"Mora Road","parentId":"490G00010015","stationId":"490G00010015","stopLetter":"BQ","topMostParentId":"490G00010015","towards":"Brent Cross, Neasden Or West Hendon"},{"icsId":"1015045","id":"490015045BS","lat":51.56153,"lon":-0.22064,"name":"Longley Way","parentId":"490G00015045","stationId":"490G00015045","stopLetter":"BR","topMostParentId":"490G00015045","towards":"Brent Cross, Neasden Or West Hendon"},{"icsId":"1015033","id":"490005772N","lat":51.56298,"lon":-0.22221,"name":"Cricklewood Bus Garage","parentId":"490G00015033","stationId":"490G00015033","stopLetter":"BS","topMostParentId":"490G00015033","towards":"Brent Cross, Neasden Or West Hendon"},{"icsId":"1006096","id":"490006096N","lat":51.56488,"lon":-0.22441,"name":"Dollis Hill Lane","parentId":"490G00006096","stationId":"490G00006096","stopLetter":"SE","topMostParentId":"490G00006096","towards":"Brent Cross Or West Hendon"},{"icsId":"1002310","id":"490002310WX","lat":51.56871,"lon":-0.22803,"name":"Brent Cross West Station","stopLetter":"SH","topMostParentId":"490002310WX","towards":"Cricklewood"}]}]}