{"direction":"inbound","lineId":"319","lineName":"319","mode":"bus","stopPointSequences":[{"stopPoint":[{"icsId":"1000206","id":"490000206H","lat":51.49226,"lon":-0.15704,"name":"Sloane Square Station","stopLetter":"H","topMostParentId":"490000206H","towards":"Battersea, Chelsea Or Knightsbridge","zone":"1"},{"icsId":"1006224","id":"490006224G","lat":51.49114,"lon":-0.1605,"name":"Duke of York Square","parentId":"490G00006224","stationId":"490G00006224","stopLetter":"G","topMostParentId":"490G00006224","towards":"Battersea, Putney Or Fulham"},{"icsId":"1014150","id":"490014150KA","lat":51.4902,"lon":-0.16227,"name":"Walpole Street","parentId":"490G00014150","stationId":"490G00014150","stopLetter":"KA","topMostParentId":"490G00014150","towards":"Battersea, Putney Or Fulham Broadway"},{"icsId":"1009666","id":"490009666KB","lat":51.489,"lon":-0.16476,"name":"Markham Street","parentId":"490G00009666","stationId":"490G00009666","stopLetter":"KB","topMostParentId":"490G00009666","towards":"Battersea, Putney Or Fulham Broadway"},{"icsId":"1005073","id":"490005073KC","lat":51.48831,"lon":-0.16663,"name":"Chelsea Old Town Hall","parentId":"490G00005073","stationId":"490G00005073","stopLetter":"KC","topMostParentId":"490G00005073","towards":"Battersea, Putney Or Fulham Broadway"},{"icsId":"1004809","id":"490004809KD","lat":51.48643,"lon":-0.17132,"name":"Carlyle Square","parentId":"490G00004809","stationId":"490G00004809","stopLetter":"KD","topMostParentId":"490G00004809","towards":"Battersea, Putney Or Fulham Broadway"},{"icsId":"1019014","id":"490015145S","lat":51.48387,"lon":-0.17508,"name":"Beaufort Street / King's Road","parentId":"490G00019014","stationId":"490G00019014","stopLetter":"QL","topMostParentId":"490G00019014","towards":"Clapham Junction"},{"icsId":"1005152","id":"490005152S","lat":51.48274,"lon":-0.17394,"name":"Cheyne Walk","parentId":"490G00005152","stationId":"490G00005152","stopLetter":"BA","topMostParentId":"490G00005152","towards":"Clapham Junction"},{"icsId":"1010771","id":"490010771S","lat":51.47861,"lon":-0.17015,"name":"Parkgate Road","parentId":"490G00010771","stationId":"490G00010771","stopLetter":"BE","topMostParentId":"490G00010771","towards":"Clapham Junction"},{"icsId":"1010979","id":"490010979S","lat":51.47592,"lon":-0.16759,"name":"Petworth Street","parentId":"490G00010979","stationId":"490G00010979","stopLetter":"BF","topMostParentId":"490G00010979","towards":"Clapham Junction"},{"icsId":"1013443","id":"490013443W1","lat":51.47241,"lon":-0.16416,"name":"The Latchmere","parentId":"490G00013443","stationId":"490G00013443","stopLetter":"LB","topMostParentId":"490G00013443","towards":"Clapham Junction Or Wandsworth"},{"icsId":"1004568","id":"490004568W","lat":51.4715,"lon":-0.16784,"name":"Bullen Street","parentId":"490G00004568","stationId":"490G00004568","stopLetter":"LD","topMostParentId":"490G00004568","towards":"Clapham Junction Or Wandsworth"},{"icsId":"1003687","id":"490003687W2","lat":51.47043,"lon":-0.17059,"name":"Battersea High Street","parentId":"490G00003687","stationId":"490G00003687","stopLetter":"LE","topMostParentId":"490G00003687","towards":"Clapham Junction Or Wandsworth"},{"icsId":"1006722","id":"490006722S","lat":51.46805,"lon":-0.17061,"name":"Falcon Grove","parentId":"490G00006722","stationId":"490G00006722","stopLetter":"->S","topMostParentId":"490G00006722","towards":"Clapham Common Or Wandsworth Common"},{"icsId":"1009849","id":"490009843G","lat":51.46581,"lon":-0.1689,"name":"Clapham Junction Station  / Falcon Road","parentId":"490G00009849","stationId":"490G00009849","stopLetter":"G","topMostParentId":"490G00009849","towards":"Clapham Common, Tooting Bec Or Wandsworth"},{"icsId":"1005332","id":"490005332T","lat":51.46308,"lon":-0.16769,"name":"Clapham Junction Stn  / the Falcon","parentId":"490G000462","stationId":"490G000462","stopLetter":"T","topMostParentId":"HUBCLJ","towards":"Clapham Common Or Wandsworth Common"},{"icsId":"1005333","id":"490005333Y","lat":51.46128,"lon":-0.16726,"name":"Clapham Junction / the Northcote","parentId":"490G00005333","stationId":"490G00005333","stopLetter":"Y","topMostParentId":"HUBCLJ","towards":"Clapham Common Or Wandsworth Common"},{"icsId":"1011862","id":"490011862S","lat":51.45732,"lon":-0.16563,"name":"Salcott Road","parentId":"490G00011862","stationId":"490G00011862","stopLetter":"->S","topMostParentId":"490G00011862","towards":"Tooting Bec Or Clapham South"},{"icsId":"1005964","id":"490005964S","lat":51.45463,"lon":-0.1643,"name":"Darley Road","parentId":"490G00005964","stationId":"490G00005964","stopLetter":"->S","topMostParentId":"490G00005964","towards":"Tooting Bec Or Clapham South"},{"icsId":"1004106","id":"490004106S","lat":51.45085,"lon":-0.16531,"name":"Blenkarne Road","parentId":"490G00004106","stationId":"490G00004106","stopLetter":"->S","topMostParentId":"490G00004106","towards":"Tooting Bec"},{"icsId":"1007340","id":"490007340S1","lat":51.44892,"lon":-0.16389,"name":"Granard Road","parentId":"490G00007340","stationId":"490G00007340","stopLetter":"J","topMostParentId":"490G00007340","towards":"Tooting Bec"},{"icsId":"1001309","id":"490001309B","lat":51.44626,"lon":-0.16551,"name":"Wandsworth Common Station","stopLetter":"B","topMostParentId":"490001309B","towards":"Tooting Bec Or Tooting Broadway"},{"icsId":"1019727","id":"490013044E","lat":51.444,"lon":-0.16776,"name":"Bellevue Road / Trinity Road","parentId":"490G00019727","stationId":"490G00019727","stopLetter":"E","topMostParentId":"490G00019727","towards":"Tooting Bec Or Tooting Broadway"},{"icsId":"1004406","id":"490004406S","lat":51.44188,"lon":-0.16609,"name":"Brodrick Road","parentId":"490G00004406","stationId":"490G00004406","stopLetter":"T","topMostParentId":"490G00004406","towards":"Streatham Or Tooting Broadway"},{"icsId":"1013948","id":"490013948S","lat":51.43998,"lon":-0.16425,"name":"Upper Tooting Park","parentId":"490G00013948","stationId":"490G00013948","stopLetter":"->S","topMostParentId":"490G00013948","towards":"Streatham Or Tooting Broadway"},{"icsId":"1006395","id":"490006395S","lat":51.43848,"lon":-0.16279,"name":"Eatonville Road","parentId":"490G00006395","stationId":"490G00006395","stopLetter":"T","topMostParentId":"490G00006395","towards":"Streatham Or Tooting Broadway"},{"icsId":"1000233","id":"490000233A","lat":51.43587,"lon":-0.15996,"name":"Tooting Bec Station","stopLetter":"A","topMostParentId":"490000233A","towards":"Streatham Or Tooting Broadway","zone":"3"},{"icsId":"1008615","id":"490000233F","lat":51.43542,"lon":-0.15844,"name":"St Anselm's Church","parentId":"490G00008615","stationId":"490G00008615","stopLetter":"F","topMostParentId":"490G00008615","towards":"Streatham"},{"icsId":"1009994","id":"490009994E","lat":51.43338,"lon":-0.15455,"name":"Montana Road","parentId":"490G00009994","stationId":"490G00009994","stopLetter":"K","topMostParentId":"490G00009994","towards":"Streatham"},{"icsId":"1006986","id":"490006986E","lat":51.43201,"lon":-0.15036,"name":"Franciscan Road","parentId":"490G00006986","stationId":"490G00006986","stopLetter":"L","topMostParentId":"490G00006986","towards":"Streatham"},{"icsId":"1013711","id":"490013711E","lat":51.43121,"lon":-0.14596,"name":"Tooting Bec Athletics Track","parentId":"490G00013711","stationId":"490G00013711","stopLetter":"M","topMostParentId":"490G00013711","towards":"Streatham"},{"icsId":"1013712","id":"490013712E","lat":51.43074,"lon":-0.14077,"name":"Tooting Bec Lido","parentId":"490G00013712","stationId":"490G00013712","stopLetter":"N","topMostParentId":"490G00013712","towards":"Streatham"},{"icsId":"1007121","id":"490007121E","lat":51.4303,"lon":-0.13594,"name":"Garrad's Road","parentId":"490G00007121","stationId":"490G00007121","stopLetter":"P","topMostParentId":"490G00007121","towards":"Crystal Palace Or Streatham Hill"},{"icsId":"1012933","id":"490012933SX","lat":51.42964,"lon":-0.13229,"name":"Streatham / St Leonard's Church","parentId":"490G00012933","stationId":"490G00012933","stopLetter":"SX","topMostParentId":"490G00012933","towards":"Crystal Palace, Streatham Hill Or West Norwood"},{"icsId":"1003758","id":"490003758OA","lat":51.43282,"lon":-0.12898,"name":"Becmead Avenue","parentId":"490G00003758","stationId":"490G00003758","stopLetter":"OA","topMostParentId":"490G00003758","towards":"Brixton Or Tulse Hill"},{"icsId":"1008765","id":"490008765M","lat":51.43449,"lon":-0.12862,"name":"Kingscourt Road","parentId":"490G00008765","stationId":"490G00008765","stopLetter":"M","topMostParentId":"490G00008765","towards":"Clapham Common, Brixton Or Tulse Hill"},{"icsId":"1010078","id":"490010078K","lat":51.43594,"lon":-0.12819,"name":"Mount Ephraim Road","parentId":"490G00010078","stationId":"490G00010078","stopLetter":"K","topMostParentId":"490G00010078","towards":"Clapham Common, Brixton Or Tulse Hill"},{"icsId":"1019944","id":"490001281A","lat":51.43941,"lon":-0.12626,"name":"Streatham Hill Stn  / Streatham Hill","parentId":"490G000969","stationId":"490G000969","stopLetter":"A","topMostParentId":"490G000969","towards":"Brixton"},{"icsId":"1003598","id":"490003598S","lat":51.44078,"lon":-0.12557,"name":"Barrhill Road","parentId":"490G00003598","stationId":"490G00003598","stopLetter":"S","topMostParentId":"490G00003598","towards":"Clapham Common, Brixton Or Tulse Hill"},{"icsId":"1013186","id":"490013186N","lat":51.44194,"lon":-0.12501,"name":"Telford Avenue","parentId":"490G00013186","stationId":"490G00013186","stopLetter":"N","topMostParentId":"490G00013186"}]}]}