{"direction":"inbound","lineId":"320","lineName":"320","mode":"bus","stopPointSequences":[{"stopPoint":[{"icsId":"1013615","id":"490013615Q","lat":51.44636,"lon":-0.02268,"name":"Thomas Lane","parentId":"490G00013615","stationId":"490G00013615","stopLetter":"Q","topMostParentId":"490G00013615","towards":"Downham Or Eltham"},{"icsId":"1009117","id":"490009117J","lat":51.44501,"lon":-0.02056,"name":"Catford Road / Lewisham Town Hall","parentId":"490G00009117","stationId":"490G00009117","stopLetter":"J","topMostParentId":"490G00009117","towards":"Grove Park, Hither Green Or Lee"},{"icsId":"1015150","id":"490015150Y","lat":51.44371,"lon":-0.02023,"name":"Bromley Road / Lewisham Town Hall","parentId":"490G00015150","stationId":"490G00015150","stopLetter":"Y","topMostParentId":"490G00015150","towards":"Beckenham Or Downham"},{"icsId":"1005020","id":"490003596S","lat":51.43927,"lon":-0.01969,"name":"Inchmery Road","parentId":"490G00005020","stationId":"490G00005020","stopLetter":"->S","topMostParentId":"490G00005020","towards":"Beckenham Or Downham"},{"icsId":"1010248","id":"490010248S","lat":51.43709,"lon":-0.01855,"name":"Newquay Road","parentId":"490G00010248","stationId":"490G00010248","stopLetter":"BM","topMostParentId":"490G00010248","towards":"Beckenham Or Downham"},{"icsId":"1004867","id":"490004865S","lat":51.43467,"lon":-0.01779,"name":"Catford Bus Garage","parentId":"490G00004867","stationId":"490G00004867","stopLetter":"BN","topMostParentId":"490G00004867","towards":"Beckenham Or Downham"},{"icsId":"1003852","id":"490003852B","lat":51.43393,"lon":-0.01763,"name":"Bellingham Road","parentId":"490G000410","stationId":"490G000410","stopLetter":"BQ","topMostParentId":"490G000410","towards":"Beckenham Or Downham"},{"icsId":"1004866","id":"490004866S","lat":51.43124,"lon":-0.01568,"name":"Catford Police Station","parentId":"490G00004866","stationId":"490G00004866","stopLetter":"BS","topMostParentId":"490G00004866","towards":"Beckenham Or Downham"},{"icsId":"1002403","id":"490013572S","lat":51.42949,"lon":-0.01436,"name":"Southend Lane","parentId":"490G00002403","stationId":"490G00002403","stopLetter":"ST","topMostParentId":"490G00002403","towards":"Beckenham Or Downham"},{"icsId":"1012286","id":"490012286S","lat":51.42778,"lon":-0.01154,"name":"Green Man Community Hub","parentId":"490G00012286","stationId":"490G00012286","stopLetter":"SX","topMostParentId":"490G00012286","towards":"Beckenham, Bromley Or Grove Park"},{"icsId":"1010528","id":"490010528S","lat":51.4258,"lon":-0.00554,"name":"Old Bromley Road","parentId":"490G00010528","stationId":"490G00010528","stopLetter":"DL","topMostParentId":"490G00010528","towards":"Bromley Or Grove Park"},{"icsId":"1004430","id":"490004430DA","lat":51.42384,"lon":-0.00348,"name":"Bromley Road / Downham Way","parentId":"490G00004430","stationId":"490G00004430","stopLetter":"DA","topMostParentId":"490G00004430","towards":"Bromley"},{"icsId":"1003438","id":"490003438S2","lat":51.4222,"lon":-0.0023,"name":"Ashgrove Road","parentId":"490G00003438","stationId":"490G00003438","stopLetter":"DB","topMostParentId":"490G00003438","towards":"Bromley"},{"icsId":"1004422","id":"490004422S","lat":51.41917,"lon":0.00097,"name":"Bromley Hill Cemetery","parentId":"490G00004422","stationId":"490G00004422","stopLetter":"DC","topMostParentId":"490G00004422","towards":"Bromley"},{"icsId":"1004418","id":"490004418S1","lat":51.41717,"lon":0.00402,"name":"Bromley Court Hotel","parentId":"490G00004418","stationId":"490G00004418","stopLetter":"DG","topMostParentId":"490G00004418","towards":"Bromley Common"},{"icsId":"1010748","id":"490010748S","lat":51.41503,"lon":0.00669,"name":"Park Avenue","parentId":"490G00010748","stationId":"490G00010748","stopLetter":"->S","topMostParentId":"490G00010748","towards":"Bromley Common"},{"icsId":"1014230","id":"490007999S","lat":51.41286,"lon":0.00832,"name":"Warner Road","parentId":"490G00014230","stationId":"490G00014230","stopLetter":"->S","topMostParentId":"490G00014230","towards":"Bromley Common"},{"icsId":"1006765","id":"490006765S2","lat":51.41039,"lon":0.0102,"name":"Farwig Lane","parentId":"490G00006765","stationId":"490G00006765","stopLetter":"->S","topMostParentId":"490G00006765","towards":"Bromley Common"},{"icsId":"1004419","id":"490004419C","lat":51.40796,"lon":0.0114,"name":"Bromley Magistrates Court","parentId":"490G00004419","stationId":"490G00004419","stopLetter":"A","topMostParentId":"490G00004419","towards":"Bromley Common"},{"icsId":"1004409","id":"4900004411SE","lat":51.40596,"lon":0.0139,"name":"High Street / Market Square","parentId":"490G00004409","stationId":"490G00004409","stopLetter":"I","topMostParentId":"490G00004409","towards":"Bromley Common"},{"icsId":"1004435","id":"490004435K","lat":51.40624,"lon":0.01781,"name":"Bromley Town Hall","parentId":"490G00004435","stationId":"490G00004435","stopLetter":"K","topMostParentId":"490G00004435","towards":"Bromley Common"},{"icsId":"1008665","id":"490008665T","lat":51.40531,"lon":0.0188,"name":"Bromley Civic Centre","parentId":"490G00008665","stationId":"490G00008665","stopLetter":"T","topMostParentId":"490G00008665","towards":"Beckenham, Bromley Common Or Hayes"},{"icsId":"1006507","id":"490006507Y","lat":51.40184,"lon":0.01625,"name":"Bromley High Street / the Mall","parentId":"490G00006507","stationId":"490G00006507","stopLetter":"X","topMostParentId":"490G00006507","towards":"Bickley Or Bromley Common"},{"icsId":"1001037","id":"490001037Z","lat":51.40049,"lon":0.01712,"name":"Bromley South Station","stopLetter":"Z","topMostParentId":"490001037Z","towards":"Bickley Or Bromley Common"},{"icsId":"1004423","id":"490004423G","lat":51.39892,"lon":0.01891,"name":"Cromwell Avenue","parentId":"490G00004423","stationId":"490G00004423","stopLetter":"G","topMostParentId":"490G00004423","towards":"Bickley Or Bromley Common"},{"icsId":"1003934","id":"490003934S","lat":51.3968,"lon":0.02353,"name":"Bertha James Day Centre","parentId":"490G00003934","stationId":"490G00003934","stopLetter":"BA","topMostParentId":"490G00003934","towards":"Biggin Hill, Locksbottom Or Petts Wood"},{"icsId":"1008330","id":"490008330S","lat":51.39604,"lon":0.02493,"name":"Homesdale Road","parentId":"490G00008330","stationId":"490G00008330","stopLetter":"BB","topMostParentId":"490G00008330","towards":"Biggin Hill, Locksbottom Or Petts Wood"},{"icsId":"1012309","id":"490012309S","lat":51.39269,"lon":0.0311,"name":"Southlands Road","parentId":"490G00012309","stationId":"490G00012309","stopLetter":"BA","topMostParentId":"490G00012309","towards":"Biggin Hill, Locksbottom Or Petts Wood"},{"icsId":"1008573","id":"490008573S","lat":51.39021,"lon":0.03455,"name":"Bromley Common / the Crown","parentId":"490G00008573","stationId":"490G00008573","stopLetter":"BB","topMostParentId":"490G00008573","towards":"Biggin Hill, Locksbottom Or Petts Wood"},{"icsId":"1013856","id":"490013856S","lat":51.3826,"lon":0.04029,"name":"Bromley Common / Turpington Lane","parentId":"490G00013856","stationId":"490G00013856","stopLetter":"BL","topMostParentId":"490G00013856","towards":"Biggin Hill Or Locksbottom"},{"icsId":"1007894","id":"490007894S","lat":51.37855,"lon":0.04204,"name":"Hastings Road / Trinity Church","parentId":"490G00007894","stationId":"490G00007894","stopLetter":"BQ","topMostParentId":"490G00007894","towards":"Biggin Hill"},{"icsId":"1013575","id":"490013575S","lat":51.37244,"lon":0.03937,"name":"Oakley Road / the Limes","parentId":"490G00013575","stationId":"490G00013575","stopLetter":"->S","topMostParentId":"490G00013575","towards":"Biggin Hill"},{"icsId":"1007387","id":"490007387S","lat":51.37072,"lon":0.03923,"name":"Gravel Road","parentId":"490G00007387","stationId":"490G00007387","stopLetter":"WA","topMostParentId":"490G00007387","towards":"Biggin Hill"},{"icsId":"1019795","id":"490013438S","lat":51.36805,"lon":0.03907,"name":"Oakley Road / the Keston Mark","parentId":"490G00019795","stationId":"490G00019795","stopLetter":"WB","topMostParentId":"490G00019795","towards":"Biggin Hill"},{"icsId":"1011800","id":"490011800S","lat":51.36513,"lon":0.03916,"name":"Rushley Close","parentId":"490G00011800","stationId":"490G00011800","stopLetter":"WD","topMostParentId":"490G00011800","towards":"Biggin Hill"},{"icsId":"1011651","id":"490011651S","lat":51.36257,"lon":0.03913,"name":"Rolinsden Way","parentId":"490G00011651","stationId":"490G00011651","stopLetter":"WE","topMostParentId":"490G00011651","towards":"Biggin Hill"},{"icsId":"1006863","id":"490006863S","lat":51.36031,"lon":0.03887,"name":"Fishponds Road","parentId":"490G00006863","stationId":"490G00006863","stopLetter":"WF","topMostParentId":"490G00006863","towards":"Biggin Hill"},{"icsId":"1008000","id":"490008000S","lat":51.35465,"lon":0.03387,"name":"Westerham Road / Heathfield Road","parentId":"490G00008000","stationId":"490G00008000","stopLetter":"WH","topMostParentId":"490G00008000","towards":"Biggin Hill"},{"icsId":"1006165","id":"490006165S","lat":51.34646,"lon":0.03581,"name":"Keston Church","parentId":"490G00006165","stationId":"490G00006165","stopLetter":"WJ","topMostParentId":"490G00006165","towards":"Biggin Hill"},{"icsId":"1004073","id":"490004073S","lat":51.34343,"lon":0.03218,"name":"Blackness Lane","parentId":"490G00004073","stationId":"490G00004073","stopLetter":"->S","topMostParentId":"490G00004073","towards":"Biggin Hill Valley Or Westerham"},{"icsId":"1009051","id":"490009051S","lat":51.33964,"lon":0.03072,"name":"Leaves Green / Ashmore Lane","parentId":"490G00009051","stationId":"490G00009051","stopLetter":"J","topMostParentId":"490G00009051","towards":"Biggin Hill Valley Or Westerham"},{"icsId":"1009878","id":"490009878S","lat":51.33625,"lon":0.03032,"name":"Leaves Green / the Kings Arms","parentId":"490G00009878","stationId":"490G00009878","stopLetter":"K","topMostParentId":"490G00009878","towards":"Biggin Hill Valley Or Westerham"},{"icsId":"1003993","id":"490003993S","lat":51.33238,"lon":0.02751,"name":"Biggin Hill Airport / Passenger Terminal","parentId":"490G00003993","stationId":"490G00003993","stopLetter":"L","topMostParentId":"490G00003993","towards":"Biggin Hill Valley Or Westerham"},{"icsId":"1007746","id":"490007746S","lat":51.32909,"lon":0.02471,"name":"Hanbury Drive","parentId":"490G00007746","stationId":"490G00007746","stopLetter":"M","topMostParentId":"490G00007746","towards":"Biggin Hill Valley Or Westerham"},{"icsId":"1002120","id":"490002120Z","lat":51.32801,"lon":0.02304,"name":"Biggin Hill Memorial Museum","parentId":"490G000342","stationId":"490G000342","stopLetter":"->S","topMostParentId":"490G000342","towards":"Biggin Hill Valley Or Westerham"},{"icsId":"1011874","id":"490011874S","lat":51.32537,"lon":0.02384,"name":"Main Road / Saltbox Hill","parentId":"490G00011874","stationId":"490G00011874","stopLetter":"N","topMostParentId":"490G00011874","towards":"Biggin Hill Valley Or Westerham"},{"icsId":"1013017","id":"490013017S","lat":51.32204,"lon":0.02773,"name":"Main Road / Sunningvale Avenue","parentId":"490G00013017","stationId":"490G00013017","stopLetter":"P","topMostParentId":"490G00013017","towards":"Biggin Hill Valley Or Westerham"},{"icsId":"1008533","id":"490008533S","lat":51.3163,"lon":0.03309,"name":"Biggin Hill / Black Horse","parentId":"490G00008533","stationId":"490G00008533","stopLetter":"Q","topMostParentId":"490G00008533","towards":"Biggin Hill Valley Or Westerham"},{"icsId":"1003994","id":"490003994S","lat":51.31156,"lon":0.03489,"name":"Lebanon Gardens","parentId":"490G00003994","stationId":"490G00003994","stopLetter":"N","topMostParentId":"490G00003994","towards":"Biggin Hill Valley Or Westerham"},{"icsId":"1010302","id":"490010302N","lat":51.31348,"lon":0.02846,"name":"Norheads Lane / Stock Hill","parentId":"490G00010302","stationId":"490G00010302","stopLetter":"->N","topMostParentId":"490G00010302","towards":"Biggin Hill Valley"},{"icsId":"1010303","id":"490010303Z","lat":51.31446,"lon":0.02646,"name":"Norheads Lane","parentId":"490G00010303","stationId":"490G00010303","stopLetter":"->S","topMostParentId":"490G00010303","towards":"Biggin Hill Vlley`"},{"icsId":"1020074","id":"490008816S","lat":51.31316,"lon":0.02688,"name":"Kings Road Recreation Ground","parentId":"490G00020074","stationId":"490G00020074","stopLetter":"->S","topMostParentId":"490G00020074","towards":"Biggin Hill Valley"},{"icsId":"1003996","id":"490003996S","lat":51.31019,"lon":0.0265,"name":"Biggin Hill Valley","parentId":"490G00003996","stationId":"490G00003996","stopLetter":"A","topMostParentId":"490G00003996","towards":"Keston"}]}]}