{"direction":"inbound","lineId":"324","lineName":"324","mode":"bus","stopPointSequences":[{"stopPoint":[{"icsId":"1019403","id":"4900019403Z","lat":51.57472,"lon":-0.21478,"name":"Tesco Brent Cross","parentId":"490G00019403","stationId":"490G00019403","stopLetter":"Z","topMostParentId":"490G00019403","towards":"Brent Cross, Kingsbury And Stanmore"},{"icsId":"1005347","id":"490005347U","lat":51.57427,"lon":-0.22074,"name":"Claremont Road","parentId":"490G00005347","stationId":"490G00005347","stopLetter":"U","topMostParentId":"490G00005347","towards":"Brent Cross"},{"icsId":"1004282","id":"490004283L","lat":51.57514,"lon":-0.22388,"name":"Brent Cross Shopping Centre","parentId":"490G00004282","stationId":"490G00004282","stopLetter":"L","topMostParentId":"490G00004282","towards":"Hendon"},{"icsId":"1012366","id":"490012366E","lat":51.57789,"lon":-0.22155,"name":"Spalding Road","parentId":"490G00012366","stationId":"490G00012366","stopLetter":"E","topMostParentId":"490G00012366","towards":"Hendon"},{"icsId":"1007337","id":"490007337CA","lat":51.58143,"lon":-0.22689,"name":"Graham Road","parentId":"490G000539","stationId":"490G000539","stopLetter":"S","topMostParentId":"490G000539","towards":"Finchley Central Or Mill Hill"},{"icsId":"1000106","id":"490000106E","lat":51.58347,"lon":-0.22799,"name":"Hendon Central Station","stopLetter":"E","topMostParentId":"490000106E","towards":"Mill Hill","zone":"3+4"},{"icsId":"1008057","id":"490008057H","lat":51.58553,"lon":-0.23077,"name":"Hendon War Memorial","parentId":"490G00008057","stationId":"490G00008057","stopLetter":"H","topMostParentId":"490G00008057","towards":"Mill Hill Or Kingsbury"},{"icsId":"1019351","id":"4900019351W","lat":51.58781,"lon":-0.23719,"name":"Colindeep Lane","parentId":"490G00019351","stationId":"490G00019351","stopLetter":"->W","topMostParentId":"490G00019351"},{"icsId":"1019350","id":"490019350Z","lat":51.58909,"lon":-0.24037,"name":"Colindeep Bridge","parentId":"490G00019350","stationId":"490G00019350","stopLetter":"->W","topMostParentId":"490G00019350"},{"icsId":"1000515","id":"490000515Y","lat":51.59091,"lon":-0.24328,"name":"Rushgrove Park","parentId":"490G000121","stationId":"490G000121","stopLetter":"->W","topMostParentId":"490G000121"},{"icsId":"1000514","id":"490000514Y","lat":51.59112,"lon":-0.24685,"name":"Clovelly Avenue","parentId":"490G000120","stationId":"490G000120","stopLetter":"->W","topMostParentId":"490G000120"},{"icsId":"1000513","id":"490000513Y","lat":51.59151,"lon":-0.25037,"name":"Court Way / Colindale","parentId":"490G000119","stationId":"490G000119","stopLetter":"->W","topMostParentId":"490G000119"},{"icsId":"1019349","id":"490019349W","lat":51.59207,"lon":-0.2533,"name":"Colin Park Road","parentId":"490G00019349","stationId":"490G00019349","stopLetter":"->W","topMostParentId":"490G00019349"},{"icsId":"1019348","id":"4900019348W","lat":51.59154,"lon":-0.25488,"name":"Colindeep Lane / The Hyde","parentId":"490G00019348","stationId":"490G00019348","stopLetter":"->W","topMostParentId":"490G00019348"},{"icsId":"1005483","id":"490005483CF","lat":51.59019,"lon":-0.25477,"name":"Colindeep Lane","parentId":"490G00005483","stationId":"490G00005483","stopLetter":"CF","topMostParentId":"490G00005483","towards":"Brent Cross, Cricklewood Or Kingsbury"},{"icsId":"1004562","id":"490004562CJ","lat":51.58841,"lon":-0.25998,"name":"Buck Lane","parentId":"490G00004562","stationId":"490G00004562","stopLetter":"CJ","topMostParentId":"490G00004562","towards":"Kingsbury"},{"icsId":"1007959","id":"490011646S","lat":51.58767,"lon":-0.26442,"name":"Fairfields Crescent","parentId":"490G00007959","stationId":"490G00007959","stopLetter":"RC","topMostParentId":"490G00007959","towards":"Kingsbury Or Neasden"},{"icsId":"1001978","id":"490011635W","lat":51.58441,"lon":-0.26706,"name":"Slough Lane","parentId":"490G000302","stationId":"490G000302","stopLetter":"J","topMostParentId":"490G000302","towards":"Kenton, Wembley Or Queensbury"},{"icsId":"1013997","id":"490013997M","lat":51.58593,"lon":-0.27471,"name":"Valley Drive","parentId":"490G00013997","stationId":"490G00013997","stopLetter":"M","topMostParentId":"490G00013997","towards":"Kenton, Wembley Or Queensbury"},{"icsId":"1000128","id":"490000128B","lat":51.58484,"lon":-0.27935,"name":"Kingsbury Station","stopLetter":"B","topMostParentId":"490000128B","towards":"Kenton Or Wembley","zone":"4"},{"icsId":"1015365","id":"490015365C","lat":51.58559,"lon":-0.28237,"name":"Kingsbury Circle","parentId":"490G000889","stationId":"490G000889","stopLetter":"C","topMostParentId":"490G000889","towards":"Burnt Oak Or Queensbury"},{"icsId":"1011531","id":"490011531N","lat":51.58887,"lon":-0.28378,"name":"Cowbridge Road","parentId":"490G00011531","stationId":"490G00011531","stopLetter":"W","topMostParentId":"490G00011531","towards":"Edgware Or Stanmore"},{"icsId":"1011328","id":"490011328N","lat":51.59212,"lon":-0.28641,"name":"Queensbury Morrisons","parentId":"490G00011328","stationId":"490G00011328","stopLetter":"DD","topMostParentId":"490G00011328","towards":"Edgware Or Stanmore"},{"icsId":"1013423","id":"490013423N","lat":51.59397,"lon":-0.29138,"name":"The Honeypot","parentId":"490G00013423","stationId":"490G00013423","stopLetter":"D","topMostParentId":"490G00013423","towards":"Edgware, Harrow Or Stanmore"},{"icsId":"1008334","id":"490008334W","lat":51.59563,"lon":-0.29546,"name":"Honeypot Lane","parentId":"490G00008334","stationId":"490G00008334","stopLetter":"W","topMostParentId":"490G00008334","towards":"Kenton Or Stanmore"},{"icsId":"1008635","id":"490008635W","lat":51.59499,"lon":-0.30142,"name":"Kenmore Road","parentId":"490G00008635","stationId":"490G00008635","stopLetter":"Z","topMostParentId":"490G00008635","towards":"Kenton Or Stanmore"},{"icsId":"1019346","id":"490019347N","lat":51.59547,"lon":-0.30321,"name":"Culver Grove","parentId":"490G00019346","stationId":"490G00019346","stopLetter":"->N","topMostParentId":"490G00019346"},{"icsId":"1019344","id":"4900OC469S","lat":51.59872,"lon":-0.30553,"name":"Culver Grove Park High School","parentId":"490G00019344","stationId":"490G00019344","stopLetter":"->N","topMostParentId":"490G00019344"},{"icsId":"1000509","id":"490000509Z","lat":51.60147,"lon":-0.3073,"name":"Crowshott Avenue","parentId":"490G000114","stationId":"490G000114","stopLetter":"->N","topMostParentId":"490G000114"},{"icsId":"1000510","id":"490000510Y","lat":51.60371,"lon":-0.30745,"name":"St Andrew's Drive","parentId":"490G000115","stationId":"490G000115","stopLetter":"->N","topMostParentId":"490G000115"},{"icsId":"1000507","id":"490000507Y","lat":51.60534,"lon":-0.30786,"name":"Wemborough Road / Abercorn Road","parentId":"490G000112","stationId":"490G000112","topMostParentId":"490G000112"},{"icsId":"1000508","id":"490000507X","lat":51.60732,"lon":-0.30857,"name":"Stanburn Primary School","parentId":"490G000113","stationId":"490G000113","stopLetter":"->N","topMostParentId":"490G000113"},{"icsId":"1000506","id":"490000506Y","lat":51.60988,"lon":-0.30989,"name":"Stanmore Baptist Church","parentId":"490G000111","stationId":"490G000111","stopLetter":"->N","topMostParentId":"490G000111"},{"icsId":"1000505","id":"490000505Y","lat":51.61117,"lon":-0.31142,"name":"Wolverton Road","parentId":"490G000110","stationId":"490G000110","stopLetter":"->N","topMostParentId":"490G000110"},{"icsId":"1000504","id":"490000504Y","lat":51.61313,"lon":-0.3126,"name":"Stanmore College","parentId":"490G000109","stationId":"490G000109","stopLetter":"->N","topMostParentId":"490G000109"},{"icsId":"1019345","id":"490019345X","lat":51.61467,"lon":-0.31315,"name":"Old Church Lane","parentId":"490G00019345","stationId":"490G00019345","stopLetter":"->N","topMostParentId":"490G00019345"},{"icsId":"1000502","id":"490019345N","lat":51.61632,"lon":-0.31488,"name":"Rectory Lane / Stanmore","parentId":"490G000108","stationId":"490G000108","topMostParentId":"490G000108"},{"icsId":"1012565","id":"490012564F","lat":51.61706,"lon":-0.31315,"name":"Stanmore Hill","stopLetter":"F","topMostParentId":"490012564F","towards":"Centennial Park Or Edgware"},{"icsId":"1013274","id":"490013274EB","lat":51.61778,"lon":-0.30916,"name":"The Broadway","parentId":"490G00013274","stationId":"490G00013274","stopLetter":"D","topMostParentId":"490G00013274","towards":"Canons Park Or Stanmore Station <>"},{"icsId":"1000219","id":"490000219B","lat":51.61992,"lon":-0.30371,"name":"Stanmore Station","stopLetter":"B","topMostParentId":"490000219B","towards":"Centennial Park Or Edgware","zone":"5"},{"icsId":"1009288","id":"490009288E","lat":51.6208,"lon":-0.29825,"name":"London Road / Reenglass Road","parentId":"490G00009288","stationId":"490G00009288","stopLetter":"H","topMostParentId":"490G00009288","towards":"Centennial Park Or Edgware"},{"icsId":"1002331","id":"490004760K","lat":51.62142,"lon":-0.29454,"name":"London Road / Rees Drive","parentId":"490G00002331","stationId":"490G00002331","stopLetter":"K","topMostParentId":"490G00002331","towards":"Centennial Park Or Edgware"},{"icsId":"1004760","id":"490004760L","lat":51.62217,"lon":-0.29325,"name":"Canons Corner","parentId":"490G00004760","stationId":"490G00004760","stopLetter":"L","topMostParentId":"490G00004760","towards":"Centennial Park Or Elstree"},{"icsId":"1011026","id":"490011026N","lat":51.62541,"lon":-0.29682,"name":"Pipers Green Lane","parentId":"490G00011026","stationId":"490G00011026","stopLetter":"->N","topMostParentId":"490G00011026","towards":"Centennial Park Or Elstree"},{"icsId":"1011769","id":"490011769N","lat":51.63229,"lon":-0.30475,"name":"Royal National Orthopaedic Hospital","parentId":"490G00011769","stationId":"490G00011769","stopLetter":"->N","topMostParentId":"490G00011769","towards":"Centennial Park Or Elstree"},{"icsId":"1014295","id":"210021008015","lat":51.637936,"lon":-0.303747,"name":"Elstree Hill South / Centennial Park","parentId":"210G1064","stationId":"210G1064","topMostParentId":"210G1064"},{"icsId":"1002221","id":"210021008016","lat":51.639717,"lon":-0.30871,"name":"Centennial Avenue","parentId":"210G9445","stationId":"210G9445","topMostParentId":"210G9445"},{"icsId":"1002262","id":"210021008017","lat":51.640361,"lon":-0.311027,"name":"Centennial Park","topMostParentId":"210021008017"}]}]}