{"direction":"inbound","lineId":"330","lineName":"330","mode":"bus","stopPointSequences":[{"stopPoint":[{"icsId":"1013206","id":"490013206W","lat":51.5026,"lon":0.03646,"name":"Thames Barrier","parentId":"490G00013206","stationId":"490G00013206","stopLetter":"P","topMostParentId":"490G00013206","towards":"Canning Town Or Royal Wharf"},{"icsId":"1002099","id":"490009918W","lat":51.50246,"lon":0.0324,"name":"Pontoon Dock Station","parentId":"940GZZDLPDK","stationId":"940GZZDLPDK","stopLetter":"Q","topMostParentId":"940GZZDLPDK","towards":"Canning Town Or Royal Wharf","zone":"3"},{"icsId":"1009438","id":"490009438W","lat":51.50213,"lon":0.02829,"name":"Mill Road","parentId":"490G000648","stationId":"490G000648","stopLetter":"R","topMostParentId":"490G000648","towards":"Canning Town"},{"icsId":"1002098","id":"490013434W","lat":51.503,"lon":0.02265,"name":"West Silvertown","stopLetter":"->W","topMostParentId":"490013434W","towards":"Canning Town","zone":"3"},{"icsId":"1005019","id":"490005019N","lat":51.50895,"lon":0.01336,"name":"Charrington Steps / City Hall","parentId":"490G00005019","stationId":"490G00005019","stopLetter":"->N","topMostParentId":"490G00005019","towards":"Plaistow"},{"icsId":"1004525","id":"490004525N","lat":51.51206,"lon":0.01072,"name":"Brunel Street","parentId":"490G00004525","stationId":"490G00004525","stopLetter":"->N","topMostParentId":"490G00004525","towards":"Canning Town and Hermit Road"},{"icsId":"1000039","id":"490000039F","lat":51.5145,"lon":0.00848,"name":"Canning Town Bus Station","stopLetter":"F","topMostParentId":"490000039F","zone":"2/3"},{"icsId":"1011429","id":"490011429J","lat":51.51664,"lon":0.0098,"name":"Rathbone Market","parentId":"490G00011429","stationId":"490G00011429","stopLetter":"J","topMostParentId":"490G00011429","towards":"Plaistow Or Stratford"},{"icsId":"1003750","id":"490003750L","lat":51.51755,"lon":0.01201,"name":"Hermit Road","parentId":"490G00003750","stationId":"490G00003750","stopLetter":"L","topMostParentId":"490G00003750","towards":"Plaistow Or Stratford"},{"icsId":"1005902","id":"490005902E","lat":51.51956,"lon":0.01641,"name":"Rokeby School","parentId":"490G00005902","stationId":"490G00005902","stopLetter":"S","topMostParentId":"490G00005902","towards":"Plaistow"},{"icsId":"1008834","id":"490008834E","lat":51.52081,"lon":0.01922,"name":"King Street","parentId":"490G00008834","stationId":"490G00008834","stopLetter":"BH","topMostParentId":"490G00008834","towards":"Plaistow"},{"icsId":"1003551","id":"490003551E","lat":51.52216,"lon":0.02196,"name":"Balaam Street","parentId":"490G00003551","stationId":"490G00003551","stopLetter":"BJ","topMostParentId":"490G00003551","towards":"Beckton Or Upton Park"},{"icsId":"1011047","id":"490011047E","lat":51.52342,"lon":0.02491,"name":"Plaistow Police Station","parentId":"490G00011047","stationId":"490G00011047","stopLetter":"BK","topMostParentId":"490G00011047","towards":"Beckton Or Upton Park"},{"icsId":"1011040","id":"490011040E","lat":51.52643,"lon":0.02994,"name":"Plaistow / Prince Regent Lane","parentId":"490G00011040","stationId":"490G00011040","stopLetter":"BM","topMostParentId":"490G00011040","towards":"East Ham Or Forest Gate"},{"icsId":"1010201","id":"490010201E","lat":51.5279,"lon":0.03221,"name":"New City Road","parentId":"490G00010201","stationId":"490G00010201","stopLetter":"BN","topMostParentId":"490G00010201","towards":"East Ham Or Forest Gate"},{"icsId":"1016264","id":"490016264E","lat":51.52897,"lon":0.03393,"name":"Samson Street","parentId":"490G00016264","stationId":"490G00016264","stopLetter":"T","topMostParentId":"490G00016264","towards":"Upton Park"},{"icsId":"1003273","id":"490003273O","lat":51.53021,"lon":0.03643,"name":"Upton Park / Green Street","parentId":"490G00003273","stationId":"490G00003273","stopLetter":"O","topMostParentId":"490G00003273","towards":"East Ham Or Forest Gate"},{"icsId":"1013958","id":"490015134N","lat":51.5309,"lon":0.03762,"name":"Upton Park / Boleyn","parentId":"490G00013958","stationId":"490G00013958","stopLetter":"G","topMostParentId":"490G00013958","towards":"Forest Gate Or Stratford"},{"icsId":"1013833","id":"490013833E","lat":51.53338,"lon":0.03629,"name":"Tudor Road","parentId":"490G00013833","stationId":"490G00013833","stopLetter":"E","topMostParentId":"490G00013833","towards":"Forest Gate Or Stratford"},{"icsId":"1000245","id":"490000245A","lat":51.53467,"lon":0.03538,"name":"Upton Park Station","stopLetter":"A","topMostParentId":"490000245A","towards":"Forest Gate Or Stratford","zone":"3"},{"icsId":"1011052","id":"490011052N","lat":51.53667,"lon":0.03482,"name":"Plashet Road","parentId":"490G00011052","stationId":"490G00011052","stopLetter":"D","topMostParentId":"490G00011052","towards":"Forest Gate Or Stratford"},{"icsId":"1010476","id":"490010476N","lat":51.54082,"lon":0.03249,"name":"Oakdale Road","parentId":"490G00010476","stationId":"490G00010476","stopLetter":"->N","topMostParentId":"490G00010476","towards":"Forest Gate"},{"icsId":"1005112","id":"490005112N","lat":51.54232,"lon":0.03252,"name":"Cheshunt Road","parentId":"490G00005112","stationId":"490G00005112","stopLetter":"->N","topMostParentId":"490G00005112","towards":"Wanstead Park"},{"icsId":"1012966","id":"490012966N","lat":51.54429,"lon":0.03201,"name":"Studley Road","parentId":"490G00012966","stationId":"490G00012966","stopLetter":"U","topMostParentId":"490G00012966","towards":"Wanstead Park"},{"icsId":"1007504","id":"490007497N","lat":51.54583,"lon":0.03132,"name":"St Dunstan's Road","parentId":"490G00007504","stationId":"490G00007504","stopLetter":"V","topMostParentId":"490G00007504","towards":"Wanstead Park"},{"icsId":"1007497","id":"490007497W","lat":51.54681,"lon":0.03029,"name":"Green Street","parentId":"490G00007497","stationId":"490G00007497","stopLetter":"Q","topMostParentId":"490G00007497","towards":"Leyton, Plaistow Or Stratford"},{"icsId":"1006919","id":"490006917E","lat":51.54653,"lon":0.02685,"name":"Woodgrange Road","parentId":"490G00006919","stationId":"490G00006919","stopLetter":"E","topMostParentId":"490G00006919","towards":"Leyton, Plaistow Or Stratford"},{"icsId":"1006917","id":"490006917L","lat":51.54775,"lon":0.02506,"name":"Claremont Road","parentId":"490G00006917","stationId":"490G00006917","stopLetter":"L","topMostParentId":"490G00006917","towards":"Leyton"},{"icsId":"1001111","id":"490001111A","lat":51.54921,"lon":0.02473,"name":"Forest Gate Station","stopLetter":"A","topMostParentId":"490001111A","towards":"Leyton"},{"icsId":"1001312","id":"490001312N","lat":51.55134,"lon":0.02507,"name":"Wanstead Park Station","stopLetter":"J","topMostParentId":"490001312N","towards":"Leyton Or Wanstead"}]}]}