{"direction":"inbound","lineId":"333","lineName":"333","mode":"bus","stopPointSequences":[{"stopPoint":[{"icsId":"1009297","id":"490000073G","lat":51.49693,"lon":-0.09932,"name":"Elephant & Castle / Newington Causeway","parentId":"490G000644","stationId":"490G000644","stopLetter":"G","topMostParentId":"490G000644","towards":"Peckham, Pimlico, Camberwell Or Kennington"},{"icsId":"1000073","id":"490000073P","lat":51.49424,"lon":-0.10049,"name":"Elephant & Castle Station","stopLetter":"P","topMostParentId":"490000073P","towards":"Kennington And Vauxhall","zone":"1+2"},{"icsId":"1010223","id":"490010223S1","lat":51.49167,"lon":-0.10255,"name":"Newington Butts","parentId":"490G00010223","stationId":"490G00010223","stopLetter":"BD","topMostParentId":"490G00010223","towards":"Brixton Or Stockwell"},{"icsId":"1010925","id":"490010925S","lat":51.49084,"lon":-0.10335,"name":"Penton Place","parentId":"490G00010925","stationId":"490G00010925","stopLetter":"BE","topMostParentId":"490G00010925","towards":"Brixton Or Stockwell"},{"icsId":"1000121","id":"490000121S","lat":51.48875,"lon":-0.10543,"name":"Kennington Station","stopLetter":"KA","topMostParentId":"490000121S","towards":"Brixton Or Stockwell","zone":"1+2"},{"icsId":"1008656","id":"490008645Z","lat":51.48485,"lon":-0.10929,"name":"Kennington Road","parentId":"490G00008656","stationId":"490G00008656","stopLetter":"Z","topMostParentId":"490G00008656","towards":"Brixton Or Stockwell"},{"icsId":"1008649","id":"490000172N","lat":51.48233,"lon":-0.11189,"name":"Camberwell New Road","parentId":"490G00008649","stationId":"490G00008649","stopLetter":"N","topMostParentId":"490G00008649","towards":"Stockwell"},{"icsId":"1000172","id":"490000172R","lat":51.48158,"lon":-0.11233,"name":"Oval Station","stopLetter":"R","topMostParentId":"490000172R","towards":"Stockwell","zone":"2"},{"icsId":"1006796","id":"490006796T","lat":51.48014,"lon":-0.11411,"name":"Fentiman Road","parentId":"490G00006796","stationId":"490G00006796","stopLetter":"T","topMostParentId":"490G00006796","towards":"Brixton Or Clapham Common"},{"icsId":"1006134","id":"490006134S","lat":51.47846,"lon":-0.11591,"name":"Dorset Road","parentId":"490G00006134","stationId":"490G00006134","stopLetter":"H","topMostParentId":"490G00006134","towards":"Brixton Or Clapham Common"},{"icsId":"1003164","id":"490003164S","lat":51.47695,"lon":-0.11742,"name":"Albert Square","parentId":"490G00003164","stationId":"490G00003164","stopLetter":"J","topMostParentId":"490G00003164","towards":"Brixton Or Clapham Common"},{"icsId":"1008970","id":"490008970E","lat":51.47413,"lon":-0.12045,"name":"Lansdowne Way","parentId":"490G00008970","stationId":"490G00008970","stopLetter":"E","topMostParentId":"490G00008970","towards":"Brixton Or Clapham Common"},{"icsId":"1012832","id":"490012832X","lat":51.4715,"lon":-0.12152,"name":"Stockwell Gardens","parentId":"490G000768","stationId":"490G000768","stopLetter":"X","topMostParentId":"490G000768","towards":"Camberwell, Streatham Or Tulse Hill"},{"icsId":"1008500","id":"490008500S","lat":51.46964,"lon":-0.11987,"name":"Irving Grove","parentId":"490G00008500","stationId":"490G00008500","stopLetter":"K","topMostParentId":"490G00008500","towards":"Camberwell, Streatham Or Tulse Hill"},{"icsId":"1012833","id":"490012833S1","lat":51.46837,"lon":-0.11884,"name":"Stockwell Green","parentId":"490G00012833","stationId":"490G00012833","topMostParentId":"490G00012833","towards":"Camberwell, Streatham Or Tulse Hill"},{"icsId":"1012578","id":"490012578B","lat":51.46631,"lon":-0.11684,"name":"Stansfield Road","parentId":"490G00012578","stationId":"490G00012578","topMostParentId":"490G00012578","towards":"Camberwell, Streatham Or Tulse Hill"},{"icsId":"1007526","id":"490007523B","lat":51.46524,"lon":-0.11518,"name":"Brixton Academy","parentId":"490G00007526","stationId":"490G00007526","stopLetter":"B","topMostParentId":"490G00007526","towards":"Camberwell, Streatham Or Tulse Hill"},{"icsId":"1000031","id":"490000031P","lat":51.46198,"lon":-0.11522,"name":"Brixton Station","stopLetter":"P","topMostParentId":"490000031P","towards":"Streatham Hill","zone":"2"},{"icsId":"1011793","id":"490011793S","lat":51.45879,"lon":-0.11693,"name":"Rush Common","parentId":"490G00011793","stationId":"490G00011793","stopLetter":"BA","topMostParentId":"490G00011793","towards":"Clapham Park Or Streatham"},{"icsId":"1004362","id":"490004362S1","lat":51.45634,"lon":-0.11833,"name":"Brixton Water Lane","parentId":"490G00004362","stationId":"490G00004362","stopLetter":"BB","topMostParentId":"490G00004362","towards":"Clapham Park Or Streatham"},{"icsId":"1004101","id":"490004101S","lat":51.45406,"lon":-0.12,"name":"Blenheim Gardens","parentId":"490G00004101","stationId":"490G00004101","stopLetter":"BC","topMostParentId":"490G00004101","towards":"Streatham"},{"icsId":"1008544","id":"490008544S","lat":51.45221,"lon":-0.1212,"name":"Jebb Avenue / Brixton Prison","parentId":"490G00008544","stationId":"490G00008544","stopLetter":"BD","topMostParentId":"490G00008544","towards":"Clapham Park Or Streatham"},{"icsId":"1015218","id":"490015218S","lat":51.44882,"lon":-0.12366,"name":"New Park Road","parentId":"490G00015218","stationId":"490G00015218","stopLetter":"BE","topMostParentId":"490G00015218","towards":"Clapham Park Or Streatham"},{"icsId":"1008310","id":"490008310S","lat":51.44706,"lon":-0.12421,"name":"Holmewood Road","parentId":"490G00008310","stationId":"490G00008310","stopLetter":"BF","topMostParentId":"490G00008310","towards":"Clapham Park, Streatham Common Or Tooting"},{"icsId":"1019763","id":"490005234S","lat":51.44429,"lon":-0.12442,"name":"Streatham Hill / Christchurch Road","parentId":"490G00019763","stationId":"490G00019763","stopLetter":"BH","topMostParentId":"490G00019763","towards":"Crystal Palace, Norbury Or Tooting"},{"icsId":"1013186","id":"490013186S","lat":51.44202,"lon":-0.12438,"name":"Telford Avenue","parentId":"490G00013186","stationId":"490G00013186","stopLetter":"W","topMostParentId":"490G00013186","towards":"Crystal Palace, Norbury Or Tooting"},{"icsId":"1019944","id":"490001281D","lat":51.4394,"lon":-0.12583,"name":"Streatham Hill Stn  / Streatham Hill","parentId":"490G000969","stationId":"490G000969","stopLetter":"D","topMostParentId":"490G000969","towards":"Crystal Palace, Norbury Or Tooting"},{"icsId":"1009076","id":"490009076E","lat":51.43749,"lon":-0.1272,"name":"Leigham Court Road","parentId":"490G000632","stationId":"490G000632","stopLetter":"E","topMostParentId":"490G000632","towards":"Mitcham, Pollards Hill Or Tooting"},{"icsId":"1010078","id":"490010078J","lat":51.43593,"lon":-0.12774,"name":"Mount Ephraim Road","parentId":"490G00010078","stationId":"490G00010078","stopLetter":"J","topMostParentId":"490G00010078","towards":"Mitcham, Norbury Or Tooting"},{"icsId":"1008765","id":"490008765L","lat":51.43444,"lon":-0.12796,"name":"Kingscourt Road","parentId":"490G00008765","stationId":"490G00008765","stopLetter":"L","topMostParentId":"490G00008765","towards":"Mitcham, Norbury Or Tooting"},{"icsId":"1003758","id":"490003758NA","lat":51.43266,"lon":-0.12867,"name":"Becmead Avenue","parentId":"490G00003758","stationId":"490G00003758","stopLetter":"NA","topMostParentId":"490G00003758","towards":"Mitcham, Pollards Hill Or Tooting"},{"icsId":"1012933","id":"490012761ST","lat":51.42842,"lon":-0.13183,"name":"Streatham / St Leonard's Church","parentId":"490G00012933","stationId":"490G00012933","stopLetter":"SL","topMostParentId":"490G00012933","towards":"Balham, Mitcham Or Tooting"},{"icsId":"1003292","id":"490003292S1","lat":51.42721,"lon":-0.13441,"name":"Ambleside Avenue","parentId":"490G00003292","stationId":"490G00003292","stopLetter":"SM","topMostParentId":"490G00003292","towards":"Mitcham Or Tooting"},{"icsId":"1005566","id":"490005566S","lat":51.42642,"lon":-0.13657,"name":"Conyers Road","parentId":"490G00005566","stationId":"490G00005566","stopLetter":"SN","topMostParentId":"490G00005566","towards":"Mitcham Or Tooting Broadway"},{"icsId":"1003189","id":"490003189S","lat":51.42506,"lon":-0.14034,"name":"Aldrington Road","parentId":"490G00003189","stationId":"490G00003189","stopLetter":"SQ","topMostParentId":"490G00003189","towards":"Mitcham Or Tooting"},{"icsId":"1013647","id":"490013647S","lat":51.42372,"lon":-0.14209,"name":"Thrale Road","parentId":"490G00013647","stationId":"490G00013647","stopLetter":"A","topMostParentId":"490G00013647","towards":"Mitcham Or Tooting"},{"icsId":"1005931","id":"490005931S","lat":51.42168,"lon":-0.14462,"name":"Dahomey Road","parentId":"490G00005931","stationId":"490G00005931","stopLetter":"B","topMostParentId":"490G00005931","towards":"Mitcham Or Tooting"},{"icsId":"1006388","id":"490006388S","lat":51.42002,"lon":-0.1463,"name":"Mitcham Lane / Southcroft Road","parentId":"490G00006388","stationId":"490G00006388","stopLetter":"C","topMostParentId":"490G00006388","towards":"Mitcham Or Tooting"},{"icsId":"1012269","id":"490012269W","lat":51.41992,"lon":-0.14833,"name":"Southcroft Road / Mitcham Lane","parentId":"490G00012269","stationId":"490G00012269","stopLetter":"F","topMostParentId":"490G00012269","towards":"Tooting Broadway"},{"icsId":"1010284","id":"490010284W","lat":51.42081,"lon":-0.15254,"name":"Nimrod Road","parentId":"490G00010284","stationId":"490G00010284","stopLetter":"G","topMostParentId":"490G00010284","towards":"Tooting Broadway"},{"icsId":"1006319","id":"490006319W","lat":51.42152,"lon":-0.15507,"name":"Eastbourne Road","parentId":"490G00006319","stationId":"490G00006319","stopLetter":"TQ","topMostParentId":"490G00006319","towards":"Tooting Broadway"},{"icsId":"1003295","id":"490005830W","lat":51.42263,"lon":-0.15897,"name":"Amen Corner","parentId":"490G00003295","stationId":"490G00003295","stopLetter":"TS","topMostParentId":"490G00003295","towards":"Tooting Broadway"},{"icsId":"1013709","id":"490013709S","lat":51.42448,"lon":-0.16348,"name":"Tooting / the Mitre","parentId":"490G00013709","stationId":"490G00013709","stopLetter":"TH","topMostParentId":"490G00013709","towards":"Colliers Wood, Earlsfield Or Tooting Bec"},{"icsId":"1003990","id":"490003990P","lat":51.42605,"lon":-0.16575,"name":"Bickley Street","parentId":"490G00003990","stationId":"490G00003990","stopLetter":"P","topMostParentId":"490G00003990","towards":"Colliers Wood, Earlsfield Or Tooting Bec"},{"icsId":"1000234","id":"490000234W1","lat":51.42686,"lon":-0.16661,"name":"Tooting Broadway Station","stopLetter":"R","topMostParentId":"490000234W1","zone":"3"}]}]}