{"direction":"inbound","lineId":"335","lineName":"335","mode":"bus","stopPointSequences":[{"stopPoint":[{"icsId":"1010374","id":"490010374B","lat":51.49967,"lon":0.00437,"name":"North Greenwich Station","parentId":"490G000682","stationId":"490G000682","stopLetter":"B","topMostParentId":"HUBNGW"},{"icsId":"1009887","id":"490009887X","lat":51.49403,"lon":0.01371,"name":"Millennium Village / Oval Square","parentId":"490G00009887","stationId":"490G00009887","stopLetter":"MC","topMostParentId":"490G00009887","towards":"Blackheath, Charlton Or Greenwich"},{"icsId":"1009889","id":"490009889Z","lat":51.49186,"lon":0.01371,"name":"Millennium Village South","parentId":"490G00009889","stationId":"490G00009889","stopLetter":"MD","topMostParentId":"490G00009889","towards":"Blackheath, Charlton Or Greenwich"},{"icsId":"1013356","id":"490013356E","lat":51.49008,"lon":0.01305,"name":"Millennium Leisure Park West","parentId":"490G00013356","stationId":"490G00013356","stopLetter":"ME","topMostParentId":"490G00013356","towards":"Blackheath, Charlton Or Greenwich"},{"icsId":"1011853","id":"490011853E","lat":51.48917,"lon":0.01627,"name":"Millennium Leisure Park East","parentId":"490G00011853","stationId":"490G00011853","stopLetter":"MF","topMostParentId":"490G00011853","towards":"Blackheath, Charlton Or Greenwich"},{"icsId":"1014412","id":"490014412E","lat":51.48597,"lon":0.0179,"name":"Combedale Road","parentId":"490G00014412","stationId":"490G00014412","stopLetter":"G","topMostParentId":"490G00014412","towards":"Charlton, Lewisham Or Kidbrooke"},{"icsId":"1001323","id":"490001323B","lat":51.48309,"lon":0.01992,"name":"Westcombe Park Station","stopLetter":"B","topMostParentId":"490001323B","towards":"Charlton, Lewisham Or Kidbrooke"},{"icsId":"1008854","id":"490008854S","lat":51.48105,"lon":0.0199,"name":"Kirkside Road","parentId":"490G00008854","stationId":"490G00008854","stopLetter":"->S","topMostParentId":"490G00008854","towards":"Charlton, Lewisham Or Kidbrooke"},{"icsId":"1004065","id":"490015264W1","lat":51.47771,"lon":0.02041,"name":"Blackheath / Royal Standard","parentId":"490G00004065","stationId":"490G00004065","stopLetter":"BD","topMostParentId":"490G00004065","towards":"Deptford, Lee, Kidbrooke Or Lewisham"},{"icsId":"1019071","id":"490004065BJ","lat":51.47657,"lon":0.01898,"name":"Stratheden Parade","parentId":"490G00019071","stationId":"490G00019071","stopLetter":"BJ","topMostParentId":"490G00019071","towards":"Eltham Or Lewisham"},{"icsId":"1012109","id":"490012109S","lat":51.47473,"lon":0.01721,"name":"Stratheden Road / Shooters Hill Road","parentId":"490G00012109","stationId":"490G00012109","stopLetter":"W","topMostParentId":"490G00012109","towards":"Eltham Or Lewisham"},{"icsId":"1008705","id":"490008705E","lat":51.47386,"lon":0.01755,"name":"Shooters Hill Road / Stratheden Road","parentId":"490G00008705","stationId":"490G00008705","stopLetter":"P","topMostParentId":"490G00008705","towards":"Eltham Or Welling"},{"icsId":"1003336","id":"490003336S","lat":51.47241,"lon":0.02278,"name":"Annesley Road","parentId":"490G00003336","stationId":"490G00003336","stopLetter":"L","topMostParentId":"490G00003336","towards":"Eltham Or Lewisham"},{"icsId":"1008703","id":"490008703S","lat":51.47063,"lon":0.02393,"name":"Kidbrooke Park Close","parentId":"490G00008703","stationId":"490G00008703","stopLetter":"G","topMostParentId":"490G00008703","towards":"Eltham Or Lewisham"},{"icsId":"1008702","id":"490008702S","lat":51.46656,"lon":0.0272,"name":"Thomas Tallis School","parentId":"490G00008702","stationId":"490G00008702","stopLetter":"F","topMostParentId":"490G00008702","towards":"Lewisham Or Wingfield School"},{"icsId":"1013617","id":"490013617S","lat":51.46428,"lon":0.0281,"name":"Kidbrooke Park Road / Aldi Store","parentId":"490G00013617","stationId":"490G00013617","stopLetter":"H","topMostParentId":"490G00013617","towards":"Lewisham Or Wingfield School"},{"icsId":"1016642","id":"490016642S","lat":51.4616,"lon":0.02637,"name":"Cranfield Walk","parentId":"490G00016642","stationId":"490G00016642","stopLetter":"M","topMostParentId":"490G00016642","towards":"Lewisham Or Wingfield School"},{"icsId":"1020276","id":"490020276Z","lat":51.45954,"lon":0.02915,"name":"Ryan Close","parentId":"490G00020276","stationId":"490G00020276","stopLetter":"->E","topMostParentId":"490G00020276","towards":"Eltham, Lewisham Or Shooters Hill"},{"icsId":"1000950","id":"490020276W","lat":51.45874,"lon":0.03128,"name":"Gerrard Way","parentId":"490G000259","stationId":"490G000259","stopLetter":"W","topMostParentId":"490G000259","towards":"Eltham, Lewisham Or Shooters Hill"},{"icsId":"1000301","id":"490000301N","lat":51.45874,"lon":0.02628,"name":"Kidbrooke Park Road","parentId":"490G00000301","stationId":"490G00000301","stopLetter":"->N","topMostParentId":"490G00000301","towards":"Blackheath, Shooters Hill Or Wingfield School"},{"icsId":"1014336","id":"490020133Z","lat":51.459185,"lon":0.024647,"name":"Weigall Road / South Side","topMostParentId":"490020133Z","towards":"Wingfield School"},{"icsId":"1019673","id":"490019673N","lat":51.459394,"lon":0.022454,"name":"Moorehead Way / Weigall Road","topMostParentId":"490019673N","towards":"Wingfield School"},{"icsId":"1014782","id":"490014782S","lat":51.4615,"lon":0.02158,"name":"Wingfield School","parentId":"490G00014782","stationId":"490G00014782","stopLetter":"->S","topMostParentId":"490G00014782","towards":"Blackheath Or Eltham"}]}]}