{"direction":"inbound","lineId":"337","lineName":"337","mode":"bus","stopPointSequences":[{"stopPoint":[{"icsId":"1011556","id":"490011556H","lat":51.4592,"lon":-0.30455,"name":"Richmond Bus Station","parentId":"490G00011556","stationId":"490G00011556","stopLetter":"H","topMostParentId":"490G00011556","towards":"Sheen"},{"icsId":"1007166","id":"490007166A","lat":51.46033,"lon":-0.30546,"name":"George Street","parentId":"490G00007166","stationId":"490G00007166","stopLetter":"A","topMostParentId":"490G00007166","towards":"Barnes Or Putney"},{"icsId":"1012050","id":"490012050G","lat":51.4613,"lon":-0.30197,"name":"Eton Street","parentId":"490G00012050","stationId":"490G00012050","stopLetter":"G","topMostParentId":"490G00012050","towards":"Barnes, Ham Or Putney"},{"icsId":"1012051","id":"490012051E","lat":51.46192,"lon":-0.29655,"name":"Church Road","parentId":"490G00012051","stationId":"490G00012051","stopLetter":"->E","topMostParentId":"490G00012051","towards":"Hammersmith, Putney Or Roehampton"},{"icsId":"1012452","id":"490012452SH","lat":51.46208,"lon":-0.29136,"name":"St Mary's Grove","parentId":"490G00012452","stationId":"490G00012452","stopLetter":"SH","topMostParentId":"490G00012452","towards":"Barnes, Putney Or Roehampton"},{"icsId":"1006377","id":"490006377SD","lat":51.4618,"lon":-0.28747,"name":"Manor Road / North Sheen Station","parentId":"490G00006377","stationId":"490G00006377","stopLetter":"SD","topMostParentId":"490G00006377","towards":"Barnes, Putney Or Roehampton"},{"icsId":"1012046","id":"490012046E","lat":51.46327,"lon":-0.28278,"name":"Sheen Court","parentId":"490G00012046","stationId":"490G00012046","stopLetter":"S","topMostParentId":"490G00012046","towards":"Barnes, Putney Or Roehampton"},{"icsId":"1003941","id":"490005407E","lat":51.46426,"lon":-0.27871,"name":"Berwyn Road","parentId":"490G00003941","stationId":"490G00003941","stopLetter":"T","topMostParentId":"490G00003941","towards":"Barnes, Putney Or Roehampton"},{"icsId":"1007332","id":"490007332E","lat":51.46432,"lon":-0.27534,"name":"Graemesdyke Avenue","parentId":"490G00007332","stationId":"490G00007332","stopLetter":"U","topMostParentId":"490G00007332","towards":"Barnes, Putney Or Roehampton"},{"icsId":"1013196","id":"490013196E","lat":51.46422,"lon":-0.27177,"name":"Temple Sheen Road","parentId":"490G00013196","stationId":"490G00013196","stopLetter":"V","topMostParentId":"490G00013196","towards":"Barnes, Putney Or Roehampton"},{"icsId":"1012049","id":"490012049E","lat":51.46453,"lon":-0.26819,"name":"East Sheen","parentId":"490G00012049","stationId":"490G00012049","stopLetter":"C","topMostParentId":"490G00012049","towards":"Barnes, Putney Or Roehampton"},{"icsId":"1010732","id":"490010732E","lat":51.46503,"lon":-0.26355,"name":"Thornton Road","parentId":"490G00010732","stationId":"490G00010732","stopLetter":"G","topMostParentId":"490G00010732","towards":"Hammersmith, Putney Or Roehampton"},{"icsId":"1007186","id":"490011350E","lat":51.46528,"lon":-0.25975,"name":"Kings Road","parentId":"490G00007186","stationId":"490G00007186","stopLetter":"H","topMostParentId":"490G00007186","towards":"Hammersmith, Putney Or Roehampton"},{"icsId":"1011184","id":"490011184E","lat":51.46529,"lon":-0.25254,"name":"Priests Bridge","parentId":"490G00011184","stationId":"490G00011184","stopLetter":"J","topMostParentId":"490G00011184","towards":"Hammersmith, Putney Or Roehampton"},{"icsId":"1011229","id":"490011229E","lat":51.46526,"lon":-0.2508,"name":"Priory Lane","parentId":"490G00011229","stationId":"490G00011229","stopLetter":"D","topMostParentId":"490G00011229","towards":"Hammersmith, Putney Or Roehampton"},{"icsId":"1011642","id":"490011642E","lat":51.46532,"lon":-0.2451,"name":"Queens Ride","parentId":"490G00011642","stationId":"490G00011642","stopLetter":"E","topMostParentId":"490G00011642","towards":"Hammersmith, Putney Or Roehampton"},{"icsId":"1007192","id":"490007192E","lat":51.46477,"lon":-0.23772,"name":"Gipsy Lane","parentId":"490G00007192","stationId":"490G00007192","stopLetter":"F","topMostParentId":"490G00007192","towards":"Fulham Or Wandsworth"},{"icsId":"1014818","id":"490014818E","lat":51.4642,"lon":-0.23374,"name":"Woodborough Road","parentId":"490G00014818","stationId":"490G00014818","stopLetter":"G","topMostParentId":"490G00014818","towards":"Fulham Or Wandsworth"},{"icsId":"1011287","id":"490011287E","lat":51.46329,"lon":-0.22876,"name":"Putney Leisure Centre","parentId":"490G00011287","stationId":"490G00011287","stopLetter":"L","topMostParentId":"490G00011287","towards":"Fulham Or Wandsworth"},{"icsId":"1011288","id":"490011288E","lat":51.46266,"lon":-0.22224,"name":"Putney Methodist Church","parentId":"490G00011288","stationId":"490G00011288","stopLetter":"M","topMostParentId":"490G00011288","towards":"Fulham Or Wandsworth"},{"icsId":"1004628","id":"490004628JA","lat":51.46137,"lon":-0.21924,"name":"Putney Arts Theatre","parentId":"490G00004628","stationId":"490G00004628","stopLetter":"J","topMostParentId":"490G00004628","towards":"Fulham Or Wandsworth"},{"icsId":"1001231","id":"490001231F","lat":51.46062,"lon":-0.2158,"name":"Putney Station","stopLetter":"F","topMostParentId":"490001231F","towards":"Wandsworth"},{"icsId":"1000069","id":"490000069EA","lat":51.46002,"lon":-0.21232,"name":"East Putney Station","stopLetter":"EA","topMostParentId":"490000069EA","towards":"Wandsworth","zone":"2+3"},{"icsId":"1009543","id":"490009543E","lat":51.45769,"lon":-0.20624,"name":"Manfred Road","parentId":"490G00009543","stationId":"490G00009543","stopLetter":"ED","topMostParentId":"490G00009543","towards":"Clapham Junction"},{"icsId":"1012985","id":"490012985E","lat":51.45677,"lon":-0.20337,"name":"Galveston Road","parentId":"490G00012985","stationId":"490G00012985","stopLetter":"EE","topMostParentId":"490G00012985","towards":"Clapham Junction"},{"icsId":"1009836","id":"490009836A","lat":51.45696,"lon":-0.1995,"name":"Merton Road","parentId":"490G00009836","stationId":"490G00009836","stopLetter":"A","topMostParentId":"490G00009836","towards":"Clapham Junction"},{"icsId":"1003383","id":"490003383E","lat":51.45831,"lon":-0.19661,"name":"Armoury Way","parentId":"490G00003383","stationId":"490G00003383","stopLetter":"E","topMostParentId":"490G00003383","towards":"Clapham Junction"},{"icsId":"1014195","id":"490014195N","lat":51.45764,"lon":-0.18992,"name":"Wandsworth Town Hall","parentId":"490G00014195","stationId":"490G00014195","stopLetter":"N","topMostParentId":"490G00014195","towards":"Clapham Junction"},{"icsId":"1003259","id":"490003259E","lat":51.45771,"lon":-0.18552,"name":"East Hill / Alma Road","parentId":"490G00003259","stationId":"490G00003259","stopLetter":"A","topMostParentId":"490G00003259","towards":"Clapham Junction"},{"icsId":"1009638","id":"490015404E","lat":51.45945,"lon":-0.18085,"name":"Marcilly Road","parentId":"490G00009638","stationId":"490G00009638","stopLetter":"B","topMostParentId":"490G00009638","towards":"Clapham Common, Battersea Or Vauxhall"},{"icsId":"1011066","id":"490011066E","lat":51.46134,"lon":-0.17432,"name":"Plough Road","parentId":"490G00011066","stationId":"490G00011066","stopLetter":"C","topMostParentId":"490G00011066","towards":"Clapham Common, Battersea Or Vauxhall"},{"icsId":"1001069","id":"490001069C","lat":51.46301,"lon":-0.17048,"name":"Clapham Junction Station","stopLetter":"C","topMostParentId":"490001069C","towards":"Battersea Bridge Or Clapham Common"},{"icsId":"1005332","id":"490005332T","lat":51.46308,"lon":-0.16769,"name":"Clapham Junction Stn  / the Falcon","parentId":"490G000462","stationId":"490G000462","stopLetter":"T","topMostParentId":"HUBCLJ","towards":"Clapham Common Or Wandsworth Common"},{"icsId":"1005333","id":"490005333Y","lat":51.46128,"lon":-0.16726,"name":"Clapham Junction / the Northcote","parentId":"490G00005333","stationId":"490G00005333","stopLetter":"Y","topMostParentId":"HUBCLJ","towards":"Clapham Common Or Wandsworth Common"},{"icsId":"1004133","id":"490004133W","lat":51.46008,"lon":-0.17057,"name":"Bolingbroke Grove","parentId":"490G00004133","stationId":"490G00004133","stopLetter":"SC","topMostParentId":"490G00004133","towards":"Earlsfield Or Tooting Bec"}]}]}