{"direction":"inbound","lineId":"339","lineName":"339","mode":"bus","stopPointSequences":[{"stopPoint":[{"icsId":"1000202","id":"490000202D","lat":51.51188,"lon":-0.05619,"name":"Shadwell Station","stopLetter":"D","topMostParentId":"490000202D","towards":"Mile End","zone":"2"},{"icsId":"1013158","id":"490013158G","lat":51.51308,"lon":-0.05412,"name":"Sutton Street","parentId":"490G00013158","stationId":"490G00013158","stopLetter":"G","topMostParentId":"490G00013158","towards":"Mile End"},{"icsId":"1008584","id":"490008584H","lat":51.51461,"lon":-0.05332,"name":"Musbury Street","parentId":"490G00008584","stationId":"490G00008584","stopLetter":"H","topMostParentId":"490G00008584","towards":"Mile End"},{"icsId":"1008535","id":"490008535E","lat":51.517,"lon":-0.04842,"name":"Jamaica Street","parentId":"490G00008535","stationId":"490G00008535","stopLetter":"W","topMostParentId":"490G00008535","towards":"Mile End"},{"icsId":"1012653","id":"490012653E","lat":51.5168,"lon":-0.04366,"name":"St Dunstan's Church","parentId":"490G00012653","stationId":"490G00012653","stopLetter":"X","topMostParentId":"490G00012653","towards":"Mile End"},{"icsId":"1003897","id":"490003897B","lat":51.51834,"lon":-0.03954,"name":"Harford Street","parentId":"490G00003897","stationId":"490G00003897","stopLetter":"N","topMostParentId":"490G00003897","towards":"Mile End Or Poplar"},{"icsId":"1006105","id":"490006105N","lat":51.51883,"lon":-0.03881,"name":"Dongola Road","parentId":"490G00006105","stationId":"490G00006105","stopLetter":"P","topMostParentId":"490G00006105","towards":"Mile End"},{"icsId":"1006626","id":"490006626N","lat":51.52184,"lon":-0.03939,"name":"Ernest Street","parentId":"490G00006626","stationId":"490G00006626","stopLetter":"R","topMostParentId":"490G00006626","towards":"Mile End"},{"icsId":"1007341","id":"490007341E","lat":51.52435,"lon":-0.03709,"name":"Regents Canal","parentId":"490G00007341","stationId":"490G00007341","stopLetter":"E","topMostParentId":"490G00007341","towards":"Bow Or Old Ford"},{"icsId":"1018852","id":"490000146G","lat":51.52586,"lon":-0.03525,"name":"Mile End Station / Mile End Road","parentId":"490G000925","stationId":"490G000925","stopLetter":"G","topMostParentId":"490G000925","towards":"Bethnal Green, Hackney Or Old Ford"},{"icsId":"1013517","id":"490013517N","lat":51.52707,"lon":-0.03654,"name":"Lichfield Road","parentId":"490G00013517","stationId":"490G00013517","stopLetter":"->N","topMostParentId":"490G00013517","towards":"Bethnal Green, Hackney Or Old Ford"},{"icsId":"1003352","id":"490003352N","lat":51.52896,"lon":-0.03852,"name":"Arbery Road","parentId":"490G00003352","stationId":"490G00003352","stopLetter":"Q","topMostParentId":"490G00003352","towards":"Hackney, Bethnal Green Or Roman Road Market"},{"icsId":"1012633","id":"490012633N","lat":51.53042,"lon":-0.03993,"name":"St Barnabas Church","parentId":"490G00012633","stationId":"490G00012633","stopLetter":"R","topMostParentId":"490G00012633","towards":"Bethnal Green, Hackney Or Old Ford"},{"icsId":"1007580","id":"490007580E","lat":51.53105,"lon":-0.03958,"name":"Roman Road / Grove Road","parentId":"490G00007580","stationId":"490G00007580","stopLetter":"H","topMostParentId":"490G00007580","towards":"Bow Or Fish Island"},{"icsId":"1009786","id":"490009786E","lat":51.53181,"lon":-0.03583,"name":"Medway Road","parentId":"490G00009786","stationId":"490G00009786","stopLetter":"J","topMostParentId":"490G00009786","towards":"Bow Or Fish Island"},{"icsId":"1006904","id":"490006904E","lat":51.53223,"lon":-0.03348,"name":"Ford Road","parentId":"490G00006904","stationId":"490G00006904","stopLetter":"K","topMostParentId":"490G00006904","towards":"Bow Or Fish Island"},{"icsId":"1015685","id":"490015685E","lat":51.5302,"lon":-0.03042,"name":"Antill Road","parentId":"490G00015685","stationId":"490G00015685","stopLetter":"SL","topMostParentId":"490G00015685","towards":"Fish Island"},{"icsId":"1015683","id":"490015683E","lat":51.53207,"lon":-0.02609,"name":"Usher Road","parentId":"490G00015683","stationId":"490G00015683","stopLetter":"E","topMostParentId":"490G00015683","towards":"Fish Island"},{"icsId":"1003489","id":"490014659N","lat":51.53465,"lon":-0.02195,"name":"Autumn Street","parentId":"490G00003489","stationId":"490G00003489","stopLetter":"OS","topMostParentId":"490G00003489","towards":"Stratford City"},{"icsId":"1006862","id":"490006862W","lat":51.53625,"lon":-0.02295,"name":"Fish Island","parentId":"490G00006862","stationId":"490G00006862","stopLetter":"OT","topMostParentId":"490G00006862","towards":"Stratford City"},{"icsId":"1009970","id":"490009968N1","lat":51.53842,"lon":-0.02555,"name":"Wansbeck Road","parentId":"490G00009970","stationId":"490G00009970","stopLetter":"OF","topMostParentId":"490G00009970","towards":"Homerton Or Stratford City"},{"icsId":"1009968","id":"490009968YY","lat":51.53964,"lon":-0.02324,"name":"Monier Road","parentId":"490G00009968","stationId":"490G00009968","stopLetter":"->E","topMostParentId":"490G00009968","towards":"Stratford"},{"icsId":"1020184","id":"490020184S","lat":51.53953,"lon":-0.00859,"name":"London Aquatics Centre","parentId":"490G00020184","stationId":"490G00020184","stopLetter":"J","topMostParentId":"490G00020184","towards":"Stratford City"},{"icsId":"1019793","id":"490019793S","lat":51.54332,"lon":-0.00397,"name":"Stratford City Bus Station","parentId":"490G00019793","stationId":"490G00019793","stopLetter":"S","topMostParentId":"HUBSRA","towards":"Stratford International"},{"icsId":"1001556","id":"490018554C","lat":51.54545,"lon":-0.00663,"name":"Stratford International Station","stopLetter":"C","topMostParentId":"490018554C","towards":"Leytonstone Or Homerton Hospital"},{"icsId":"1000287","id":"490000287N","lat":51.54787,"lon":-0.00663,"name":"Sir Ludwig Guttmann Health Centre","parentId":"490G000001","stationId":"490G000001","stopLetter":"Q","topMostParentId":"490G000001","towards":"Leytonstone"},{"icsId":"1005214","id":"490009519N","lat":51.54964,"lon":-0.00283,"name":"Chobham Road","parentId":"490G00005214","stationId":"490G00005214","stopLetter":"M","topMostParentId":"490G00005214","towards":"Leyton Or Leytonstone"},{"icsId":"1006438","id":"490006489E","lat":51.55208,"lon":8e-05,"name":"Edith Road","parentId":"490G00006438","stationId":"490G00006438","stopLetter":"E","topMostParentId":"490G00006438","towards":"Forest Gate, Leytonstone Or Stratford"},{"icsId":"1008181","id":"490009140E","lat":51.55247,"lon":0.00383,"name":"Burgess Road","parentId":"490G00008181","stationId":"490G00008181","stopLetter":"S","topMostParentId":"490G00008181","towards":"Forest Gate, Leytonstone Or Stratford"},{"icsId":"1011421","id":"490011421N","lat":51.55523,"lon":0.0054,"name":"Ranelagh Road","parentId":"490G00011421","stationId":"490G00011421","stopLetter":"J","topMostParentId":"490G00011421","towards":"Leytonstone Station Or Whipps Cross"},{"icsId":"1007849","id":"490007849N","lat":51.55759,"lon":0.00649,"name":"Harrow Green","parentId":"490G00007849","stationId":"490G00007849","stopLetter":"K","topMostParentId":"490G00007849","towards":"Leytonstone Station Or Whipps Cross"},{"icsId":"1003343","id":"490003343W","lat":51.55902,"lon":0.00535,"name":"Apollo Place","parentId":"490G00003343","stationId":"490G00003343","stopLetter":"M","topMostParentId":"490G00003343","towards":"Leyton Or Leytonstone Station"},{"icsId":"1008304","id":"490008304W","lat":51.55999,"lon":0.00292,"name":"Hollydown Way","parentId":"490G00008304","stationId":"490G00008304","stopLetter":"->W","topMostParentId":"490G00008304","towards":"Leyton Or Leytonstone Station"},{"icsId":"1004868","id":"490004918N","lat":51.56198,"lon":0.00144,"name":"Central Avenue","parentId":"490G00004868","stationId":"490G00004868","stopLetter":"->N","topMostParentId":"490G00004868","towards":"Whipps Cross"},{"icsId":"1007738","id":"490007738E","lat":51.56582,"lon":0.00238,"name":"Hampton Road","parentId":"490G00007738","stationId":"490G00007738","stopLetter":"AE","topMostParentId":"490G00007738","towards":"Whipps Cross"},{"icsId":"1006195","id":"490006195D","lat":51.56693,"lon":0.00419,"name":"Drayton Road","parentId":"490G00006195","stationId":"490G00006195","stopLetter":"AD","topMostParentId":"490G00006195","towards":"Whipps Cross"},{"icsId":"1009139","id":"490009139","lat":51.56819,"lon":0.00718,"name":"Leytonstone Station / Grove Green Road","parentId":"490G000638","stationId":"490G000638","stopLetter":"C","topMostParentId":"490G000638"}]}]}