{"direction":"inbound","lineId":"341","lineName":"341","mode":"bus","stopPointSequences":[{"stopPoint":[{"icsId":"1003705","id":"490000254F","lat":51.50363,"lon":-0.11175,"name":"Waterloo Station / Waterloo Road","parentId":"490G000401","stationId":"490G000401","stopLetter":"F","topMostParentId":"HUBWAT","towards":"Ludgate Circus"},{"icsId":"1014271","id":"490014270P","lat":51.50626,"lon":-0.115,"name":"Waterloo Bridge / South Bank","parentId":"490G000819","stationId":"490G000819","stopLetter":"P","topMostParentId":"490G000819","towards":"Trafalgar Square, Fleet Street Or Holborn"},{"icsId":"1008932","id":"490008932T","lat":51.51045,"lon":-0.11872,"name":"Lancaster Place","parentId":"490G00008932","stationId":"490G00008932","stopLetter":"T","topMostParentId":"490G00008932","towards":"Trafalgar Square, Fleet Street Or Holborn"},{"icsId":"1003191","id":"490003191D","lat":51.5127,"lon":-0.11859,"name":"Aldwych","parentId":"490G000385","stationId":"490G000385","stopLetter":"D","topMostParentId":"490G000385","towards":"Ludgate Circus"},{"icsId":"1011757","id":"490011757L","lat":51.51319,"lon":-0.1146,"name":"The Royal Courts of Justice","parentId":"490G000731","stationId":"490G000731","stopLetter":"L","topMostParentId":"490G000731","towards":"St Paul's"},{"icsId":"1006826","id":"490006826E","lat":51.51425,"lon":-0.10875,"name":"Fetter Lane","parentId":"490G00006826","stationId":"490G00006826","stopLetter":"->E","topMostParentId":"490G00006826","towards":"Bank, Clerkenwell Green Or Moorgate"},{"icsId":"1019205","id":"490012105HA","lat":51.51423,"lon":-0.10591,"name":"Ludgate Circus","parentId":"490G00019205","stationId":"490G00019205","stopLetter":"E","topMostParentId":"490G00019205","towards":"Bank, Clerkenwell Green Or Moorgate"},{"icsId":"1012640","id":"490012640M","lat":51.51532,"lon":-0.1048,"name":"Fleet Street / City Thameslink","parentId":"490G00012640","stationId":"490G00012640","stopLetter":"M","topMostParentId":"490G00012640","towards":"Kings Cross"},{"icsId":"1012217","id":"490005027N","lat":51.51801,"lon":-0.10544,"name":"Snow Hill","parentId":"490G000747","stationId":"490G000747","stopLetter":"HS","topMostParentId":"490G000747","towards":"Kings Cross"},{"icsId":"1000080","id":"490000080A","lat":51.52042,"lon":-0.10604,"name":"Farringdon Station","stopLetter":"A","topMostParentId":"490000080A","towards":"Angel Or Kings Cross","zone":"1"},{"icsId":"1015104","id":"490015104Z","lat":51.52268,"lon":-0.10762,"name":"Clerkenwell Road","parentId":"490G00015104","stationId":"490G00015104","stopLetter":"->N","topMostParentId":"490G00015104","towards":"Kings Cross"},{"icsId":"1010089","id":"490010089N","lat":51.52429,"lon":-0.10978,"name":"Rosebery Avenue / Mount Pleasant","parentId":"490G00010089","stationId":"490G00010089","stopLetter":"CM","topMostParentId":"490G00010089","towards":"Angel Or Kings Cross"},{"icsId":"1013891","id":"490013891N","lat":51.52623,"lon":-0.10962,"name":"Tysoe Street","parentId":"490G00013891","stationId":"490G00013891","stopLetter":"CH","topMostParentId":"490G00013891","towards":"Angel Islington"},{"icsId":"1007780","id":"490007780N","lat":51.5277,"lon":-0.10759,"name":"Hardwick Street","parentId":"490G00007780","stationId":"490G00007780","stopLetter":"UA","topMostParentId":"490G00007780","towards":"Angel Islington"},{"icsId":"1011849","id":"490011849RA","lat":51.5292,"lon":-0.10617,"name":"Sadler's Wells Theatre","parentId":"490G00011849","stationId":"490G00011849","stopLetter":"UB","topMostParentId":"490G00011849","towards":"Highbury Or Essex Road"},{"icsId":"1013229","id":"490013229P","lat":51.53141,"lon":-0.10628,"name":"St John Street / Goswell Road","parentId":"490G00013229","stationId":"490G00013229","stopLetter":"P","topMostParentId":"490G00013229","towards":"Barnsbury, Highbury Or Essex Road Station"},{"icsId":"1000007","id":"490000007X","lat":51.53396,"lon":-0.10558,"name":"Angel Station","stopLetter":"X","topMostParentId":"490000007X","towards":"Dalston Junction Or Newington Green","zone":"1"},{"icsId":"1008515","id":"490008515C","lat":51.53622,"lon":-0.10243,"name":"Islington Green","parentId":"490G00008515","stationId":"490G00008515","stopLetter":"C","topMostParentId":"490G00008515","towards":"Dalston Or Newington Green"},{"icsId":"1010709","id":"490010709N","lat":51.53761,"lon":-0.10031,"name":"Packington Street","parentId":"490G00010709","stationId":"490G00010709","stopLetter":"K","topMostParentId":"490G00010709","towards":"Dalston Or Newington Green"},{"icsId":"1005816","id":"490005816N2","lat":51.53831,"lon":-0.09948,"name":"Cross Street","parentId":"490G00005816","stationId":"490G00005816","stopLetter":"EA","topMostParentId":"490G00005816","towards":"Dalston Junction Or Newington Green"},{"icsId":"1001103","id":"490001103N1","lat":51.54005,"lon":-0.09694,"name":"Essex Road Station","stopLetter":"EB","topMostParentId":"490001103N1","towards":"Dalston Or Newington Green"},{"icsId":"1010326","id":"490010326EE","lat":51.54248,"lon":-0.09225,"name":"Northchurch Road","parentId":"490G00010326","stationId":"490G00010326","stopLetter":"EE","topMostParentId":"490G00010326","towards":"Dalston Or Newington Green"},{"icsId":"1010515","id":"490010515N","lat":51.54449,"lon":-0.08933,"name":"Ockendon Road","parentId":"490G00010515","stationId":"490G00010515","stopLetter":"EF","topMostParentId":"490G00010515","towards":"Dalston Or Newington Green"},{"icsId":"1003570","id":"490003569N1","lat":51.54672,"lon":-0.08713,"name":"Newington Green Road / Balls Pond Road","parentId":"490G00003570","stationId":"490G00003570","stopLetter":"CJ","topMostParentId":"490G00003570","towards":"Newington Green Road / Balls Pond Road"},{"icsId":"1003915","id":"490003915N","lat":51.54966,"lon":-0.08716,"name":"Beresford Road","parentId":"490G00003915","stationId":"490G00003915","stopLetter":"CK","topMostParentId":"490G00003915","towards":"Manor House Or Stoke Newington"},{"icsId":"1015396","id":"490015396NK","lat":51.55169,"lon":-0.08572,"name":"Newington Green","parentId":"490G000893","stationId":"490G000893","stopLetter":"NK","topMostParentId":"490G000893","towards":"Stoke Newington, Dalston Or Manor House"},{"icsId":"1003114","id":"490009055N","lat":51.55372,"lon":-0.08848,"name":"Aden Grove","parentId":"490G00003114","stationId":"490G00003114","stopLetter":"NL","topMostParentId":"490G00003114","towards":"Manor House"},{"icsId":"1004600","id":"490004600N","lat":51.55526,"lon":-0.08975,"name":"Petherton Road","parentId":"490G00004600","stationId":"490G00004600","stopLetter":"NN","topMostParentId":"490G00004600","towards":"Manor House"},{"icsId":"1012836","id":"490012836N","lat":51.55823,"lon":-0.09074,"name":"Green Lanes / Stoke Newington Church St","parentId":"490G00012836","stationId":"490G00012836","stopLetter":"PP","topMostParentId":"490G00012836","towards":"Highbury Corner Or Manor House"},{"icsId":"1016700","id":"490016700N","lat":51.55945,"lon":-0.0914,"name":"Riversdale Road","parentId":"490G00016700","stationId":"490G00016700","stopLetter":"PR","topMostParentId":"490G00016700","towards":"Highbury Corner Or Manor House"},{"icsId":"1008767","id":"490008766N","lat":51.56102,"lon":-0.09181,"name":"Kings Crescent Estate","parentId":"490G00008767","stationId":"490G00008767","stopLetter":"PU","topMostParentId":"490G00008767","towards":"Manor House"},{"icsId":"1004519","id":"490004519N","lat":51.5633,"lon":-0.09223,"name":"Brownswood Road","parentId":"490G00004519","stationId":"490G00004519","stopLetter":"PV","topMostParentId":"490G00004519","towards":"Manor House"},{"icsId":"1004955","id":"490004955N","lat":51.56578,"lon":-0.09371,"name":"Myddleton Avenue","parentId":"490G00004955","stationId":"490G00004955","stopLetter":"M","topMostParentId":"490G00004955","towards":"West Green Road Or Turnpike Lane"},{"icsId":"1011127","id":"490011127N","lat":51.56745,"lon":-0.09419,"name":"Gloucester Drive","parentId":"490G00011127","stationId":"490G00011127","stopLetter":"N","topMostParentId":"490G00011127","towards":"West Green Road Or Turnpike Lane"},{"icsId":"1000142","id":"490015501K","lat":51.5703,"lon":-0.09575,"name":"Manor House Station","stopLetter":"K","topMostParentId":"490015501K","towards":"West Green Road Or Turnpike Lane","zone":"2+3"},{"icsId":"1011748","id":"490000142A","lat":51.57132,"lon":-0.09647,"name":"Manor House Station  / Woodberry Grove","parentId":"490G000730","stationId":"490G000730","stopLetter":"A","topMostParentId":"490G000730","towards":"West Green Road Or Turnpike Lane"},{"icsId":"1011743","id":"490011743HD","lat":51.57298,"lon":-0.0974,"name":"Rowley Gardens","parentId":"490G00011743","stationId":"490G00011743","stopLetter":"HD","topMostParentId":"490G00011743","towards":"Tottenham Or Wood Green"},{"icsId":"1006574","id":"490008082HE","lat":51.57518,"lon":-0.0985,"name":"Endymion Road","parentId":"490G00006574","stationId":"490G00006574","stopLetter":"HE","topMostParentId":"490G00006574","towards":"West Green Or Wood Green"},{"icsId":"1001139","id":"490001139HF","lat":51.57722,"lon":-0.09883,"name":"Harringay Green Lanes Station","stopLetter":"HF","topMostParentId":"490001139HF","towards":"West Green Or Wood Green"},{"icsId":"1009719","id":"490009719HG","lat":51.58,"lon":-0.09934,"name":"Mattison Road","parentId":"490G00009719","stationId":"490G00009719","stopLetter":"HG","topMostParentId":"490G00009719","towards":"West Green Or Wood Green"},{"icsId":"1012434","id":"490012434HH","lat":51.58174,"lon":-0.09971,"name":"St Ann's Road","parentId":"490G00012434","stationId":"490G00012434","stopLetter":"HH","topMostParentId":"490G00012434","towards":"West Green Or Wood Green"},{"icsId":"1007836","id":"490007836HL","lat":51.58242,"lon":-0.09894,"name":"Harringay Road","parentId":"490G00007836","stationId":"490G00007836","stopLetter":"HL","topMostParentId":"490G00007836","towards":"Tottenham"},{"icsId":"1004244","id":"490004244HP","lat":51.58135,"lon":-0.0949,"name":"Warwick Gardens","parentId":"490G00004244","stationId":"490G00004244","stopLetter":"HP","topMostParentId":"490G00004244","towards":"Tottenham"},{"icsId":"1014862","id":"490014862HR","lat":51.58179,"lon":-0.09182,"name":"Chestnuts Primary School","parentId":"490G00014862","stationId":"490G00014862","stopLetter":"HS","topMostParentId":"490G00014862","towards":"Tottenham Or Wood Green"},{"icsId":"1003042","id":"490003042N","lat":51.58448,"lon":-0.08994,"name":"Abbotsford Avenue","parentId":"490G00003042","stationId":"490G00003042","stopLetter":"H","topMostParentId":"490G00003042","towards":"Tottenham Or Wood Green"},{"icsId":"1010982","id":"490010982E","lat":51.58636,"lon":-0.08727,"name":"Philip Lane","parentId":"490G00010982","stationId":"490G00010982","stopLetter":"D","topMostParentId":"490G00010982","towards":"Tottenham"},{"icsId":"1012991","id":"490012991E1","lat":51.58831,"lon":-0.08424,"name":"Summerhill Road","parentId":"490G00012991","stationId":"490G00012991","stopLetter":"E","topMostParentId":"490G00012991","towards":"Tottenham Hale Or Northumberland Park"},{"icsId":"1010090","id":"490010090E","lat":51.58922,"lon":-0.07929,"name":"Mount Pleasant Road","parentId":"490G00010090","stationId":"490G00010090","stopLetter":"F","topMostParentId":"490G00010090","towards":"Tottenham Hale Or Northumberland Park"},{"icsId":"1000415","id":"490007529E","lat":51.58933,"lon":-0.07581,"name":"Winchelsea Road","parentId":"490G000064","stationId":"490G000064","stopLetter":"G","topMostParentId":"490G000064","towards":"Tottenham Hale Or Northumberland Park"},{"icsId":"1013726","id":"490013726K","lat":51.58857,"lon":-0.07181,"name":"Tottenham Bus Garage","parentId":"490G00013726","stationId":"490G00013726","stopLetter":"T","topMostParentId":"490G00013726","towards":"Blackhorse Road Or Northumberland Park"},{"icsId":"1013736","id":"490013736N","lat":51.59039,"lon":-0.07026,"name":"Tottenham Police Station","parentId":"490G00013736","stationId":"490G00013736","stopLetter":"F","topMostParentId":"490G00013736","towards":"Edmonton, Wood Green Or Northumberland Park"},{"icsId":"1001040","id":"490001040J","lat":51.59349,"lon":-0.06973,"name":"Bruce Grove Station","stopLetter":"J","topMostParentId":"490001040J","towards":"Edmonton Or Northumberland Park"},{"icsId":"1009360","id":"490009360N","lat":51.59789,"lon":-0.06811,"name":"Lordship Lane","parentId":"490G00009360","stationId":"490G00009360","stopLetter":"R","topMostParentId":"490G00009360","towards":"Northumberland Park Or Edmonton"},{"icsId":"1013731","id":"490013731E","lat":51.59867,"lon":-0.06666,"name":"Tottenham High Road","parentId":"490G00013731","stationId":"490G00013731","stopLetter":"U","topMostParentId":"490G00013731","towards":"Northumberland Park"},{"icsId":"1012383","id":"490012383E","lat":51.5991,"lon":-0.06166,"name":"Spencer Road","parentId":"490G00012383","stationId":"490G00012383","stopLetter":"NL","topMostParentId":"490G00012383","towards":"Northumberland Park"},{"icsId":"1004961","id":"490004961E","lat":51.59937,"lon":-0.05812,"name":"Chalgrove Road","parentId":"490G00004961","stationId":"490G00004961","stopLetter":"NM","topMostParentId":"490G00004961","towards":"Northumberland Park"},{"icsId":"1001213","id":"490001213N","lat":51.60294,"lon":-0.05494,"name":"Northumberland Park","stopLetter":"NB","topMostParentId":"490001213N","towards":"Glover Drive Tesco"},{"icsId":"1009066","id":"490009066N","lat":51.60707,"lon":-0.05472,"name":"Leeside Road","parentId":"490G00009066","stationId":"490G00009066","stopLetter":"NH","topMostParentId":"490G00009066","towards":"Glover Drive Tesco"},{"icsId":"1002134","id":"490007254E","lat":51.6092,"lon":-0.0475,"name":"Meridian Water Station","parentId":"910GMWRWSTN","stationId":"910GMWRWSTN","stopLetter":"K","topMostParentId":"910GMWRWSTN","towards":"Tottenham Hale Or Edmonton"}]}]}