{"direction":"inbound","lineId":"346","lineName":"346","mode":"bus","stopPointSequences":[{"stopPoint":[{"icsId":"1014322","id":"490014322S","lat":51.57094,"lon":0.27079,"name":"Lexington Way","parentId":"490G00014322","stationId":"490G00014322","stopLetter":"->S","topMostParentId":"490G00014322","towards":"Cranham, Romford and Upminster"},{"icsId":"1004529","id":"490004529S","lat":51.5685,"lon":0.27031,"name":"Brunswick Avenue","parentId":"490G00004529","stationId":"490G00004529","stopLetter":"->S","topMostParentId":"490G00004529","towards":"Cranham Or Upminster"},{"icsId":"1013923","id":"490013923N","lat":51.57067,"lon":0.2689,"name":"Upminster Park Estate","parentId":"490G00013923","stationId":"490G00013923","stopLetter":"->N","topMostParentId":"490G00013923","towards":"Cranham Or Upminster"},{"icsId":"1010014","id":"490010014S","lat":51.56163,"lon":0.26723,"name":"Moor Lane","parentId":"490G00010014","stationId":"490G00010014","stopLetter":"->S","topMostParentId":"490G00010014","towards":"Upminster"},{"icsId":"1011462","id":"490011462S","lat":51.55941,"lon":0.26673,"name":"Rectory Gardens","parentId":"490G00011462","stationId":"490G00011462","stopLetter":"->S","topMostParentId":"490G00011462","towards":"Upminster"},{"icsId":"1011093","id":"490011093S","lat":51.55786,"lon":0.26613,"name":"Pond Walk","parentId":"490G00011093","stationId":"490G00011093","stopLetter":"->S","topMostParentId":"490G00011093","towards":"Upminster"},{"icsId":"1008406","id":"490008406W","lat":51.55716,"lon":0.26256,"name":"Howard Road","parentId":"490G00008406","stationId":"490G00008406","stopLetter":"->W","topMostParentId":"490G00008406","towards":"Upminster"},{"icsId":"1013455","id":"490013455W","lat":51.55737,"lon":0.25771,"name":"Argyle Gardens","parentId":"490G00013455","stationId":"490G00013455","stopLetter":"J","topMostParentId":"490G00013455","towards":"Upminster"},{"icsId":"1013924","id":"490013924W","lat":51.55673,"lon":0.2541,"name":"Tudor Gardens","parentId":"490G00013924","stationId":"490G00013924","stopLetter":"K","topMostParentId":"490G00013924","towards":"Upminster Station"},{"icsId":"1005602","id":"490005602G","lat":51.55623,"lon":0.25071,"name":"Corbets Tey Road","parentId":"490G00005602","stationId":"490G00005602","stopLetter":"L","topMostParentId":"490G00005602","towards":"Upminster Station"},{"icsId":"1007148","id":"490007148D","lat":51.55687,"lon":0.24937,"name":"Gaynes Road","parentId":"490G00007148","stationId":"490G00007148","stopLetter":"D","topMostParentId":"490G00007148","towards":"Corbets Tey, Cranham Or Romford"},{"icsId":"1000242","id":"490000242A","lat":51.5585,"lon":0.25006,"name":"Upminster Station","stopLetter":"A","topMostParentId":"490000242A","towards":"Corbets Tey, Cranham Or Romford","zone":"6"},{"icsId":"1006075","id":"490006075N","lat":51.56074,"lon":0.25105,"name":"Deyncourt Gardens","parentId":"490G00006075","stationId":"490G00006075","stopLetter":"W","topMostParentId":"490G00006075","towards":"Cranham Or Harold Wood"},{"icsId":"1008487","id":"490008487N","lat":51.56327,"lon":0.25229,"name":"Ingrebourne Gardens","parentId":"490G00008487","stationId":"490G00008487","stopLetter":"X","topMostParentId":"490G00008487","towards":"Cranham Or Harold Wood"},{"icsId":"1013346","id":"490013346N","lat":51.56538,"lon":0.25415,"name":"The Fairway","parentId":"490G00013346","stationId":"490G00013346","stopLetter":"->N","topMostParentId":"490G00013346","towards":"Cranham Or Harold Wood"},{"icsId":"1013925","id":"490013925N","lat":51.56722,"lon":0.25551,"name":"Upminster Tithe Barn Museum","parentId":"490G00013925","stationId":"490G00013925","stopLetter":"->N","topMostParentId":"490G00013925","towards":"Cranham Or Harold Wood"},{"icsId":"1003519","id":"490003519N","lat":51.56982,"lon":0.25659,"name":"River Drive","parentId":"490G00003519","stationId":"490G00003519","stopLetter":"->N","topMostParentId":"490G00003519","towards":"Cranham Or Harold Wood"},{"icsId":"1015789","id":"490015789N","lat":51.57396,"lon":0.25733,"name":"Wylie Veterinary Centre","parentId":"490G00015789","stationId":"490G00015789","stopLetter":"->N","topMostParentId":"490G00015789","towards":"Harold Wood"},{"icsId":"1016790","id":"490016790W","lat":51.59049,"lon":0.24885,"name":"Pages Lane","parentId":"490G00016790","stationId":"490G00016790","stopLetter":"->W","topMostParentId":"490G00016790","towards":"Harold Wood"},{"icsId":"1012065","id":"490012065W","lat":51.59127,"lon":0.24372,"name":"Phillida Road","parentId":"490G00012065","stationId":"490G00012065","stopLetter":"->W","topMostParentId":"490G00012065","towards":"Harold Wood Station"},{"icsId":"1008356","id":"490008356W","lat":51.59036,"lon":0.2377,"name":"Cockabourne Bridge","parentId":"490G00008356","stationId":"490G00008356","stopLetter":"->W","topMostParentId":"490G00008356","towards":"Harold Wood Station"},{"icsId":"1007590","id":"490007590W","lat":51.5895,"lon":0.23418,"name":"Harold Wood Neighbourhood Centre","parentId":"490G00007590","stationId":"490G00007590","stopLetter":"->W","topMostParentId":"490G00007590","towards":"Harold Wood Station"},{"icsId":"1007831","id":"490012887N","lat":51.58993,"lon":0.23328,"name":"St Peter's Church","parentId":"490G00007831","stationId":"490G00007831","stopLetter":"J","topMostParentId":"490G00007831","towards":"Harold Hill Or Gallows Corner"},{"icsId":"1001137","id":"490001137B","lat":51.59299,"lon":0.23288,"name":"Harold Wood Station","stopLetter":"B","topMostParentId":"490001137B","towards":"Upminster, Gidea Park Or Hornchurch"},{"icsId":"1002169","id":"490002169HW","lat":51.59311,"lon":0.22984,"name":"Kings Park","parentId":"490G000513","stationId":"490G000513","stopLetter":"->W","topMostParentId":"490G000513"},{"icsId":"1002170","id":"490002170HN","lat":51.59263,"lon":0.22732,"name":"St Clements Avenue","parentId":"490G000520","stationId":"490G000520","stopLetter":"->N","topMostParentId":"490G000520"},{"icsId":"1002173","id":"490002173HW","lat":51.59104,"lon":0.22383,"name":"Sallow Road","parentId":"490G000566","stationId":"490G000566","stopLetter":"->W","topMostParentId":"490G000566"},{"icsId":"1002171","id":"490002171HN","lat":51.59143,"lon":0.22309,"name":"Nightingale Crescent","parentId":"490G000537","stationId":"490G000537","stopLetter":"->N","topMostParentId":"490G000537"},{"icsId":"1002172","id":"490002172HW","lat":51.59206,"lon":0.22126,"name":"Lister Avenue","parentId":"490G000550","stationId":"490G000550","stopLetter":"->W","topMostParentId":"490G000550"},{"icsId":"1007096","id":"490007096N","lat":51.59263,"lon":0.21981,"name":"Gallows Corner / Tesco","parentId":"490G00007096","stationId":"490G00007096","stopLetter":"GA","topMostParentId":"490G00007096","towards":"Harold Hill, Harold Wood Or Romford"},{"icsId":"1003451","id":"490003451Z","lat":51.59734,"lon":0.21871,"name":"Ashton Road","parentId":"490G00003451","stationId":"490G00003451","stopLetter":"->N","topMostParentId":"490G00003451"},{"icsId":"1012389","id":"490012389E","lat":51.59904,"lon":0.22008,"name":"Spilsby Road","parentId":"490G00012389","stationId":"490G00012389","stopLetter":"->E","topMostParentId":"490G00012389","towards":"Harold Wood"},{"icsId":"1002165","id":"490002165HN","lat":51.60066,"lon":0.22009,"name":"Broadford Primary School","parentId":"490G000463","stationId":"490G000463","stopLetter":"->N","topMostParentId":"490G000463"},{"icsId":"1002166","id":"490002166HN","lat":51.6021,"lon":0.21821,"name":"Coltsfoot Path","parentId":"490G000467","stationId":"490G000467","stopLetter":"->N","topMostParentId":"490G000467"},{"icsId":"1002164","id":"490002164HN","lat":51.60347,"lon":0.21585,"name":"Myrtle Road / Chatteris Avenue","parentId":"490G000461","stationId":"490G000461","stopLetter":"->N","topMostParentId":"490G000461"},{"icsId":"1002193","id":"490004992Z","lat":51.6049,"lon":0.2144,"name":"Chatteris Avenue / Chippenham Road","parentId":"490G000800","stationId":"490G000800","stopLetter":"->N","topMostParentId":"490G000800"},{"icsId":"1004992","id":"490004992E","lat":51.6061,"lon":0.21358,"name":"Hilldene Avenue / Chatteris Avenue","parentId":"490G00004992","stationId":"490G00004992","stopLetter":"->E","topMostParentId":"490G00004992","towards":"Harold Hill Or Noak Hill"},{"icsId":"1006762","id":"490006762E","lat":51.6077,"lon":0.21903,"name":"Hilldene Avenue Shopping Centre","parentId":"490G00006762","stationId":"490G00006762","stopLetter":"->E","topMostParentId":"490G00006762","towards":"Harold Hill Or Noak Hill"},{"icsId":"1005187","id":"490005187E","lat":51.60838,"lon":0.22191,"name":"Chippenham Road","parentId":"490G00005187","stationId":"490G00005187","stopLetter":"HJ","topMostParentId":"490G00005187","towards":"Harold Hill, Harold Wood Or Noak Hill"},{"icsId":"1004473","id":"490004473E","lat":51.60886,"lon":0.22436,"name":"Brookside School","parentId":"490G00004473","stationId":"490G00004473","stopLetter":"DA","topMostParentId":"490G00004473","towards":"Noak Hill Or Dagnam Park Square"},{"icsId":"1007799","id":"490007799E","lat":51.60952,"lon":0.23085,"name":"Harkness Close","parentId":"490G00007799","stationId":"490G00007799","stopLetter":"DC","topMostParentId":"490G00007799","towards":"Dagnam Park Square"},{"icsId":"1011971","id":"490011971DD","lat":51.60946,"lon":0.23557,"name":"Sedgefield Crescent","parentId":"490G00011971","stationId":"490G00011971","stopLetter":"DD","topMostParentId":"490G00011971","towards":"Dagnam Park Square"},{"icsId":"1014650","id":"490014650S","lat":51.60842,"lon":0.23784,"name":"Wickford Drive","parentId":"490G00014650","stationId":"490G00014650","stopLetter":"LN","topMostParentId":"490G00014650","towards":"Gallows Corner Or Dagnam Park Square"},{"icsId":"1011492","id":"490011492S","lat":51.60669,"lon":0.23786,"name":"Redruth Road","parentId":"490G00011492","stationId":"490G00011492","stopLetter":"LP","topMostParentId":"490G00011492","towards":"Gallows Corner Or Dagnam Park Square"},{"icsId":"1018347","id":"490018347S","lat":51.60439,"lon":0.23826,"name":"Petersfield Avenue","parentId":"490G00018347","stationId":"490G00018347","stopLetter":"LR","topMostParentId":"490G00018347","towards":"Gallows Corner Or Dagnam Park Square"},{"icsId":"1012819","id":"490012819E","lat":51.60365,"lon":0.23896,"name":"St Neot's Road","parentId":"490G00012819","stationId":"490G00012819","stopLetter":"PL","topMostParentId":"490G00012819","towards":"Dagnam Park Square"},{"icsId":"1011536","id":"490013159E","lat":51.60379,"lon":0.24255,"name":"Tarnworth Road","parentId":"490G00011536","stationId":"490G00011536","stopLetter":"PN","topMostParentId":"490G00011536","towards":"Dagnam Park Square"},{"icsId":"1005929","id":"490005929N","lat":51.60556,"lon":0.24343,"name":"Dagnam Park Square","parentId":"490G00005929","stationId":"490G00005929","stopLetter":"DJ","topMostParentId":"490G00005929","towards":"Gallows Corner"}]}]}