{"direction":"inbound","lineId":"352","lineName":"352","mode":"bus","stopPointSequences":[{"stopPoint":[{"icsId":"1003849","id":"490003849W2","lat":51.43062,"lon":-0.03511,"name":"Bell Green / Sainsbury's","parentId":"490G00003849","stationId":"490G00003849","stopLetter":"LM","topMostParentId":"490G00003849"},{"icsId":"1003848","id":"490003848S","lat":51.42961,"lon":-0.03724,"name":"Bell Green / Southend Lane","parentId":"490G00003848","stationId":"490G00003848","stopLetter":"LQ","topMostParentId":"490G00003848","towards":"Beckenham Or Downham"},{"icsId":"1014949","id":"490014949S","lat":51.42732,"lon":-0.03225,"name":"Worsley Bridge Road / Southend Lane","parentId":"490G00014949","stationId":"490G00014949","stopLetter":"LG","topMostParentId":"490G00014949","towards":"Beckenham"},{"icsId":"1001185","id":"490001185S","lat":51.4248,"lon":-0.03192,"name":"Lower Sydenham Station","stopLetter":"LC","topMostParentId":"490001185S","towards":"Beckenham"},{"icsId":"1007525","id":"490007525S","lat":51.42277,"lon":-0.02759,"name":"Greycot Road","parentId":"490G00007525","stationId":"490G00007525","stopLetter":"->S","topMostParentId":"490G00007525","towards":"Beckenham"},{"icsId":"1007617","id":"490007617S","lat":51.42003,"lon":-0.02604,"name":"Hackington Crescent","parentId":"490G00007617","stationId":"490G00007617","stopLetter":"L","topMostParentId":"490G00007617","towards":"Beckenham"},{"icsId":"1014948","id":"490014948S","lat":51.41688,"lon":-0.02709,"name":"Worsley Bridge Road / Brackley Road","parentId":"490G00014948","stationId":"490G00014948","stopLetter":"M","topMostParentId":"490G00014948","towards":"Beckenham"},{"icsId":"1014951","id":"490014951W","lat":51.41603,"lon":-0.02951,"name":"Silverwood Close","parentId":"490G00014951","stationId":"490G00014951","stopLetter":"N","topMostParentId":"490G00014951","towards":"Beckenham"},{"icsId":"1012872","id":"490012872W","lat":51.41655,"lon":-0.03225,"name":"St Paul New Beckenham Church","parentId":"490G00012872","stationId":"490G00012872","stopLetter":"P","topMostParentId":"490G00012872","towards":"Beckenham"},{"icsId":"1001202","id":"490001202S1","lat":51.41651,"lon":-0.03383,"name":"New Beckenham Station","stopLetter":"B","topMostParentId":"490001202S1","towards":"Beckenham"},{"icsId":"1015273","id":"490015273S1","lat":51.41458,"lon":-0.03333,"name":"Lawn Road","parentId":"490G00015273","stationId":"490G00015273","stopLetter":"C","topMostParentId":"490G00015273","towards":"Beckenham"},{"icsId":"1004330","id":"490004330S3","lat":51.4132,"lon":-0.03495,"name":"Bridge Road","parentId":"490G00004330","stationId":"490G00004330","stopLetter":"D","topMostParentId":"490G00004330","towards":"West Wickham"},{"icsId":"1007961","id":"490007961E2","lat":51.41104,"lon":-0.03335,"name":"Blakeney Road / Hayne Road","parentId":"490G00007961","stationId":"490G00007961","stopLetter":"->E","topMostParentId":"490G00007961","towards":"West Wickham"},{"icsId":"1011471","id":"490011471Y","lat":51.4108,"lon":-0.03101,"name":"Bouverie Lodge","parentId":"490G00011471","stationId":"490G00011471","stopLetter":"Y","topMostParentId":"490G00011471","towards":"West Wickham"},{"icsId":"1014036","id":"490014036W","lat":51.40903,"lon":-0.031,"name":"Vicarage Drive","parentId":"490G00014036","stationId":"490G00014036","stopLetter":"W","topMostParentId":"490G00014036","towards":"West Wickham"},{"icsId":"1003744","id":"490003744P","lat":51.40668,"lon":-0.03054,"name":"Beckenham High Street / War Memorial","parentId":"490G00003744","stationId":"490G00003744","stopLetter":"P","topMostParentId":"490G00003744","towards":"Bromley Or Catford"},{"icsId":"1012658","id":"490012658M","lat":51.40568,"lon":-0.02934,"name":"St Edmund's Hall","parentId":"490G00012658","stationId":"490G00012658","stopLetter":"S","topMostParentId":"490G00012658","towards":"Elmers End Or West Wickham"},{"icsId":"1013921","id":"490013921S","lat":51.40348,"lon":-0.03003,"name":"Uplands","parentId":"490G00013921","stationId":"490G00013921","stopLetter":"->S","topMostParentId":"490G00013921","towards":"Elmers End Or West Wickham"},{"icsId":"1004237","id":"490004237S","lat":51.40003,"lon":-0.03057,"name":"Bramerton Road","parentId":"490G00004237","stationId":"490G00004237","stopLetter":"->S","topMostParentId":"490G00004237","towards":"Elmers End Or West Wickham"},{"icsId":"1012859","id":"490012859S","lat":51.39709,"lon":-0.02917,"name":"Crease Park","parentId":"490G00012859","stationId":"490G00012859","stopLetter":"->S","topMostParentId":"490G00012859","towards":"Elmers End Or West Wickham"},{"icsId":"1015466","id":"490015466E","lat":51.397,"lon":-0.02747,"name":"Stone Park Avenue / Village Way","parentId":"490G00015466","stationId":"490G00015466","stopLetter":"->E","topMostParentId":"490G00015466","towards":"Bromley"},{"icsId":"1009595","id":"490009595E","lat":51.39791,"lon":-0.02412,"name":"Stone Park Avenue / Manor Way","parentId":"490G00009595","stationId":"490G00009595","stopLetter":"LY","topMostParentId":"490G00009595","towards":"Bromley"},{"icsId":"1010789","id":"490010789E","lat":51.399,"lon":-0.01965,"name":"Stone Park Avenue / Chinese Garage","parentId":"490G00010789","stationId":"490G00010789","stopLetter":"LZ","topMostParentId":"490G00010789","towards":"Bromley"},{"icsId":"1007957","id":"490020197S","lat":51.39784,"lon":-0.01589,"name":"Hayes Way","parentId":"490G00007957","stationId":"490G00007957","stopLetter":"->S","topMostParentId":"490G00007957"},{"icsId":"1014579","id":"490014579SW","lat":51.39346,"lon":-0.0132,"name":"Whitecroft Way","parentId":"490G00014579","stationId":"490G00014579","topMostParentId":"490G00014579"},{"icsId":"1018647","id":"490018647SW","lat":51.38876,"lon":-0.01064,"name":"Bushey Way","parentId":"490G00018647","stationId":"490G00018647","topMostParentId":"490G00018647"},{"icsId":"1020198","id":"490020198S","lat":51.38711,"lon":-0.01021,"name":"Barnfield Wood Road Park Langley","parentId":"490G00020198","stationId":"490G00020198","stopLetter":"->S","topMostParentId":"490G00020198"},{"icsId":"1001337","id":"490001334D","lat":51.38151,"lon":-0.01299,"name":"Red Lodge Road / West Wickham Station","stopLetter":"D","topMostParentId":"490001334D","towards":"Bromley"},{"icsId":"1012786","id":"490012786E","lat":51.38225,"lon":-0.00956,"name":"St Mary of Nazareth Church","parentId":"490G00012786","stationId":"490G00012786","stopLetter":"->E","topMostParentId":"490G00012786","towards":"Bromley"},{"icsId":"1007283","id":"490007283E","lat":51.38275,"lon":-0.00432,"name":"The Avenue / Goodhart Way","parentId":"490G00007283","stationId":"490G00007283","stopLetter":"->E","topMostParentId":"490G00007283","towards":"Bromley"},{"icsId":"1014527","id":"490014527E","lat":51.38518,"lon":-0.00085,"name":"The Avenue","parentId":"490G00014527","stationId":"490G00014527","topMostParentId":"490G00014527","towards":"Bromley"},{"icsId":"1009777","id":"490009774E","lat":51.38852,"lon":0.00377,"name":"Meadway / Pickhurst Park","parentId":"490G00009777","stationId":"490G00009777","stopLetter":"T","topMostParentId":"490G00009777","towards":"Bromley North"},{"icsId":"1010993","id":"490010993N","lat":51.38971,"lon":0.00577,"name":"Pickhurst Park","parentId":"490G00010993","stationId":"490G00010993","stopLetter":"U","topMostParentId":"490G00010993","towards":"Bromley North"},{"icsId":"1003646","id":"490003646E","lat":51.38971,"lon":0.00856,"name":"Stanstead Close","parentId":"490G00003646","stationId":"490G00003646","stopLetter":"A","topMostParentId":"490G00003646","towards":"Bromley North"},{"icsId":"1016470","id":"490016470E","lat":51.3896,"lon":0.01255,"name":"Matfield Close","parentId":"490G00016470","stationId":"490G00016470","stopLetter":"B","topMostParentId":"490G00016470","towards":"Bromley North"},{"icsId":"1007947","id":"490007947N","lat":51.39038,"lon":0.01326,"name":"Cheriton Avenue","parentId":"490G00007947","stationId":"490G00007947","stopLetter":"C","topMostParentId":"490G00007947","towards":"Bromley North"},{"icsId":"1007948","id":"490007948N","lat":51.39246,"lon":0.01307,"name":"Hayesford Park Drive","parentId":"490G00007948","stationId":"490G00007948","stopLetter":"D","topMostParentId":"490G00007948","towards":"Bromley North"},{"icsId":"1012861","id":"490012861N","lat":51.39493,"lon":0.01346,"name":"Beadon Road","parentId":"490G00012861","stationId":"490G00012861","stopLetter":"E","topMostParentId":"490G00012861","towards":"Bromley North"},{"icsId":"1020369","id":"490004724N","lat":51.39717,"lon":0.01473,"name":"Hayes Road / Cameron Road","parentId":"490G00020369","stationId":"490G00020369","stopLetter":"F","topMostParentId":"490G00020369","towards":"Bromley North"},{"icsId":"1012775","id":"490012775E","lat":51.39883,"lon":0.01659,"name":"St Mark's Church","parentId":"490G00012775","stationId":"490G00012775","stopLetter":"E","topMostParentId":"490G00012775","towards":"Bromley North"},{"icsId":"1001037","id":"490001037W","lat":51.40066,"lon":0.01663,"name":"Bromley South Station","stopLetter":"B","topMostParentId":"490001037W","towards":"Bromley North"},{"icsId":"1004410","id":"4900004410U","lat":51.40277,"lon":0.0164,"name":"Elmfield Road / the Mall","parentId":"490G00004410","stationId":"490G00004410","stopLetter":"U","topMostParentId":"490G00004410","towards":"Bromley North"},{"icsId":"1008665","id":"490008665Q","lat":51.40424,"lon":0.01849,"name":"Bromley Civic Centre","parentId":"490G00008665","stationId":"490G00008665","stopLetter":"Q","topMostParentId":"490G00008665","towards":"Chislehurst, Downham Or Grove Park"},{"icsId":"1004435","id":"490004435Q","lat":51.406,"lon":0.0166,"name":"Bromley Town Hall","parentId":"490G00004435","stationId":"490G00004435","stopLetter":"Q","topMostParentId":"490G00004435"},{"icsId":"1004425","id":"4900004425O","lat":51.40799,"lon":0.01381,"name":"West Street","parentId":"490G00004425","stationId":"490G00004425","stopLetter":"M","topMostParentId":"490G00004425"},{"icsId":"1001036","id":"490001036N","lat":51.409,"lon":0.01659,"name":"Bromley North Station","stopLetter":"->N","topMostParentId":"490001036N"}]}]}