{"direction":"inbound","lineId":"357","lineName":"357","mode":"bus","stopPointSequences":[{"stopPoint":[{"icsId":"1014567","id":"490014567N","lat":51.5766,"lon":0.00362,"name":"Whipps Cross Hospital / A & E","parentId":"490G00014567","stationId":"490G00014567","stopLetter":"N","topMostParentId":"490G00014567","towards":"Bakers Arms Or Walthamstow Village"},{"icsId":"1014568","id":"490014568S1","lat":51.57967,"lon":0.00175,"name":"Whipps Cross Hospital / Main Entrance","parentId":"490G00014568","stationId":"490G00014568","stopLetter":"J","topMostParentId":"490G00014568","towards":"Bakers Arms Or Walthamstow Village"},{"icsId":"1002116","id":"490002116V","lat":51.58143,"lon":0.00138,"name":"Whipps Cross Bus Stand","parentId":"490G000338","stationId":"490G000338","stopLetter":"F","topMostParentId":"490G000338","towards":"Leyton Bakers Arms"},{"icsId":"1006342","id":"490013295W","lat":51.57951,"lon":-0.00433,"name":"Peterborough Road","parentId":"490G00006342","stationId":"490G00006342","stopLetter":"WA","topMostParentId":"490G00006342","towards":"Clapton Or Walthamstow Central"},{"icsId":"1006644","id":"490006644W","lat":51.57837,"lon":-0.00678,"name":"Essex Road","parentId":"490G00006644","stationId":"490G00006644","stopLetter":"WB","topMostParentId":"490G00006644","towards":"Clapton Or Walthamstow Central"},{"icsId":"1009135","id":"490009135WK","lat":51.57669,"lon":-0.00763,"name":"Leyton Green Road","parentId":"490G00009135","stationId":"490G00009135","stopLetter":"WK","topMostParentId":"490G00009135","towards":"Walthamstow Central"},{"icsId":"1015102","id":"490015100H","lat":51.57475,"lon":-0.01191,"name":"Lea Bridge Road / Bakers Arms","parentId":"490G00015102","stationId":"490G00015102","stopLetter":"ND","topMostParentId":"490G00015102","towards":"Walthamstow Central"},{"icsId":"1015100","id":"490015099B","lat":51.57585,"lon":-0.01431,"name":"Hoe Street / Bakers Arms","parentId":"490G00015100","stationId":"490G00015100","stopLetter":"NE","topMostParentId":"490G00015100","towards":"Crooked Billet Or Blackhorse Road"},{"icsId":"1007576","id":"490007576N","lat":51.57822,"lon":-0.01725,"name":"Grove Road","parentId":"490G00007576","stationId":"490G00007576","stopLetter":"NH","topMostParentId":"490G00007576","towards":"Crooked Billet Or Blackhorse Road"},{"icsId":"1011349","id":"490011349N","lat":51.58061,"lon":-0.0185,"name":"Queen's Road","parentId":"490G00011349","stationId":"490G00011349","stopLetter":"L","topMostParentId":"490G00011349","towards":"Crooked Billet Or Blackhorse Road"},{"icsId":"1000249","id":"490000249YY","lat":51.58308,"lon":-0.01854,"name":"Walthamstow Central Station","stopLetter":"W","topMostParentId":"490000249YY","towards":"Chingford","zone":"3"},{"icsId":"1014165","id":"490014165G","lat":51.58548,"lon":-0.0197,"name":"Walthamstow Market","parentId":"490G00014165","stationId":"490G00014165","stopLetter":"G","topMostParentId":"490G00014165","towards":"Chingford Mount, Highams Park Or Edmonton"},{"icsId":"1004518","id":"490008553N","lat":51.58835,"lon":-0.02059,"name":"Jewel Road","parentId":"490G00004518","stationId":"490G00004518","stopLetter":"BA","topMostParentId":"490G00004518","towards":"Chingford Mount, Edmonton Or Highams Park"},{"icsId":"1014163","id":"490014163N","lat":51.5897,"lon":-0.01825,"name":"Forest Road / Bell Corner","parentId":"490G00014163","stationId":"490G00014163","stopLetter":"BH","topMostParentId":"490G00014163","towards":"Chingford Mount, Edmonton Or Highams Park"},{"icsId":"1014158","id":"490014158N","lat":51.59404,"lon":-0.01688,"name":"Aveling Park Road","parentId":"490G00014158","stationId":"490G00014158","stopLetter":"BJ","topMostParentId":"490G00014158","towards":"Chingford Mount Or Edmonton"},{"icsId":"1004899","id":"490004899N","lat":51.59734,"lon":-0.01551,"name":"Cazenove Road","parentId":"490G00004899","stationId":"490G00004899","stopLetter":"->N","topMostParentId":"490G00004899","towards":"Chingford Mount Or Edmonton"},{"icsId":"1005781","id":"490005781N","lat":51.59941,"lon":-0.01609,"name":"Walthamstow / Crooked Billet Roundabout","parentId":"490G00005781","stationId":"490G00005781","stopLetter":"CH","topMostParentId":"490G00005781","towards":"Chingford Mount Or Edmonton"},{"icsId":"1014170","id":"490014170N","lat":51.60246,"lon":-0.01667,"name":"Walthamstow Stadium","parentId":"490G00014170","stationId":"490G00014170","stopLetter":"CS","topMostParentId":"490G00014170","towards":"Chingford Mount"},{"icsId":"1011742","id":"490011742N","lat":51.60562,"lon":-0.01676,"name":"Rowden Road","parentId":"490G00011742","stationId":"490G00011742","stopLetter":"CT","topMostParentId":"490G00011742","towards":"Chingford Station Or Yardley Lane Estate"},{"icsId":"1008132","id":"490008132N","lat":51.60705,"lon":-0.01722,"name":"Higham Station Avenue","parentId":"490G00008132","stationId":"490G00008132","stopLetter":"->N","topMostParentId":"490G00008132","towards":"Chingford Station Or Yardley Lane Estate"},{"icsId":"1009091","id":"490009091N","lat":51.60973,"lon":-0.0178,"name":"Leonard Road","parentId":"490G00009091","stationId":"490G00009091","stopLetter":"->N","topMostParentId":"490G00009091","towards":"Chingford Station Or Yardley Lane Estate"},{"icsId":"1007737","id":"490007737N","lat":51.61302,"lon":-0.01809,"name":"Hampton Road","parentId":"490G00007737","stationId":"490G00007737","stopLetter":"W","topMostParentId":"490G00007737","towards":"Chingford Station Or Yardley Lane Estate"},{"icsId":"1007676","id":"490007676L","lat":51.61608,"lon":-0.01753,"name":"Hall Lane","parentId":"490G000561","stationId":"490G000561","stopLetter":"L","topMostParentId":"490G000561","towards":"Chingford Station Or Yardley Lane Estate"},{"icsId":"1005178","id":"490005178H","lat":51.61714,"lon":-0.01561,"name":"Brook Crescent","parentId":"490G000451","stationId":"490G000451","stopLetter":"H","topMostParentId":"490G000451","towards":"Chingford Hatch, Chingford Station Or Highams Park"},{"icsId":"1008982","id":"490008982E","lat":51.61736,"lon":-0.01197,"name":"Larkswood School","parentId":"490G00008982","stationId":"490G00008982","stopLetter":"R","topMostParentId":"490G00008982","towards":"Chingford Hatch, Chingford Station Or Highams Park"},{"icsId":"1007574","id":"490007574E","lat":51.61792,"lon":-0.00655,"name":"Grove Road","parentId":"490G00007574","stationId":"490G00007574","stopLetter":"P","topMostParentId":"490G00007574","towards":"Chingford Hatch, Chingford Station Or Highams Park"},{"icsId":"1009632","id":"490009632E","lat":51.61864,"lon":-0.0014,"name":"Mapleton Road","parentId":"490G00009632","stationId":"490G00009632","stopLetter":"HA","topMostParentId":"490G00009632","towards":"Chingford Station, Highams Park Or Chingford Hatch"},{"icsId":"1005174","id":"490005174E","lat":51.61884,"lon":0.00609,"name":"Hatch Lane","parentId":"490G00005174","stationId":"490G00005174","stopLetter":"HH","topMostParentId":"490G00005174","towards":"Chingford Station"}]}]}