{"direction":"inbound","lineId":"363","lineName":"363","mode":"bus","stopPointSequences":[{"stopPoint":[{"icsId":"1009281","id":"490009281E","lat":51.4961,"lon":-0.10133,"name":"Elephant & Castle / London Road","parentId":"490G000642","stationId":"490G000642","stopLetter":"E","topMostParentId":"490G000642","towards":"New Cross, Peckham Or Surrey Quays"},{"icsId":"1009298","id":"490000073J","lat":51.49486,"lon":-0.09781,"name":"Elephant & Castle / New Kent Road","parentId":"490G000645","stationId":"490G000645","stopLetter":"J","topMostParentId":"HUBEPH","towards":"New Cross Or Peckham"},{"icsId":"1011632","id":"490011632BA","lat":51.49422,"lon":-0.09444,"name":"Rodney Place","parentId":"490G00011632","stationId":"490G00011632","stopLetter":"BA","topMostParentId":"490G00011632","towards":"New Cross, Peckham Or Surrey Quays"},{"icsId":"1006379","id":"490006379BL","lat":51.49146,"lon":-0.08186,"name":"Old Kent Road / East Street","parentId":"490G00006379","stationId":"490G00006379","stopLetter":"G","topMostParentId":"490G00006379","towards":"New Cross Or Peckham"},{"icsId":"1006266","id":"490006266EB","lat":51.48881,"lon":-0.07744,"name":"Dunton Road","parentId":"490G00006266","stationId":"490G00006266","stopLetter":"EB","topMostParentId":"490G00006266","towards":"Peckham"},{"icsId":"1010282","id":"490010282SK","lat":51.48601,"lon":-0.07401,"name":"Nile Terrace","parentId":"490G00010282","stationId":"490G00010282","stopLetter":"SK","topMostParentId":"490G00010282","towards":"Honor Oak"},{"icsId":"1014117","id":"490014117S","lat":51.48394,"lon":-0.07403,"name":"Waite Street","parentId":"490G00014117","stationId":"490G00014117","stopLetter":"Y","topMostParentId":"490G00014117","towards":"Honor Oak"},{"icsId":"1012709","id":"490012709S","lat":51.48155,"lon":-0.07398,"name":"St George's Way","parentId":"490G00012709","stationId":"490G00012709","stopLetter":"Z","topMostParentId":"490G00012709","towards":"Honor Oak"},{"icsId":"1015073","id":"490015073S","lat":51.47936,"lon":-0.07117,"name":"Bird In Bush Road","parentId":"490G00015073","stationId":"490G00015073","stopLetter":"L","topMostParentId":"490G00015073","towards":"Honor Oak"},{"icsId":"1005525","id":"490005525S1","lat":51.47799,"lon":-0.0704,"name":"Commercial Way","parentId":"490G00005525","stationId":"490G00005525","stopLetter":"M","topMostParentId":"490G00005525","towards":"Honor Oak"},{"icsId":"1004140","id":"490004140S","lat":51.47644,"lon":-0.06958,"name":"Bonar Road","parentId":"490G00004140","stationId":"490G00004140","stopLetter":"N","topMostParentId":"490G00004140","towards":"Honor Oak Or Nunhead"},{"icsId":"1010878","id":"490010878D","lat":51.47478,"lon":-0.0689,"name":"Peckham Library","parentId":"490G00010878","stationId":"490G00010878","stopLetter":"D","topMostParentId":"490G00010878","towards":"Honor Oak Or Nunhead"},{"icsId":"1010882","id":"490010882F","lat":51.47402,"lon":-0.06722,"name":"Peckham Post Office","parentId":"490G00010882","stationId":"490G00010882","stopLetter":"F","topMostParentId":"490G00010882","towards":"Honor Oak"},{"icsId":"1007758","id":"490007758N","lat":51.47145,"lon":-0.06953,"name":"The Aylesham Centre","parentId":"490G00007758","stationId":"490G00007758","stopLetter":"N","topMostParentId":"490G00007758","towards":"Brockley, East Dulwich Or Honor Oak"},{"icsId":"1001223","id":"490001223V","lat":51.46932,"lon":-0.06799,"name":"Peckham Rye Station","stopLetter":"V","topMostParentId":"490001223V","towards":"Honor Oak, Dulwich Or East Dulwich"},{"icsId":"1010269","id":"490010269S1","lat":51.46614,"lon":-0.06595,"name":"Nigel Road","parentId":"490G00010269","stationId":"490G00010269","stopLetter":"EA","topMostParentId":"490G00010269","towards":"Dulwich, East Dulwich Or Honor Oak"},{"icsId":"1008807","id":"490008807S2","lat":51.46262,"lon":-0.06647,"name":"Peckham Rye / East Dulwich Road","parentId":"490G00008807","stationId":"490G00008807","stopLetter":"WN","topMostParentId":"490G00008807","towards":"Dulwich Or Honor Oak"},{"icsId":"1013366","id":"490013366S","lat":51.46031,"lon":-0.06608,"name":"The Gardens","parentId":"490G00013366","stationId":"490G00013366","stopLetter":"WQ","topMostParentId":"490G00013366","towards":"Dulwich Or Honor Oak"},{"icsId":"1007032","id":"490007032S","lat":51.45739,"lon":-0.06467,"name":"Friern Road","parentId":"490G00007032","stationId":"490G00007032","stopLetter":"WP","topMostParentId":"490G00007032","towards":"Crystal Palace"},{"icsId":"1006264","id":"490006264S","lat":51.45363,"lon":-0.06189,"name":"Dunstans Road","parentId":"490G00006264","stationId":"490G00006264","stopLetter":"WR","topMostParentId":"490G00006264","towards":"Crystal Palace"},{"icsId":"1006921","id":"490006921S","lat":51.45183,"lon":-0.05952,"name":"Therapia Road","parentId":"490G00006921","stationId":"490G00006921","stopLetter":"J","topMostParentId":"490G00006921","towards":"Crystal Palace"},{"icsId":"1014911","id":"490014911S","lat":51.44975,"lon":-0.05827,"name":"Wood Vale / Forest Hill Road","parentId":"490G00014911","stationId":"490G00014911","stopLetter":"K","topMostParentId":"490G00014911","towards":"Crystal Palace"},{"icsId":"1008959","id":"490008959S","lat":51.44774,"lon":-0.06181,"name":"Langton Rise","parentId":"490G00008959","stationId":"490G00008959","stopLetter":"L","topMostParentId":"490G00008959","towards":"Crystal Palace"},{"icsId":"1009794","id":"490009794S1","lat":51.44469,"lon":-0.06358,"name":"Melford Road","parentId":"490G00009794","stationId":"490G00009794","stopLetter":"M","topMostParentId":"490G00009794","towards":"Crystal Palace"},{"icsId":"1013899","id":"490013899S","lat":51.44352,"lon":-0.066,"name":"Underhill Road","parentId":"490G00013899","stationId":"490G00013899","stopLetter":"MC","topMostParentId":"490G00013899","towards":"Crystal Palace"},{"icsId":"1009362","id":"490009362S1","lat":51.44185,"lon":-0.06564,"name":"Lordship Lane / Wood Vale","parentId":"490G00009362","stationId":"490G00009362","stopLetter":"MD","topMostParentId":"490G00009362","towards":"Crystal Palace, Forest Hill Or Honor Oak"},{"icsId":"1008352","id":"490008352S","lat":51.43999,"lon":-0.06383,"name":"Horniman Park","parentId":"490G00008352","stationId":"490G00008352","stopLetter":"MW","topMostParentId":"490G00008352","towards":"Crystal Palace"},{"icsId":"1008849","id":"490008849S","lat":51.43582,"lon":-0.06507,"name":"Sydenham Hill / Kirkdale","parentId":"490G00008849","stationId":"490G00008849","stopLetter":"MS","topMostParentId":"490G00008849","towards":"Crystal Palace Or Forest Hill"},{"icsId":"1005751","id":"490005751S","lat":51.43342,"lon":-0.06769,"name":"Crescent Wood Road","parentId":"490G00005751","stationId":"490G00005751","stopLetter":"S","topMostParentId":"490G00005751","towards":"Crystal Palace Or Forest Hill"},{"icsId":"1006199","id":"490006199S","lat":51.43253,"lon":-0.07012,"name":"Droitwich Close","parentId":"490G00006199","stationId":"490G00006199","stopLetter":"T","topMostParentId":"490G00006199","towards":"Crystal Palace Or Forest Hill"},{"icsId":"1014370","id":"490014370B","lat":51.43154,"lon":-0.07331,"name":"Wells Park Road","parentId":"490G00014370","stationId":"490G00014370","stopLetter":"J","topMostParentId":"490G00014370","towards":"Crystal Palace"},{"icsId":"1006101","id":"490006101S","lat":51.42922,"lon":-0.07495,"name":"Dome Hill Park","parentId":"490G00006101","stationId":"490G00006101","stopLetter":"K","topMostParentId":"490G00006101","towards":"Crystal Palace"},{"icsId":"1014532","id":"490014532S1","lat":51.42729,"lon":-0.07417,"name":"Sydenham Hill / Bluebell Close","parentId":"490G00014532","stationId":"490G00014532","stopLetter":"L","topMostParentId":"490G00014532","towards":"Crystal Palace"},{"icsId":"1006963","id":"490006963S","lat":51.42525,"lon":-0.07513,"name":"Crystal Palace Parade / Fountain Drive","parentId":"490G00006963","stationId":"490G00006963","stopLetter":"T","topMostParentId":"490G00006963","towards":"Crystal Palace"},{"icsId":"1005494","id":"490005494S2","lat":51.4232,"lon":-0.07651,"name":"Crystal Palace Parade / College Road","parentId":"490G00005494","stationId":"490G00005494","stopLetter":"S","topMostParentId":"490G00005494","towards":"Upper Norwood"},{"icsId":"1005869","id":"490005869A","lat":51.42107,"lon":-0.07771,"name":"Crystal Palace Parade","parentId":"490G00005869","stationId":"490G00005869","stopLetter":"A","topMostParentId":"490G00005869","towards":"Upper Norwood"}]}]}