{"direction":"inbound","lineId":"370","lineName":"370","mode":"bus","stopPointSequences":[{"stopPoint":[{"icsId":"1015792","id":"1590060104","lat":51.490119,"lon":0.28272,"name":"Lakeside Bus Station","parentId":"159G0060101","stationId":"159G0060101","stopLetter":"D","topMostParentId":"910GCHADHDD"},{"icsId":"1017217","id":"1590701401","lat":51.492351,"lon":0.292772,"name":"Pilgrims Roundabout","parentId":"159G0701301","stationId":"159G0701301","topMostParentId":"159G0701301","towards":"Aveley, Ockendon Or Grays"},{"icsId":"1002329","id":"159007075118","lat":51.494879,"lon":0.295477,"name":"Pilgrims Lane / Ltc Compound","parentId":"159G07075117","stationId":"159G07075117","topMostParentId":"159G07075117","towards":"Aveley Or Ockendon"},{"icsId":"1017216","id":"1590045801","lat":51.499302,"lon":0.29557,"name":"Davy Down","parentId":"159G0045801","stationId":"159G0045801","topMostParentId":"159G0045801","towards":"Aveley Or Ockendon"},{"icsId":"1016622","id":"1590008701","lat":51.503104,"lon":0.293816,"name":"Stifford Road","parentId":"159G0008601","stationId":"159G0008601","topMostParentId":"159G0008601","towards":"Ockendon"},{"icsId":"1017215","id":"1590008901","lat":51.507414,"lon":0.292779,"name":"Elwick Road","parentId":"159G0008801","stationId":"159G0008801","topMostParentId":"159G0008801","towards":"Ockendon"},{"icsId":"1019745","id":"1590009001","lat":51.510868,"lon":0.292779,"name":"Buckles Lane","parentId":"159G0009001","stationId":"159G0009001","topMostParentId":"159G0009001","towards":"Ockendon"},{"icsId":"1017213","id":"1590009201","lat":51.513879,"lon":0.292844,"name":"Moss Road","topMostParentId":"1590009201","towards":"Ockenden"},{"icsId":"1002328","id":"1590009801","lat":51.518194,"lon":0.293825,"name":"Garth Road","parentId":"159G0009701","stationId":"159G0009701","topMostParentId":"159G0009701","towards":"Ockendon"},{"icsId":"1017211","id":"1590010001","lat":51.520721,"lon":0.295249,"name":"Brandon Groves Avenue","parentId":"159G0009901","stationId":"159G0009901","topMostParentId":"159G0009901","towards":"Ockendon"},{"icsId":"1015793","id":"1590010101","lat":51.522842,"lon":0.296696,"name":"West Road / the Green","topMostParentId":"1590010101","towards":"North Ockendon"},{"icsId":"1016713","id":"1590010601","lat":51.526045,"lon":0.297535,"name":"Nelson Road / Village Hall","parentId":"159G0010501","stationId":"159G0010501","topMostParentId":"159G0010501","towards":"Upminster Or Brentwood"},{"icsId":"1016714","id":"1590010901","lat":51.535544,"lon":0.298302,"name":"Grove Farm Cottages","parentId":"159G0010801","stationId":"159G0010801","topMostParentId":"159G0010801","towards":"Upminster Or Brentwood"},{"icsId":"1008323","id":"490008323N","lat":51.53835,"lon":0.29748,"name":"Home Farm Cottage","parentId":"490G00008323","stationId":"490G00008323","stopLetter":"->N","topMostParentId":"490G00008323"},{"icsId":"1013486","id":"490013486N","lat":51.54027,"lon":0.29636,"name":"Fen Lane","parentId":"490G00013486","stationId":"490G00013486","stopLetter":"->N","topMostParentId":"490G00013486","towards":"Brentwood Or Upminster"},{"icsId":"1014605","id":"490014605N","lat":51.54386,"lon":0.29428,"name":"White Post Farm","parentId":"490G00014605","stationId":"490G00014605","stopLetter":"->N","topMostParentId":"490G00014605","towards":"Brentwood Or Upminster"},{"icsId":"1005274","id":"490005274W","lat":51.54318,"lon":0.28827,"name":"Church Lane","parentId":"490G00005274","stationId":"490G00005274","stopLetter":"->W","topMostParentId":"490G00005274","towards":"Upminster"},{"icsId":"1000414","id":"490000414Y","lat":51.54276,"lon":0.28333,"name":"Cranham Place","parentId":"490G000063","stationId":"490G000063","stopLetter":"->W","topMostParentId":"490G000063","towards":"Upminster"},{"icsId":"1004319","id":"490004319W","lat":51.54249,"lon":0.28124,"name":"Bridge Cottages","parentId":"490G00004319","stationId":"490G00004319","stopLetter":"->W","topMostParentId":"490G00004319","towards":"Upminster"},{"icsId":"1009554","id":"490009554W","lat":51.54184,"lon":0.27635,"name":"Manor Farm","parentId":"490G00009554","stationId":"490G00009554","stopLetter":"->W","topMostParentId":"490G00009554","towards":"Upminster"},{"icsId":"1000362","id":"490012959W","lat":51.5409,"lon":0.26689,"name":"Stubbers Adventure Centre","parentId":"490G000013","stationId":"490G000013","stopLetter":"->W","topMostParentId":"490G000013","towards":"Upminster"},{"icsId":"1005601","id":"490005601W","lat":51.54301,"lon":0.25821,"name":"South Essex Crematorium","parentId":"490G00005601","stationId":"490G00005601","topMostParentId":"490G00005601","towards":"Upminster"},{"icsId":"1005600","id":"490005600W","lat":51.54266,"lon":0.25179,"name":"Corbets Tey","parentId":"490G00005600","stationId":"490G00005600","stopLetter":"->W","topMostParentId":"490G00005600","towards":"Upminster"},{"icsId":"1010780","id":"490010780N","lat":51.54465,"lon":0.24857,"name":"Parkland Avenue","parentId":"490G00010780","stationId":"490G00010780","stopLetter":"->N","topMostParentId":"490G00010780","towards":"Upminster"},{"icsId":"1005715","id":"490005715N","lat":51.54735,"lon":0.247,"name":"Cranston Park Avenue","parentId":"490G00005715","stationId":"490G00005715","stopLetter":"->N","topMostParentId":"490G00005715","towards":"Hornchurch"},{"icsId":"1007147","id":"490007147N","lat":51.54962,"lon":0.2469,"name":"Gaynes Park Road","parentId":"490G00007147","stationId":"490G00007147","stopLetter":"->N","topMostParentId":"490G00007147","towards":"Hornchurch"},{"icsId":"1012679","id":"490012679N","lat":51.55342,"lon":0.2475,"name":"Stewart Avenue","parentId":"490G00012679","stationId":"490G00012679","stopLetter":"Q","topMostParentId":"490G00012679","towards":"Hornchurch"},{"icsId":"1007148","id":"490007148D","lat":51.55687,"lon":0.24937,"name":"Gaynes Road","parentId":"490G00007148","stationId":"490G00007148","stopLetter":"D","topMostParentId":"490G00007148","towards":"Corbets Tey, Cranham Or Romford"},{"icsId":"1000242","id":"490000242A","lat":51.5585,"lon":0.25006,"name":"Upminster Station","stopLetter":"A","topMostParentId":"490000242A","towards":"Corbets Tey, Cranham Or Romford","zone":"6"},{"icsId":"1019452","id":"490019452E","lat":51.55862,"lon":0.25165,"name":"Upminster Station Forecourt","parentId":"490G000936","stationId":"490G000936","stopLetter":"E","topMostParentId":"HUBUPM"},{"icsId":"1019449","id":"490015474C","lat":51.55766,"lon":0.24986,"name":"Upminster Stn   / St Lawrence Road","parentId":"490G000935","stationId":"490G000935","stopLetter":"C","topMostParentId":"HUBUPM","towards":"Cranham Or Hornchurch"},{"icsId":"1012756","id":"490012756K","lat":51.5563,"lon":0.24661,"name":"St Laurence Church","parentId":"490G00012756","stationId":"490G00012756","stopLetter":"M","topMostParentId":"490G00012756","towards":"Hornchurch"},{"icsId":"1013926","id":"490013926W","lat":51.55768,"lon":0.24181,"name":"Upminster Windmill","parentId":"490G00013926","stationId":"490G00013926","stopLetter":"N","topMostParentId":"490G00013926","towards":"Hornchurch"},{"icsId":"1000243","id":"490000243A","lat":51.55905,"lon":0.23537,"name":"Upminster Bridge Station","stopLetter":"A","topMostParentId":"490000243A","towards":"Hornchurch","zone":"6"},{"icsId":"1007628","id":"490007628W","lat":51.56018,"lon":0.22905,"name":"Hacton Lane","parentId":"490G00007628","stationId":"490G00007628","stopLetter":"L","topMostParentId":"490G00007628","towards":"Hornchurch"},{"icsId":"1012536","id":"490012536W","lat":51.56069,"lon":0.2262,"name":"St Andrew's Church","parentId":"490G00012536","stationId":"490G00012536","stopLetter":"->W","topMostParentId":"490G00012536","towards":"Romford"},{"icsId":"1015350","id":"490008347G","lat":51.56161,"lon":0.22058,"name":"Hornchurch Town Centre","parentId":"490G00015350","stationId":"490G00015350","stopLetter":"G","topMostParentId":"490G00015350","towards":"Harold Wood, Elm Park Or Romford"},{"icsId":"1011359","id":"490011359C","lat":51.56396,"lon":0.22009,"name":"Queen's Theatre","parentId":"490G00011359","stationId":"490G00011359","stopLetter":"C","topMostParentId":"490G00011359","towards":"Harold Wood Or Romford"},{"icsId":"1004623","id":"490004623D","lat":51.56655,"lon":0.22003,"name":"Burnway","parentId":"490G00004623","stationId":"490G00004623","stopLetter":"EA","topMostParentId":"490G00004623","towards":"Harold Wood Or Romford"},{"icsId":"1001098","id":"490001098A","lat":51.56826,"lon":0.21926,"name":"Emerson Park Station","stopLetter":"EB","topMostParentId":"490001098A","towards":"Harold Wood Or Romford"},{"icsId":"1014973","id":"490014973N","lat":51.57174,"lon":0.21898,"name":"Wykeham Avenue","parentId":"490G00014973","stationId":"490G00014973","stopLetter":"EC","topMostParentId":"490G00014973","towards":"Harold Wood Or Romford"},{"icsId":"1014125","id":"490014125S","lat":51.57355,"lon":0.21651,"name":"Walden Way","parentId":"490G00014125","stationId":"490G00014125","stopLetter":"EP","topMostParentId":"490G00014125","towards":"Romford"},{"icsId":"1020285","id":"490004465N","lat":51.57522,"lon":0.21117,"name":"Kinfauns Avenue","parentId":"490G00020285","stationId":"490G00020285","stopLetter":"AE","topMostParentId":"490G00020285","towards":"Romford"},{"icsId":"1013327","id":"490013327W","lat":51.57803,"lon":0.2071,"name":"The Drill Roundabout","parentId":"490G00013327","stationId":"490G00013327","stopLetter":"AP","topMostParentId":"490G00013327","towards":"Romford"},{"icsId":"1001473","id":"490009647W","lat":51.57786,"lon":0.20226,"name":"Witham Road","parentId":"490G000274","stationId":"490G000274","stopLetter":"AQ","topMostParentId":"490G000274","towards":"Romford"},{"icsId":"1006714","id":"490006714W","lat":51.57777,"lon":0.19833,"name":"Fairholme Avenue","parentId":"490G00006714","stationId":"490G00006714","stopLetter":"AR","topMostParentId":"490G00006714","towards":"Romford"},{"icsId":"1009579","id":"490009579W","lat":51.57735,"lon":0.1949,"name":"Manor Road","parentId":"490G00009579","stationId":"490G00009579","stopLetter":"->W","topMostParentId":"490G00009579","towards":"Romford Market"},{"icsId":"1003157","id":"490003157W","lat":51.5754,"lon":0.1883,"name":"Albert Road","parentId":"490G00003157","stationId":"490G00003157","stopLetter":"VE","topMostParentId":"490G00003157","towards":"Romford Market"},{"icsId":"1001243","id":"490001243ZA","lat":51.57465,"lon":0.18343,"name":"Romford Station","stopLetter":"Z","topMostParentId":"490001243ZA","towards":"Chadwell Heath, Newbury Park Or the Brewery"},{"icsId":"1009810","id":"490009810N","lat":51.57898,"lon":0.18482,"name":"Mercury Gardens","parentId":"490G00009810","stationId":"490G00009810","stopLetter":"N","topMostParentId":"490G00009810","towards":"Gallows Corner Or Chase Cross"}]}]}