{"direction":"inbound","lineId":"372","lineName":"372","mode":"bus","stopPointSequences":[{"stopPoint":[{"icsId":"1015792","id":"1590060103","lat":51.490132,"lon":0.282951,"name":"Lakeside Bus Station","parentId":"159G0060101","stationId":"159G0060101","stopLetter":"C","topMostParentId":"910GCHADHDD"},{"icsId":"1016725","id":"1590012501","lat":51.489766,"lon":0.274491,"name":"Arterial Road / West Thurrock","topMostParentId":"1590012501","towards":"Aveley"},{"icsId":"1016659","id":"1590701101","lat":51.488461,"lon":0.262931,"name":"The Thurrock Hotel","parentId":"159G0701101","stationId":"159G0701101","topMostParentId":"159G0701101","towards":"Aveley"},{"icsId":"1016451","id":"1590003501","lat":51.495909,"lon":0.254468,"name":"Hall Avenue","parentId":"159G0003501","stationId":"159G0003501","topMostParentId":"159G0003501","towards":"Wennington"},{"icsId":"1016658","id":"1590003301","lat":51.49479,"lon":0.250408,"name":"The Parade","parentId":"159G0003301","stationId":"159G0003301","topMostParentId":"159G0003301","towards":"Wennington"},{"icsId":"1016657","id":"1590003101","lat":51.49543,"lon":0.247097,"name":"Central Avenue","parentId":"159G0003101","stationId":"159G0003101","topMostParentId":"159G0003101","towards":"Wennington"},{"icsId":"1016656","id":"1590002901","lat":51.49761,"lon":0.247348,"name":"Arnhem Avenue","parentId":"159G0002901","stationId":"159G0002901","topMostParentId":"159G0002901","towards":"Wennington"},{"icsId":"1016450","id":"1590004301","lat":51.499186,"lon":0.250509,"name":"Field Road","topMostParentId":"1590004301","towards":"Wennington"},{"icsId":"1016639","id":"1590004501","lat":51.500917,"lon":0.2512,"name":"Hanford Road","parentId":"159G0004501","stationId":"159G0004501","topMostParentId":"159G0004501","towards":"Wennington"},{"icsId":"1016640","id":"1590004701","lat":51.503483,"lon":0.247796,"name":"St Paul's Close","parentId":"159G0004701","stationId":"159G0004701","topMostParentId":"159G0004701","towards":"Wennington"},{"icsId":"1014392","id":"490014392W","lat":51.50625,"lon":0.2244,"name":"Wennington Hall Farm","parentId":"490G00014392","stationId":"490G00014392","stopLetter":"->W","topMostParentId":"490G00014392","towards":"Rainham"},{"icsId":"1014390","id":"490014390W","lat":51.5065,"lon":0.21883,"name":"Wennington Green","parentId":"490G00014390","stationId":"490G00014390","stopLetter":"->W","topMostParentId":"490G00014390","towards":"Rainham"},{"icsId":"1002325","id":"490007671W","lat":51.50704,"lon":0.21272,"name":"Laundry Cottages","parentId":"490G00002325","stationId":"490G00002325","stopLetter":"->W","topMostParentId":"490G00002325","towards":"Rainham"},{"icsId":"1006357","id":"490006357W","lat":51.50894,"lon":0.20957,"name":"East Hall Lane","parentId":"490G00006357","stationId":"490G00006357","stopLetter":"->W","topMostParentId":"490G00006357","towards":"Rainham"},{"icsId":"1006386","id":"490006386W","lat":51.51188,"lon":0.20555,"name":"Eastwood Drive","parentId":"490G00006386","stationId":"490G00006386","stopLetter":"->W","topMostParentId":"490G00006386","towards":"Rainham"},{"icsId":"1004484","id":"490004484W","lat":51.51592,"lon":0.19949,"name":"Brookway","parentId":"490G00004484","stationId":"490G00004484","stopLetter":"->W","topMostParentId":"490G00004484","towards":"Elm Park"},{"icsId":"1006816","id":"490006816W2","lat":51.51664,"lon":0.19569,"name":"Ferro Road","parentId":"490G00006816","stationId":"490G00006816","stopLetter":"->W","topMostParentId":"490G00006816","towards":"Elm Park"},{"icsId":"1001235","id":"490001235A","lat":51.51716,"lon":0.19224,"name":"Rainham Station","stopLetter":"A","topMostParentId":"490001235A","towards":"Elm Park"},{"icsId":"1011396","id":"490011396C","lat":51.51853,"lon":0.18996,"name":"Rainham War Memorial","parentId":"490G00011396","stationId":"490G00011396","stopLetter":"C","topMostParentId":"490G00011396","towards":"Dagenham Or Elm Park"},{"icsId":"1011394","id":"490011394F","lat":51.51948,"lon":0.19088,"name":"Rainham Tesco","parentId":"490G00011394","stationId":"490G00011394","stopLetter":"F","topMostParentId":"490G00011394","towards":"Abbey Wood Lane, Dagenham Or Elm Park"},{"icsId":"1006152","id":"490006152G","lat":51.52174,"lon":0.18844,"name":"Dovers Corner","parentId":"490G00006152","stationId":"490G00006152","stopLetter":"G","topMostParentId":"490G00006152","towards":"Dagenham Or Elm Park"},{"icsId":"1015718","id":"490015718W","lat":51.52209,"lon":0.18511,"name":"Cherry Tree Lane","parentId":"490G00015718","stationId":"490G00015718","stopLetter":"Q","topMostParentId":"490G00015718","towards":"Dagenham Or Elm Park"},{"icsId":"1006247","id":"490006247N","lat":51.52344,"lon":0.18161,"name":"Dunedin Road","parentId":"490G00006247","stationId":"490G00006247","stopLetter":"M","topMostParentId":"490G00006247","towards":"Elm Park"},{"icsId":"1006446","id":"490006446N","lat":51.52425,"lon":0.1822,"name":"Edmund Road","parentId":"490G00006446","stationId":"490G00006446","stopLetter":"N","topMostParentId":"490G00006446","towards":"Elm Park"},{"icsId":"1012560","id":"490012560N","lat":51.52648,"lon":0.18614,"name":"Stanley Road South","parentId":"490G00012560","stationId":"490G00012560","stopLetter":"P","topMostParentId":"490G00012560","towards":"Elm Park"},{"icsId":"1011393","id":"490011393N","lat":51.52874,"lon":0.18905,"name":"Rainham Road","parentId":"490G00011393","stationId":"490G00011393","stopLetter":"F","topMostParentId":"490G00011393","towards":"Elm Park"},{"icsId":"1003216","id":"490003216N","lat":51.53051,"lon":0.19068,"name":"Alexandra Road","parentId":"490G00003216","stationId":"490G00003216","stopLetter":"G","topMostParentId":"490G00003216","towards":"Elm Park"},{"icsId":"1006902","id":"490006902N","lat":51.53404,"lon":0.19214,"name":"Ford Lane","parentId":"490G00006902","stationId":"490G00006902","stopLetter":"H","topMostParentId":"490G00006902","towards":"Elm Park"},{"icsId":"1011671","id":"490011671N","lat":51.53677,"lon":0.19748,"name":"Mungo Park Road / South End Road","parentId":"490G00011671","stationId":"490G00011671","stopLetter":"U","topMostParentId":"490G00011671","towards":"Elm Park"},{"icsId":"1008731","id":"490008731N","lat":51.53825,"lon":0.19485,"name":"Kingaby Gardens","parentId":"490G00008731","stationId":"490G00008731","stopLetter":"V","topMostParentId":"490G00008731","towards":"Elm Park"},{"icsId":"1007004","id":"490007004N","lat":51.54139,"lon":0.19325,"name":"Freeborne Gardens","parentId":"490G00007004","stationId":"490G00007004","stopLetter":"W","topMostParentId":"490G00007004","towards":"Elm Park"},{"icsId":"1014872","id":"490014872N","lat":51.54376,"lon":0.1947,"name":"Wood Lane","parentId":"490G00014872","stationId":"490G00014872","stopLetter":"X","topMostParentId":"490G00014872","towards":"Romford"},{"icsId":"1003185","id":"490003185F","lat":51.54518,"lon":0.19592,"name":"Aldingham Gardens","parentId":"490G00003185","stationId":"490G00003185","stopLetter":"A","topMostParentId":"490G00003185","towards":"Romford"},{"icsId":"1003291","id":"490003291N","lat":51.54791,"lon":0.1992,"name":"Ambleside Avenue","parentId":"490G00003291","stationId":"490G00003291","stopLetter":"B","topMostParentId":"490G00003291","towards":"Romford Or Hornchurch"},{"icsId":"1000074","id":"490000074B","lat":51.55029,"lon":0.19905,"name":"Elm Park Station","stopLetter":"C","topMostParentId":"490000074B","towards":"Romford and Hornchurch","zone":"6"},{"icsId":"1013471","id":"490013471F","lat":51.55142,"lon":0.19993,"name":"Elm Parade","parentId":"490G000788","stationId":"490G000788","stopLetter":"D","topMostParentId":"490G000788","towards":"Romford Or Hornchurch"},{"icsId":"1004307","id":"490004307E","lat":51.55234,"lon":0.20267,"name":"Brian Close","parentId":"490G00004307","stationId":"490G00004307","stopLetter":"->E","topMostParentId":"490G00004307","towards":"Romford Or Hornchurch"},{"icsId":"1003050","id":"490003050E","lat":51.55362,"lon":0.20641,"name":"Abbs Cross Academy","parentId":"490G00003050","stationId":"490G00003050","stopLetter":"->E","topMostParentId":"490G00003050","towards":"Romford Or Hornchurch"},{"icsId":"1013083","id":"490013083N","lat":51.5553,"lon":0.20771,"name":"Suttons Avenue","parentId":"490G00013083","stationId":"490G00013083","stopLetter":"S","topMostParentId":"490G00013083","towards":"Romford Or Hornchurch"},{"icsId":"1012555","id":"490012555N","lat":51.55828,"lon":0.20883,"name":"Stanley Road","parentId":"490G00012555","stationId":"490G00012555","stopLetter":"T","topMostParentId":"490G00012555","towards":"Romford Or Hornchurch"},{"icsId":"1003049","id":"490003049E","lat":51.56309,"lon":0.21461,"name":"Abbs Cross Lane","parentId":"490G00003049","stationId":"490G00003049","stopLetter":"X","topMostParentId":"490G00003049","towards":"Upminster Or Gidea Park"},{"icsId":"1004001","id":"490004001A","lat":51.56313,"lon":0.21654,"name":"Billet Lane","parentId":"490G00004001","stationId":"490G00004001","stopLetter":"A","topMostParentId":"490G00004001","towards":"County Park Estate Or Upminster"},{"icsId":"1015350","id":"490015350F","lat":51.56164,"lon":0.22133,"name":"Hornchurch Town Centre","parentId":"490G00015350","stationId":"490G00015350","stopLetter":"F","topMostParentId":"490G00015350","towards":"County Park Estate, Elm Park Or Upminster"}]}]}