{"direction":"inbound","lineId":"375","lineName":"375","mode":"bus","stopPointSequences":[{"stopPoint":[{"icsId":"1016946","id":"1500IM1049","lat":51.654242,"lon":0.17164,"name":"Passingford Bridge","parentId":"150G00002586","stationId":"150G00002586","topMostParentId":"150G00002586","towards":"Havering-Atte-Bower"},{"icsId":"1016945","id":"150021001003","lat":51.648246,"lon":0.168578,"name":"The Rabbits","parentId":"150G00002587","stationId":"150G00002587","topMostParentId":"150G00002587","towards":"Havering-Atte-Bower"},{"icsId":"1016944","id":"150021001006","lat":51.644699,"lon":0.165417,"name":"Gordon Cottages","parentId":"150G00002588","stationId":"150G00002588","topMostParentId":"150G00002588","towards":"Havering-Atte-Bower"},{"icsId":"1016943","id":"150021001008","lat":51.641081,"lon":0.166054,"name":"Stapleford Abbotts Primary School","parentId":"150G00002589","stationId":"150G00002589","topMostParentId":"150G00002589","towards":"Havering-atte-bower"},{"icsId":"1016942","id":"150021001010","lat":51.633272,"lon":0.172532,"name":"The Nursery","parentId":"150G00002590","stationId":"150G00002590","topMostParentId":"150G00002590","towards":"Havering-Atte-Bower"},{"icsId":"1016941","id":"150021001012","lat":51.631479,"lon":0.175625,"name":"Bournebridge Lane","parentId":"150G00002591","stationId":"150G00002591","topMostParentId":"150G00002591","towards":"Havering-Atte-Bower"},{"icsId":"1016940","id":"1500IM1050","lat":51.627993,"lon":0.183694,"name":"Royal Oak","parentId":"150G00002592","stationId":"150G00002592","topMostParentId":"150G00002592","towards":"Havering-Atte-Bower"},{"icsId":"1016939","id":"150021001016","lat":51.626868,"lon":0.187642,"name":"Tysea Hill","parentId":"150G00002593","stationId":"150G00002593","topMostParentId":"150G00002593","towards":"Havering-Atte-Bower"},{"icsId":"1009145","id":"490009145S","lat":51.62266,"lon":0.18669,"name":"Liberty Cottages","parentId":"490G00009145","stationId":"490G00009145","stopLetter":"->S","topMostParentId":"490G00009145","towards":"Collier Row"},{"icsId":"1011883","id":"490011883S","lat":51.61885,"lon":0.18248,"name":"Samantha Mews","parentId":"490G00011883","stationId":"490G00011883","stopLetter":"->S","topMostParentId":"490G00011883","towards":"Collier Row"},{"icsId":"1007916","id":"490007916S","lat":51.61651,"lon":0.1834,"name":"Havering Green","parentId":"490G00007916","stationId":"490G00007916","stopLetter":"->S","topMostParentId":"490G00007916","towards":"Collier Row"},{"icsId":"1004213","id":"490004213S","lat":51.61365,"lon":0.18117,"name":"Bower House","parentId":"490G00004213","stationId":"490G00004213","stopLetter":"->S","topMostParentId":"490G00004213","towards":"Collier Row"},{"icsId":"1012738","id":"490012738S","lat":51.61021,"lon":0.17864,"name":"Kilnwood Lane","parentId":"490G00012738","stationId":"490G00012738","stopLetter":"->S","topMostParentId":"490G00012738","towards":"Collier Row"},{"icsId":"1018675","id":"490018675S","lat":51.60586,"lon":0.17956,"name":"Bower Park School","parentId":"490G00018675","stationId":"490G00018675","stopLetter":"->S","topMostParentId":"490G00018675","towards":"Romford"},{"icsId":"1005032","id":"490005032W","lat":51.6038,"lon":0.17882,"name":"Chase Cross","parentId":"490G00005032","stationId":"490G00005032","stopLetter":"CL","topMostParentId":"490G00005032","towards":"Romford"},{"icsId":"1003491","id":"490003491W","lat":51.60303,"lon":0.17529,"name":"Avelon Road","parentId":"490G00003491","stationId":"490G00003491","stopLetter":"CM","topMostParentId":"490G00003491","towards":"Romford"},{"icsId":"1003843","id":"490003843W","lat":51.60101,"lon":0.17184,"name":"Belle Vue Road","parentId":"490G00003843","stationId":"490G00003843","stopLetter":"EQ","topMostParentId":"490G00003843","towards":"Romford"},{"icsId":"1009018","id":"490006777W","lat":51.60033,"lon":0.16861,"name":"Felstead Road","parentId":"490G00009018","stationId":"490G00009018","stopLetter":"ES","topMostParentId":"490G00009018","towards":"Romford"},{"icsId":"1005438","id":"490005438J","lat":51.59886,"lon":0.16338,"name":"Collier Row Roundabout / Rex Close","parentId":"490G00005438","stationId":"490G00005438","stopLetter":"ED","topMostParentId":"490G00005438","towards":"Romford"},{"icsId":"1008420","id":"490008420S","lat":51.59606,"lon":0.1641,"name":"Hulse Avenue","parentId":"490G00008420","stationId":"490G00008420","stopLetter":"EH","topMostParentId":"490G00008420","towards":"Romford"},{"icsId":"1010106","id":"490010106S","lat":51.59282,"lon":0.16589,"name":"Mowbrays Road","parentId":"490G00010106","stationId":"490G00010106","stopLetter":"EJ","topMostParentId":"490G00010106","towards":"Romford"},{"icsId":"1007655","id":"490007655S","lat":51.59039,"lon":0.16675,"name":"Hainault Road","parentId":"490G00007655","stationId":"490G00007655","stopLetter":"NP","topMostParentId":"490G00007655","towards":"Romford"},{"icsId":"1010782","id":"490010782S","lat":51.58768,"lon":0.17215,"name":"Parklands School","parentId":"490G00010782","stationId":"490G00010782","stopLetter":"NQ","topMostParentId":"490G00010782","towards":"Romford"},{"icsId":"1011658","id":"490011658S","lat":51.58372,"lon":0.17483,"name":"Romford Bus Garage","parentId":"490G00011658","stationId":"490G00011658","stopLetter":"NS","topMostParentId":"490G00011658","towards":"Romford Town Centre"},{"icsId":"1004467","id":"490013240S","lat":51.58186,"lon":0.17678,"name":"The Avenue","parentId":"490G00004467","stationId":"490G00004467","stopLetter":"J","topMostParentId":"490G00004467","towards":"Romford Town Centre"},{"icsId":"1011659","id":"490011659E","lat":51.58066,"lon":0.18215,"name":"Romford Market","parentId":"490G00011659","stationId":"490G00011659","stopLetter":"E","topMostParentId":"490G00011659","towards":"Becontree Heath, Queen's Hosp. Or Gidea Pk"},{"icsId":"1009810","id":"490009810M","lat":51.57935,"lon":0.18496,"name":"Mercury Gardens","parentId":"490G00009810","stationId":"490G00009810","stopLetter":"M","topMostParentId":"490G00009810","towards":"Gidea Park Or Hornchurch"},{"icsId":"1014452","id":"490014448S","lat":51.5775,"lon":0.1851,"name":"Western Road","parentId":"490G00014452","stationId":"490G00014452","stopLetter":"QQ","topMostParentId":"490G00014452","towards":"Elm Park, Gidea Park Or Hornchurch"},{"icsId":"1001243","id":"490001243W","lat":51.57396,"lon":0.18304,"name":"Romford Station","stopLetter":"->W","topMostParentId":"490001243W"}]}]}