{"direction":"inbound","lineId":"385","lineName":"385","mode":"bus","stopPointSequences":[{"stopPoint":[{"icsId":"1011866","id":"490011866N2","lat":51.60328,"lon":-0.02003,"name":"Salisbury Hall Sainsbury's","parentId":"490G00011866","stationId":"490G00011866","stopLetter":"CB","topMostParentId":"490G00011866","towards":"Blackhorse Road Or Chingford Mount"},{"icsId":"1011742","id":"490011742N","lat":51.60562,"lon":-0.01676,"name":"Rowden Road","parentId":"490G00011742","stationId":"490G00011742","stopLetter":"CT","topMostParentId":"490G00011742","towards":"Chingford Station Or Yardley Lane Estate"},{"icsId":"1008132","id":"490008132N","lat":51.60705,"lon":-0.01722,"name":"Higham Station Avenue","parentId":"490G00008132","stationId":"490G00008132","stopLetter":"->N","topMostParentId":"490G00008132","towards":"Chingford Station Or Yardley Lane Estate"},{"icsId":"1009091","id":"490009091N","lat":51.60973,"lon":-0.0178,"name":"Leonard Road","parentId":"490G00009091","stationId":"490G00009091","stopLetter":"->N","topMostParentId":"490G00009091","towards":"Chingford Station Or Yardley Lane Estate"},{"icsId":"1007737","id":"490007737N","lat":51.61302,"lon":-0.01809,"name":"Hampton Road","parentId":"490G00007737","stationId":"490G00007737","stopLetter":"W","topMostParentId":"490G00007737","towards":"Chingford Station Or Yardley Lane Estate"},{"icsId":"1007676","id":"490007676L","lat":51.61608,"lon":-0.01753,"name":"Hall Lane","parentId":"490G000561","stationId":"490G000561","stopLetter":"L","topMostParentId":"490G000561","towards":"Chingford Station Or Yardley Lane Estate"},{"icsId":"1005180","id":"490005178G","lat":51.61692,"lon":-0.01896,"name":"Chingford Mount","parentId":"490G000452","stationId":"490G000452","stopLetter":"G","topMostParentId":"490G000452","towards":"Chingford Station Or Edmonton"},{"icsId":"1005036","id":"490005036W","lat":51.61683,"lon":-0.02331,"name":"Chase Lane School","parentId":"490G00005036","stationId":"490G00005036","stopLetter":"T","topMostParentId":"490G00005036","towards":"Chingford Station Or Edmonton"},{"icsId":"1014183","id":"490014171W","lat":51.61712,"lon":-0.0262,"name":"Hall Lane / Waltham Way","parentId":"490G00014183","stationId":"490G00014183","stopLetter":"->W","topMostParentId":"490G00014183","towards":"Edmonton Or Valley Side"},{"icsId":"1009686","id":"490009686S","lat":51.61867,"lon":-0.027,"name":"Waltham Way / Marmion Avenue","parentId":"490G00009686","stationId":"490G00009686","stopLetter":"->N","topMostParentId":"490G00009686"},{"icsId":"1014173","id":"490014173S","lat":51.63128,"lon":-0.01476,"name":"Valley Side","parentId":"490G00014173","stationId":"490G00014173","stopLetter":"->S","topMostParentId":"490G00014173"},{"icsId":"1014175","id":"490014175N","lat":51.63398,"lon":-0.01336,"name":"Maida Avenue","parentId":"490G00014175","stationId":"490G00014175","stopLetter":"T","topMostParentId":"490G00014175","towards":"Yardley Lane Estate"},{"icsId":"1012009","id":"490012009E","lat":51.63595,"lon":-0.01236,"name":"Kings Head Hill / Sewardstone Road","parentId":"490G00012009","stationId":"490G00012009","stopLetter":"B","topMostParentId":"490G00012009","towards":"Chingford Station"},{"icsId":"1007924","id":"490007924E","lat":51.63389,"lon":-0.00913,"name":"Hawksmouth","parentId":"490G00007924","stationId":"490G00007924","stopLetter":"C","topMostParentId":"490G00007924","towards":"Chingford Station"},{"icsId":"1011083","id":"490011083E","lat":51.63264,"lon":-0.0066,"name":"Pole Hill Road","parentId":"490G00011083","stationId":"490G00011083","stopLetter":"W","topMostParentId":"490G00011083","towards":"Chingford Station"},{"icsId":"1005172","id":"490005172M","lat":51.63128,"lon":-5e-05,"name":"Chingford Green","parentId":"490G00005172","stationId":"490G00005172","stopLetter":"M","topMostParentId":"490G00005172","towards":"Chingford Station"},{"icsId":"1012619","id":"490012619L","lat":51.63126,"lon":0.00278,"name":"Station Road / the Green","parentId":"490G00012619","stationId":"490G00012619","stopLetter":"L","topMostParentId":"490G00012619","towards":"Loughton"},{"icsId":"1004663","id":"490004663H","lat":51.63205,"lon":0.00557,"name":"Buxton Road","parentId":"490G00004663","stationId":"490G00004663","stopLetter":"H","topMostParentId":"490G00004663","towards":"Loughton"},{"icsId":"1001063","id":"490001063D","lat":51.63348,"lon":0.00981,"name":"Chingford Station","stopLetter":"D","topMostParentId":"490001063D","towards":"Ponders End Or Yardley Lane Estate"}]}]}