{"direction":"inbound","lineId":"398","lineName":"398","mode":"bus","stopPointSequences":[{"stopPoint":[{"icsId":"1018843","id":"490018843E","lat":51.55469,"lon":-0.34628,"name":"Hemery Road","parentId":"490G00018843","stationId":"490G00018843","stopLetter":"->E","topMostParentId":"490G00018843","towards":"Northolt Park Station"},{"icsId":"1018842","id":"490018842W","lat":51.55544,"lon":-0.34871,"name":"Mary Peters Drive","parentId":"490G00018842","stationId":"490G00018842","topMostParentId":"490G00018842","towards":"Northolt Park Station"},{"icsId":"1018841","id":"490018841S","lat":51.55435,"lon":-0.35385,"name":"Reading Road","parentId":"490G00018841","stationId":"490G00018841","stopLetter":"NY","topMostParentId":"490G00018841","towards":"Northolt Park Station"},{"icsId":"1015483","id":"490015483W","lat":51.55397,"lon":-0.35697,"name":"Wood End Lane","parentId":"490G00015483","stationId":"490G00015483","stopLetter":"NV","topMostParentId":"490G00015483","towards":"South Harrow"},{"icsId":"1005952","id":"490005952N","lat":51.55602,"lon":-0.3617,"name":"Danemead Grove","parentId":"490G000482","stationId":"490G000482","stopLetter":"NB","topMostParentId":"490G000482","towards":"South Harrow"},{"icsId":"1001211","id":"490003203A","lat":51.55884,"lon":-0.36033,"name":"Northolt Park Station","stopLetter":"NC","topMostParentId":"490003203A","towards":"Harrow"},{"icsId":"1012689","id":"490012689N","lat":51.56062,"lon":-0.35833,"name":"St Gabriel's Church","parentId":"490G00012689","stationId":"490G00012689","stopLetter":"ND","topMostParentId":"490G00012689","towards":"Harrow"},{"icsId":"1015183","id":"490015183H","lat":51.56247,"lon":-0.35624,"name":"Corbins Lane","parentId":"490G00015183","stationId":"490G00015183","stopLetter":"H","topMostParentId":"490G00015183","towards":"Harrow"},{"icsId":"1000211","id":"490000211F","lat":51.56456,"lon":-0.35398,"name":"South Harrow Station","stopLetter":"F","topMostParentId":"490000211F","towards":"Harrow","zone":"5"},{"icsId":"1000211","id":"490000211D","lat":51.56464,"lon":-0.35306,"name":"South Harrow Station","stopLetter":"D","topMostParentId":"490000211D","towards":"Rayners Lane Or Ruislip","zone":"5"},{"icsId":"1005604","id":"490005604W","lat":51.56495,"lon":-0.35996,"name":"Corbins Lane","parentId":"490G00005604","stationId":"490G00005604","stopLetter":"L","topMostParentId":"490G00005604","towards":"Rayners Lane Or Ruislip"},{"icsId":"1013683","id":"490013683W","lat":51.56417,"lon":-0.36452,"name":"Alexandra Avenue","parentId":"490G00013683","stationId":"490G00013683","stopLetter":"M","topMostParentId":"490G00013683","towards":"Rayners Lane Or Ruislip"},{"icsId":"1006330","id":"490006330N","lat":51.56469,"lon":-0.36639,"name":"Eastcote Lane","parentId":"490G00006330","stationId":"490G00006330","stopLetter":"X","topMostParentId":"490G00006330","towards":"Eastcote"},{"icsId":"1003220","id":"490003220N","lat":51.56746,"lon":-0.36885,"name":"Alexandra Avenue Health Centre","parentId":"490G00003220","stationId":"490G00003220","stopLetter":"Y","topMostParentId":"490G00003220","towards":"Eastcote"},{"icsId":"1010702","id":"490010702N","lat":51.57166,"lon":-0.37179,"name":"Oxleay Road","parentId":"490G00010702","stationId":"490G00010702","stopLetter":"Z","topMostParentId":"490G00010702","towards":"Eastcote"},{"icsId":"1014212","id":"490014212D","lat":51.57325,"lon":-0.37174,"name":"Warden Avenue","parentId":"490G00014212","stationId":"490G00014212","stopLetter":"D","topMostParentId":"490G00014212","towards":"North Harrow Or Pinner"},{"icsId":"1000189","id":"490000189A","lat":51.57576,"lon":-0.371,"name":"Rayners Lane Station","stopLetter":"A","topMostParentId":"490000189A","towards":"North Harrow Or Pinner","zone":"5"},{"icsId":"1014083","id":"490014083Q","lat":51.57709,"lon":-0.37169,"name":"Village Way / Rayners Lane","parentId":"490G00014083","stationId":"490G00014083","stopLetter":"Q","topMostParentId":"490G00014083","towards":"Eastcote Or Pinner"},{"icsId":"1013373","id":"490013373W","lat":51.57719,"lon":-0.37854,"name":"The Glen","parentId":"490G00013373","stationId":"490G00013373","stopLetter":"->W","topMostParentId":"490G00013373","towards":"Eastcote Or Pinner"},{"icsId":"1011399","id":"490011399W","lat":51.57746,"lon":-0.38507,"name":"Raleigh Close","parentId":"490G00011399","stationId":"490G00011399","stopLetter":"->W","topMostParentId":"490G00011399","towards":"Eastcote"},{"icsId":"1004979","id":"490004979W","lat":51.57769,"lon":-0.39143,"name":"Chandos Road","parentId":"490G00004979","stationId":"490G00004979","stopLetter":"->W","topMostParentId":"490G00004979","towards":"Ruislip"},{"icsId":"1015492","id":"490015492D","lat":51.5774,"lon":-0.39726,"name":"The Close","parentId":"490G000902","stationId":"490G000902","stopLetter":"J","topMostParentId":"490G000902","towards":"Ruislip"},{"icsId":"1000066","id":"490000066K","lat":51.57616,"lon":-0.39727,"name":"Eastcote Station","stopLetter":"K","topMostParentId":"490000066K","towards":"Northolt Or Ruislip","zone":"5"},{"icsId":"1005568","id":"490005568W","lat":51.57401,"lon":-0.39632,"name":"Hoylake Gardens","parentId":"490G00005568","stationId":"490G00005568","stopLetter":"N","topMostParentId":"490G00005568","towards":"Ruislip Station"},{"icsId":"1019123","id":"490019123W","lat":51.57297,"lon":-0.40165,"name":"Oak Grove","parentId":"490G00019123","stationId":"490G00019123","stopLetter":"->W","topMostParentId":"490G00019123","towards":"Ruislip Station"},{"icsId":"1009608","id":"490009608W","lat":51.57242,"lon":-0.40415,"name":"Mansfield Avenue","parentId":"490G00009608","stationId":"490G00009608","stopLetter":"->W","topMostParentId":"490G00009608","towards":"Ruislip Station"},{"icsId":"1016302","id":"490016302W","lat":51.57123,"lon":-0.40857,"name":"Dulverton Road","parentId":"490G00016302","stationId":"490G00016302","stopLetter":"J","topMostParentId":"490G00016302","towards":"Ruislip Station"},{"icsId":"1005616","id":"490005616E","lat":51.5711,"lon":-0.41165,"name":"Cornwall Road","parentId":"490G00005616","stationId":"490G00005616","stopLetter":"E","topMostParentId":"490G00005616","towards":"Ruislip Station"},{"icsId":"1000199","id":"490000199B","lat":51.57317,"lon":-0.41309,"name":"Ruislip Manor Station","stopLetter":"B","topMostParentId":"490000199B","towards":"Ruislip Station","zone":"6"},{"icsId":"1000197","id":"490000197A","lat":51.57202,"lon":-0.4215,"name":"Ruislip Station","stopLetter":"A","topMostParentId":"490000197A","towards":"Rayner's Lane Or South Harrow","zone":"6"}]}]}