{"direction":"inbound","lineId":"399","lineName":"399","mode":"bus","stopPointSequences":[{"stopPoint":[{"icsId":"1001130","id":"490001130W","lat":51.6682,"lon":-0.1761,"name":"Hadley Wood Station","stopLetter":"A","topMostParentId":"490001130W","towards":"Barnet"},{"icsId":"1005750","id":"490005750S","lat":51.66588,"lon":-0.17875,"name":"Crescent West","parentId":"490G00005750","stationId":"490G00005750","stopLetter":"->S","topMostParentId":"490G00005750"},{"icsId":"1023075","id":"490023075W","lat":51.66481,"lon":-0.18069,"name":"Broadgates Avenue","parentId":"490G00023075","stationId":"490G00023075","stopLetter":"->W","topMostParentId":"490G00023075"},{"icsId":"1019552","id":"490019552W","lat":51.66386,"lon":-0.18373,"name":"Pagitts Grove","parentId":"490G00019552","stationId":"490G00019552","stopLetter":"->W","topMostParentId":"490G00019552"},{"icsId":"1020374","id":"490020374W","lat":51.6624,"lon":-0.18878,"name":"Monken Hadley C of E School","parentId":"490G00020374","stationId":"490G00020374","stopLetter":"->W","topMostParentId":"490G00020374"},{"icsId":"1009971","id":"490009971W","lat":51.66155,"lon":-0.1947,"name":"Monken Hadley Church","parentId":"490G00009971","stationId":"490G00009971","stopLetter":"->W","topMostParentId":"490G00009971"},{"icsId":"1020373","id":"490020373W","lat":51.66215,"lon":-0.19757,"name":"Convent Close","parentId":"490G00020373","stationId":"490G00020373","stopLetter":"->W","topMostParentId":"490G00020373"},{"icsId":"1006280","id":"490006280S","lat":51.66273,"lon":-0.19899,"name":"Dury Road","parentId":"490G00006280","stationId":"490G00006280","stopLetter":"->S","topMostParentId":"490G00006280","towards":"New Barnet Or the Spires"},{"icsId":"1007631","id":"490007631S","lat":51.65847,"lon":-0.20076,"name":"Hadley Green","parentId":"490G00007631","stationId":"490G00007631","stopLetter":"->S","topMostParentId":"490G00007631","towards":"New Barnet Or the Spires"},{"icsId":"1013559","id":"490013559S","lat":51.65645,"lon":-0.20397,"name":"The Spires","parentId":"490G00013559","stationId":"490G00013559","stopLetter":"S","topMostParentId":"490G00013559","towards":"Barnet Hill Or Quinta Drive"}]}]}