{"direction":"inbound","lineId":"404","lineName":"404","mode":"bus","stopPointSequences":[{"stopPoint":[{"icsId":"1015490","id":"40004410037A","lat":51.287571,"lon":-0.09354,"name":"Westway","topMostParentId":"40004410037A","towards":"Old Coulsdon"},{"icsId":"1014523","id":"40004410088B","lat":51.286187,"lon":-0.093081,"name":"Westway Common","parentId":"400G4410088B","stationId":"400G4410088B","topMostParentId":"400G4410088B","towards":"Merstham, Old Coulsdon Or Whyteleafe"},{"icsId":"1005419","id":"40004410089B","lat":51.284864,"lon":-0.095775,"name":"Court Road","parentId":"400G4410089A","stationId":"400G4410089A","topMostParentId":"400G4410089A","towards":"Merstham, Old Coulsdon Or Whyteleafe"},{"icsId":"1004856","id":"40004410090A","lat":51.287365,"lon":-0.098081,"name":"Hambledon Road","parentId":"400G4410090A","stationId":"400G4410090A","topMostParentId":"400G4410090A","towards":"Old Coulsdon Or Whyteleafe"},{"icsId":"1004858","id":"40004410091A","lat":51.290741,"lon":-0.100494,"name":"Caterham-On-The-Hill / Tesco","parentId":"400G4410091B","stationId":"400G4410091B","topMostParentId":"400G4410091B","towards":"Old Coulsdon Or Whyteleafe"},{"icsId":"1013566","id":"40004410092A","lat":51.29358,"lon":-0.103074,"name":"Windmill Close","topMostParentId":"40004410092A","towards":"Old Coulsdon"},{"icsId":"1007920","id":"40004410093A","lat":51.294426,"lon":-0.104774,"name":"Hawarden Road","parentId":"400G4410093A","stationId":"400G4410093A","topMostParentId":"400G4410093A","towards":"Old Coulsdon"},{"icsId":"1005638","id":"490005638N","lat":51.29616,"lon":-0.10918,"name":"Coulsdon Common / the Fox","parentId":"490G00005638","stationId":"490G00005638","stopLetter":"->N","topMostParentId":"490G00005638","towards":"Old Coulsdon"},{"icsId":"1008895","id":"490008895N","lat":51.29876,"lon":-0.1155,"name":"Coulsdon Road / Lacey Drive","parentId":"490G00008895","stationId":"490G00008895","stopLetter":"->N","topMostParentId":"490G00008895","towards":"Purley"},{"icsId":"1008495","id":"490008495E","lat":51.29943,"lon":-0.1146,"name":"Lacey Drive","parentId":"490G00008495","stationId":"490G00008495","stopLetter":"->E","topMostParentId":"490G00008495","towards":"Coulsdon"},{"icsId":"1014107","id":"490014107N","lat":51.30063,"lon":-0.11419,"name":"Homefield Road","parentId":"490G00014107","stationId":"490G00014107","topMostParentId":"490G00014107","towards":"Coulsdon"},{"icsId":"1008324","id":"490008324N","lat":51.30213,"lon":-0.11371,"name":"Waddington Avenue / Homefield Road","parentId":"490G00008324","stationId":"490G00008324","stopLetter":"T","topMostParentId":"490G00008324","towards":"Coulsdon"},{"icsId":"1004859","id":"490004859S","lat":51.30423,"lon":-0.10898,"name":"Taunton Lane","parentId":"490G00004859","stationId":"490G00004859","stopLetter":"->W","topMostParentId":"490G00004859","towards":"Caterham-on-the-hill"},{"icsId":"1014106","id":"490014106S2","lat":51.30481,"lon":-0.10838,"name":"Caterham Drive / Waddington Avenue","parentId":"490G00014106","stationId":"490G00014106","stopLetter":"->N","topMostParentId":"490G00014106","towards":"Coulsdon"},{"icsId":"1007931","id":"490007931W","lat":51.3058,"lon":-0.10992,"name":"Caterham Drive / Keston Avenue","parentId":"490G00007931","stationId":"490G00007931","stopLetter":"->W","topMostParentId":"490G00007931","towards":"Coulsdon"},{"icsId":"1015305","id":"490015305W1","lat":51.30654,"lon":-0.11261,"name":"The Glade","parentId":"490G00015305","stationId":"490G00015305","stopLetter":"->W","topMostParentId":"490G00015305","towards":"Coulsdon"},{"icsId":"1008679","id":"490008679S","lat":51.30564,"lon":-0.11438,"name":"The Glade / Keston Avenue","parentId":"490G00008679","stationId":"490G00008679","stopLetter":"->S","topMostParentId":"490G00008679","towards":"Coulsdon"},{"icsId":"1005649","id":"490005649W","lat":51.30389,"lon":-0.1159,"name":"Keston Avenue","parentId":"490G00005649","stationId":"490G00005649","stopLetter":"U","topMostParentId":"490G00005649","towards":"Coulsdon"},{"icsId":"1002184","id":"490002184Z","lat":51.30166,"lon":-0.1215,"name":"Tollers Lane / Curling Close","parentId":"490G000678","stationId":"490G000678","stopLetter":"->S","topMostParentId":"490G000678","towards":"Caterham on the Hill and Coulsdon"},{"icsId":"1002180","id":"490002180Z","lat":51.30005,"lon":-0.12048,"name":"Lacey Green / Goodenough Way","parentId":"490G000643","stationId":"490G000643","stopLetter":"->W","topMostParentId":"490G000643","towards":"Caterham on the Hill and Coulsdon"},{"icsId":"1002179","id":"490002179Z","lat":51.2989,"lon":-0.12251,"name":"Middle Close","parentId":"490G000636","stationId":"490G000636","stopLetter":"->W","topMostParentId":"490G000636","towards":"Caterham on the Hill and Coulsdon"},{"icsId":"1002181","id":"490002181Z","lat":51.29859,"lon":-0.12545,"name":"The Admirals Walk","parentId":"490G000646","stationId":"490G000646","stopLetter":"->N","topMostParentId":"490G000646","towards":"Caterham on the Hill and Coulsdon"},{"icsId":"1002182","id":"490002182Z","lat":51.3,"lon":-0.12319,"name":"Ellis Road","parentId":"490G000657","stationId":"490G000657","stopLetter":"->E","topMostParentId":"490G000657","towards":"Caterham on the Hill and Coulsdon"},{"icsId":"1002183","id":"490002183Z","lat":51.30009,"lon":-0.12071,"name":"Lacey Green / Ellis Road","parentId":"490G000660","stationId":"490G000660","stopLetter":"->E","topMostParentId":"490G000660","towards":"Caterham on the Hill and Coulsdon"},{"icsId":"1002185","id":"490002185Z","lat":51.30187,"lon":-0.12184,"name":"Tollers Lane / Drive Road","parentId":"490G000680","stationId":"490G000680","stopLetter":"->N","topMostParentId":"490G000680","towards":"Caterham on the Hill and Coulsdon"},{"icsId":"1013317","id":"490013317N","lat":51.30472,"lon":-0.11881,"name":"The Crossways","parentId":"490G00013317","stationId":"490G00013317","stopLetter":"B","topMostParentId":"490G00013317","towards":"Coulsdon Or Purley"},{"icsId":"1010535","id":"490010535N","lat":51.30734,"lon":-0.12084,"name":"Old Coulsdon / Tudor Rose","parentId":"490G00010535","stationId":"490G00010535","stopLetter":"C","topMostParentId":"490G00010535","towards":"Coulsdon Or Purley"},{"icsId":"1013199","id":"490013199W","lat":51.30923,"lon":-0.1255,"name":"Territorial Army Centre","parentId":"490G00013199","stationId":"490G00013199","stopLetter":"E","topMostParentId":"490G00013199","towards":"Coulsdon"},{"icsId":"1005641","id":"490005641N","lat":51.31109,"lon":-0.12825,"name":"Coulsdon Rise","parentId":"490G00005641","stationId":"490G00005641","stopLetter":"->N","topMostParentId":"490G00005641","towards":"Coulsdon"},{"icsId":"1012862","id":"490012649E","lat":51.3125,"lon":-0.12422,"name":"Oasis Academy Byron","parentId":"490G00012862","stationId":"490G00012862","stopLetter":"->E","topMostParentId":"490G00012862","towards":"Coulsdon"},{"icsId":"1005639","id":"490005639N","lat":51.31432,"lon":-0.12416,"name":"Coulsdon Court Road","parentId":"490G00005639","stationId":"490G00005639","stopLetter":"->N","topMostParentId":"490G00005639","towards":"Coulsdon Or Purley"},{"icsId":"1004667","id":"490004667S","lat":51.31776,"lon":-0.12774,"name":"Byron Avenue","parentId":"490G00004667","stationId":"490G00004667","stopLetter":"->S","topMostParentId":"490G00004667","towards":"Coulsdon"},{"icsId":"1004116","id":"490004116S","lat":51.31688,"lon":-0.12768,"name":"Blueberry Gardens","parentId":"490G00004116","stationId":"490G00004116","stopLetter":"->S","topMostParentId":"490G00004116","towards":"Coulsdon"},{"icsId":"1011820","id":"490011820W","lat":51.31437,"lon":-0.12919,"name":"Coulsdon Wood","parentId":"490G00011820","stationId":"490G00011820","stopLetter":"->W","topMostParentId":"490G00011820","towards":"Coulsdon"},{"icsId":"1010285","id":"490010285W","lat":51.31466,"lon":-0.13182,"name":"Nineacres Way","parentId":"490G00010285","stationId":"490G00010285","stopLetter":"->W","topMostParentId":"490G00010285","towards":"Coulsdon"},{"icsId":"1009684","id":"490009684S","lat":51.31379,"lon":-0.13334,"name":"Marlpit Avenue","parentId":"490G00009684","stationId":"490G00009684","stopLetter":"->S","topMostParentId":"490G00009684","towards":"Coulsdon"},{"icsId":"1001072","id":"490001072P","lat":51.31658,"lon":-0.13746,"name":"Coulsdon South Station","stopLetter":"P","topMostParentId":"490001072P","towards":"Purley"},{"icsId":"1002189","id":"490002189Z","lat":51.32209,"lon":-0.13498,"name":"Farthing Way","parentId":"490G000720","stationId":"490G000720","stopLetter":"->N","topMostParentId":"490G000720","towards":"Cane Hill & Old Coulsdon"},{"icsId":"1001253","id":"490001253B","lat":51.32229,"lon":-0.13626,"name":"Coulsdon Town Station","stopLetter":"B","topMostParentId":"490001253B","towards":"Chipstead Valley, Hooley Or Old Coulsdon"},{"icsId":"1005640","id":"490005637C","lat":51.32037,"lon":-0.13862,"name":"Coulsdon Library","parentId":"490G00005640","stationId":"490G00005640","stopLetter":"C","topMostParentId":"490G00005640","towards":"Hooley Or Old Coulsdon"},{"icsId":"1009202","id":"490009202D","lat":51.3182,"lon":-0.13885,"name":"Lion Green Road","parentId":"490G00009202","stationId":"490G00009202","stopLetter":"D","topMostParentId":"490G00009202","towards":"Hooley Or Old Coulsdon"},{"icsId":"1002174","id":"490002174Y","lat":51.31607,"lon":-0.13963,"name":"Lime Tree Avenue","parentId":"490G000577","stationId":"490G000577","stopLetter":"->N","topMostParentId":"490G000577","towards":"Cane Hill"},{"icsId":"1002175","id":"490002175Y","lat":51.31608,"lon":-0.14297,"name":"Tullick Way","parentId":"490G000584","stationId":"490G000584","stopLetter":"->W","topMostParentId":"490G000584","towards":"Cane Hill"},{"icsId":"1002176","id":"490002176Y","lat":51.3153,"lon":-0.14385,"name":"Salter Close","parentId":"490G000590","stationId":"490G000590","stopLetter":"->W","topMostParentId":"490G000590","towards":"Cane Hill"},{"icsId":"1002177","id":"490002177Y","lat":51.31395,"lon":-0.14581,"name":"Shaftesbury Lane","parentId":"490G000614","stationId":"490G000614","stopLetter":"->W","topMostParentId":"490G000614","towards":"Cane Hill"},{"icsId":"1002178","id":"490002178Z","lat":51.31315,"lon":-0.14757,"name":"Crawford Crescent","parentId":"490G000616","stationId":"490G000616","stopLetter":"->S","topMostParentId":"490G000616","towards":"Old Coulsdon"}]}]}