{"direction":"inbound","lineId":"406","lineName":"406","mode":"bus","stopPointSequences":[{"stopPoint":[{"icsId":"1006605","id":"40004406036A","lat":51.325944,"lon":-0.276387,"name":"Epsom Hospital","parentId":"400G4406036A","stationId":"400G4406036A","stopLetter":"R","topMostParentId":"400G4406036A","towards":"Drift Bridge, Epsom Or Watersedge"},{"icsId":"1012447","id":"40004406037A","lat":51.32744,"lon":-0.272944,"name":"Elmslie Close","parentId":"400G4406037A","stationId":"400G4406037A","topMostParentId":"400G4406037A","towards":"Drift Bridge, Epsom Or Watersedge"},{"icsId":"1006600","id":"40004406038A","lat":51.333272,"lon":-0.268404,"name":"Epsom Clock Tower","parentId":"400G4406038A","stationId":"400G4406038A","stopLetter":"A","topMostParentId":"910GEPSM","towards":"Ewell or West Ewell"}]},{"stopPoint":[{"icsId":"1006600","id":"40004406038A","lat":51.333272,"lon":-0.268404,"name":"Epsom Clock Tower","parentId":"400G4406038A","stationId":"400G4406038A","stopLetter":"A","topMostParentId":"910GEPSM","towards":"Ewell or West Ewell"},{"icsId":"1006610","id":"40004406039A","lat":51.333991,"lon":-0.265347,"name":"Epsom High Street","parentId":"400G4406039A","stationId":"400G4406039A","stopLetter":"G","topMostParentId":"910GEPSM"},{"icsId":"1015601","id":"40004406040A","lat":51.336319,"lon":-0.260996,"name":"Rainbow Leisure Centre","parentId":"400G4406040A","stationId":"400G4406040A","topMostParentId":"400G4406040A","towards":"Ewell"},{"icsId":"1008717","id":"40004406117A","lat":51.338032,"lon":-0.258304,"name":"Kiln Lane","parentId":"400G4406117A","stationId":"400G4406117A","topMostParentId":"400G4406117A","towards":"Ewell"},{"icsId":"1015600","id":"40004406041A","lat":51.339588,"lon":-0.25589,"name":"Windmill Lane","parentId":"400G4406041A","stationId":"400G4406041A","topMostParentId":"400G4406041A","towards":"West Ewell, Cheam, North Cheam Or Stoneleigh"},{"icsId":"1008111","id":"40004406043A","lat":51.342954,"lon":-0.25246,"name":"Hessle Grove","parentId":"400G4406043A","stationId":"400G4406043A","topMostParentId":"400G4406043A","towards":"West Ewell, Cheam, North Cheam Or Stoneleigh"},{"icsId":"1015599","id":"40004406044A","lat":51.344965,"lon":-0.251637,"name":"Mongers Lane","parentId":"400G4406044A","stationId":"400G4406044A","topMostParentId":"400G4406044A","towards":"West Ewell, Cheam, North Cheam Or Stoneleigh"},{"icsId":"1006676","id":"40004406045A","lat":51.346787,"lon":-0.250763,"name":"Reigate Road / Green Man","topMostParentId":"40004406045A","towards":"West Ewell, Cheam, North Cheam Or Stoneleigh"},{"icsId":"1006679","id":"40004406915A","lat":51.350565,"lon":-0.25026,"name":"The Spring","parentId":"400G4406055B","stationId":"400G4406055B","topMostParentId":"400G4406055B","towards":"North Cheam Or Stoneleigh"},{"icsId":"1007347","id":"40004406061A","lat":51.354305,"lon":-0.251382,"name":"Eight Bells","parentId":"400G4406061A","stationId":"400G4406061A","topMostParentId":"400G4406061A","towards":"Tolworth Or Worcester Park"},{"icsId":"1008577","id":"40004406062A","lat":51.355924,"lon":-0.251392,"name":"Shortcroft Road","parentId":"400G4406062A","stationId":"400G4406062A","topMostParentId":"400G4406062A","towards":"Tolworth Or Worcester Park"},{"icsId":"1003834","id":"40004406063A","lat":51.359026,"lon":-0.250785,"name":"Beggars Hill","parentId":"400G4406063A","stationId":"400G4406063A","topMostParentId":"400G4406063A","towards":"Stoneleigh Or Tolworth"},{"icsId":"1004229","id":"40004406064A","lat":51.361427,"lon":-0.254429,"name":"Bradford Drive","parentId":"400G4406064A","stationId":"400G4406064A","topMostParentId":"910GSTLEIGH","towards":"Stoneleigh Or Tolworth"},{"icsId":"1011303","id":"40004406065A","lat":51.363967,"lon":-0.258297,"name":"Ewell Court Avenue","parentId":"400G4406065A","stationId":"400G4406065A","topMostParentId":"400G4406065A","towards":"Stoneleigh Or Tolworth"},{"icsId":"1005654","id":"40004406066A","lat":51.366535,"lon":-0.262279,"name":"Court Farm Avenue","parentId":"400G4406066A","stationId":"400G4406066A","topMostParentId":"400G4406066A","towards":"Surbiton"},{"icsId":"1011830","id":"40004406091C","lat":51.369275,"lon":-0.266327,"name":"Kingston Road / Ruxley Lane","parentId":"400G4406091B","stationId":"400G4406091B","topMostParentId":"400G4406091B","towards":"Surbiton"},{"icsId":"1014938","id":"40004406092B","lat":51.371724,"lon":-0.270804,"name":"Worcester Park Road","parentId":"400G4406092A","stationId":"400G4406092A","topMostParentId":"400G4406092A","towards":"Surbiton"},{"icsId":"1001295","id":"490001295A","lat":51.37739,"lon":-0.27902,"name":"Tolworth Station","stopLetter":"A","topMostParentId":"490001295A","towards":"Surbiton"},{"icsId":"1013697","id":"490013697G","lat":51.38031,"lon":-0.28211,"name":"Tolworth Broadway","parentId":"490G00013697","stationId":"490G00013697","stopLetter":"G","topMostParentId":"490G00013697","towards":"Surbiton"},{"icsId":"1011205","id":"490011205L","lat":51.38224,"lon":-0.28496,"name":"Princes Avenue","parentId":"490G00011205","stationId":"490G00011205","stopLetter":"L","topMostParentId":"490G00011205","towards":"Surbiton"},{"icsId":"1008733","id":"490008733P","lat":51.38303,"lon":-0.28813,"name":"King Charles Road","parentId":"490G00008733","stationId":"490G00008733","stopLetter":"LN","topMostParentId":"490G00008733","towards":"Kingston"},{"icsId":"1013033","id":"490013033N","lat":51.38452,"lon":-0.29319,"name":"Broomfield Road","parentId":"490G00013033","stationId":"490G00013033","stopLetter":"LP","topMostParentId":"490G00013033","towards":"Kingston"},{"icsId":"1008305","id":"490008305N","lat":51.38555,"lon":-0.29585,"name":"Hollyfield Road","parentId":"490G00008305","stationId":"490G00008305","stopLetter":"SH","topMostParentId":"490G00008305","towards":"Kingston"},{"icsId":"1004517","id":"490004517N","lat":51.38828,"lon":-0.29749,"name":"Browns Road","parentId":"490G00004517","stationId":"490G00004517","stopLetter":"SJ","topMostParentId":"490G00004517","towards":"Kingston"},{"icsId":"1013032","id":"490013032N","lat":51.39059,"lon":-0.29822,"name":"Surbiton Health Centre","parentId":"490G00013032","stationId":"490G00013032","stopLetter":"SK","topMostParentId":"490G00013032","towards":"Kingston"},{"icsId":"1013038","id":"490013038N","lat":51.39391,"lon":-0.29882,"name":"South Terrace","parentId":"490G00013038","stationId":"490G00013038","stopLetter":"SL","topMostParentId":"490G00013038","towards":"Kingston"},{"icsId":"1018503","id":"490018503N","lat":51.39555,"lon":-0.2993,"name":"Surbiton Hill Road / Hollyfield School","parentId":"490G00018503","stationId":"490G00018503","stopLetter":"->N","topMostParentId":"490G00018503","towards":"Kingston"},{"icsId":"1018502","id":"490018502H","lat":51.40005,"lon":-0.30313,"name":"Maplehurst Close","parentId":"490G00018502","stationId":"490G00018502","stopLetter":"H","topMostParentId":"490G00018502","towards":"Kingston"},{"icsId":"1013035","id":"490013035N","lat":51.40124,"lon":-0.30402,"name":"Surbiton Road / Penrhyn Road","parentId":"490G00013035","stationId":"490G00013035","stopLetter":"UE","topMostParentId":"490G00013035","towards":"Kingston Or Hampton Wick"},{"icsId":"1008830","id":"490008830N","lat":51.40327,"lon":-0.30451,"name":"Kingston University / County Hall","parentId":"490G00008830","stationId":"490G00008830","stopLetter":"UF","topMostParentId":"490G00008830","towards":"Kingston Or Teddington"},{"icsId":"1005498","id":"490005498N","lat":51.40621,"lon":-0.30417,"name":"Kingston Crown Court / Kingston College","parentId":"490G00005498","stationId":"490G00005498","stopLetter":"UJ","topMostParentId":"490G00005498","towards":"Kingston Or Teddington"},{"icsId":"1004478","id":"490004478G","lat":51.40851,"lon":-0.30374,"name":"Brook Street","parentId":"490G00004478","stationId":"490G00004478","stopLetter":"G","topMostParentId":"490G00004478","towards":"Teddington, Kingston Hospital Or Ham"},{"icsId":"1006412","id":"490006412E3","lat":51.41046,"lon":-0.30236,"name":"Eden Street","parentId":"490G00006412","stationId":"490G00006412","stopLetter":"E3","topMostParentId":"490G00006412","towards":"Ham Or Richmond"},{"icsId":"1005800","id":"490005800A2","lat":51.41236,"lon":-0.29887,"name":"Cromwell Road Bus Station","parentId":"490G000476","stationId":"490G000476","stopLetter":"A2","topMostParentId":"490G000476","towards":"Kingston Vale, New Malden Or Raynes Park"}]}]}