{"direction":"inbound","lineId":"407","lineName":"407","mode":"bus","stopPointSequences":[{"stopPoint":[{"icsId":"1004861","id":"40004410084C","lat":51.28269,"lon":-0.077739,"name":"Caterham Valley","parentId":"400G4410084C","stationId":"400G4410084C","topMostParentId":"910GCATERHM","towards":"Whyteleafe Or Woldingham"},{"icsId":"1013360","id":"40004410108A","lat":51.28501,"lon":-0.079392,"name":"Bourne Court","parentId":"400G4410108A","stationId":"400G4410108A","topMostParentId":"400G4410108A","towards":"Kenley Or Woldingham"},{"icsId":"1006763","id":"40004410109A","lat":51.288076,"lon":-0.077715,"name":"Farningham Road","parentId":"400G4410109A","stationId":"400G4410109A","topMostParentId":"400G4410109A","towards":"Kenley Or Woldingham"},{"icsId":"1003826","id":"40004410110A","lat":51.290961,"lon":-0.075415,"name":"Beechwood Gardens","parentId":"400G4410110A","stationId":"400G4410110A","topMostParentId":"400G4410110A","towards":"Kenley Or Woldingham"},{"icsId":"1008154","id":"40004410111A","lat":51.292814,"lon":-0.073257,"name":"Highfield Road","parentId":"400G4410111A","stationId":"400G4410111A","topMostParentId":"400G4410111A","towards":"Kenley Or Woldingham"},{"icsId":"1009640","id":"40004410112A","lat":51.296217,"lon":-0.071279,"name":"Marden Lodge School","parentId":"400G4410112A","stationId":"400G4410112A","topMostParentId":"400G4410112A","towards":"Kenley Or Woldingham"},{"icsId":"1005650","id":"40004410113A","lat":51.301303,"lon":-0.074882,"name":"Well Farm Road","topMostParentId":"40004410113A","towards":"Purley"},{"icsId":"1014645","id":"40004410114A","lat":51.303498,"lon":-0.076569,"name":"Whyteleafe South Station","parentId":"400G4410114A","stationId":"400G4410114A","topMostParentId":"910GWHYTLFS","towards":"Purley"},{"icsId":"1008240","id":"40004410115A","lat":51.30588,"lon":-0.078119,"name":"Hillside Road","parentId":"400G4410115A","stationId":"400G4410115A","topMostParentId":"400G4410115A","towards":"Purley"},{"icsId":"1014646","id":"40004410116A","lat":51.308978,"lon":-0.08007,"name":"Whyteleafe & Upper Warlingham Stns","parentId":"400G4410116A","stationId":"400G4410116A","stopLetter":"D","topMostParentId":"400G4410116A","towards":"Purley"},{"icsId":"1009628","id":"40004410118A","lat":51.313587,"lon":-0.082532,"name":"Maple Road","parentId":"400G4410118A","stationId":"400G4410118A","topMostParentId":"400G4410118A","towards":"Purley"},{"icsId":"1010523","id":"40004410119A","lat":51.315709,"lon":-0.083621,"name":"Old Barn Lane","parentId":"400G4410119B","stationId":"400G4410119B","stopLetter":"J","topMostParentId":"400G4410119B","towards":"Purley"},{"icsId":"1006064","id":"490006064N","lat":51.31858,"lon":-0.08634,"name":"Devon Close","parentId":"490G00006064","stationId":"490G00006064","stopLetter":"K","topMostParentId":"490G00006064","towards":"Purley"},{"icsId":"1007129","id":"490007129N","lat":51.32113,"lon":-0.09028,"name":"Garston Lane","parentId":"490G00007129","stationId":"490G00007129","stopLetter":"L","topMostParentId":"490G00007129","towards":"Purley"},{"icsId":"1008633","id":"490008633N","lat":51.32431,"lon":-0.09688,"name":"Kenley Treatment Works","parentId":"490G00008633","stationId":"490G00008633","stopLetter":"M","topMostParentId":"490G00008633","towards":"Purley"},{"icsId":"1013437","id":"490013437W","lat":51.3256,"lon":-0.10009,"name":"The Kenley Hotel / Kenley Station","parentId":"490G000787","stationId":"490G000787","stopLetter":"N","topMostParentId":"490G000787","towards":"Purley"},{"icsId":"1009074","id":"490009074N","lat":51.32832,"lon":-0.10649,"name":"Legion House","parentId":"490G00009074","stationId":"490G00009074","stopLetter":"P","topMostParentId":"490G00009074","towards":"Croydon"},{"icsId":"1012726","id":"490012726N","lat":51.33055,"lon":-0.109,"name":"St James Road","parentId":"490G00012726","stationId":"490G00012726","stopLetter":"R","topMostParentId":"490G00012726","towards":"Croydon"},{"icsId":"1013020","id":"490013020N","lat":51.33313,"lon":-0.11116,"name":"Sunnydene Road","parentId":"490G00013020","stationId":"490G00013020","stopLetter":"->N","topMostParentId":"490G00013020","towards":"Croydon"},{"icsId":"1006975","id":"490006975NB","lat":51.33549,"lon":-0.11316,"name":"Foxley Hill Road","parentId":"490G00006975","stationId":"490G00006975","stopLetter":"Q","topMostParentId":"490G00006975","towards":"Croydon"},{"icsId":"1011270","id":"490011274P","lat":51.33736,"lon":-0.11649,"name":"Purley High Street / Purley Station","parentId":"490G000715","stationId":"490G000715","stopLetter":"P","topMostParentId":"490G000715","towards":"South Croydon, Waddon Or Wallington"},{"icsId":"1011259","id":"490011259D","lat":51.33917,"lon":-0.11611,"name":"Purley / Downlands Precinct","parentId":"490G00011259","stationId":"490G00011259","stopLetter":"D","topMostParentId":"490G00011259","towards":"Croydon"},{"icsId":"1005236","id":"490005236N","lat":51.34067,"lon":-0.11336,"name":"Christchurch Road / Purley Hospital","parentId":"490G00005236","stationId":"490G00005236","stopLetter":"E","topMostParentId":"490G00005236","towards":"Croydon Or Sanderstead"},{"icsId":"1010002","id":"490010002N","lat":51.34298,"lon":-0.10903,"name":"Montpelier Road","parentId":"490G00010002","stationId":"490G00010002","stopLetter":"F","topMostParentId":"490G00010002","towards":"Croydon Or Sanderstead"},{"icsId":"1013543","id":"490013543N","lat":51.34443,"lon":-0.10632,"name":"Brighton Road / Purley Downs Road","parentId":"490G00013543","stationId":"490G00013543","stopLetter":"J","topMostParentId":"490G00013543","towards":"Croydon Or Sanderstead"},{"icsId":"1003117","id":"490003117A","lat":51.34712,"lon":-0.10273,"name":"Biddulph Road","parentId":"490G00003117","stationId":"490G00003117","stopLetter":"GA","topMostParentId":"490G00003117","towards":"Croydon Town Centre"},{"icsId":"1013603","id":"490013603N","lat":51.34871,"lon":-0.10136,"name":"Purley Oaks Station","parentId":"490G00013603","stationId":"490G00013603","stopLetter":"GB","topMostParentId":"490G00013603","towards":"Croydon Town Centre"},{"icsId":"1011481","id":"490011481N","lat":51.35253,"lon":-0.0984,"name":"Sanderstead Road","parentId":"490G00011481","stationId":"490G00011481","stopLetter":"GC","topMostParentId":"490G00011481","towards":"Croydon Town Centre"},{"icsId":"1012272","id":"490012272N","lat":51.35522,"lon":-0.09786,"name":"South Croydon Bus Garage","parentId":"490G00012272","stationId":"490G00012272","stopLetter":"GD","topMostParentId":"490G00012272","towards":"Croydon Town Centre"},{"icsId":"1007670","id":"490007670N","lat":51.3585,"lon":-0.09786,"name":"Haling Park Road","parentId":"490G00007670","stationId":"490G00007670","stopLetter":"GE","topMostParentId":"490G00007670","towards":"Croydon Town Centre"},{"icsId":"1013920","id":"490013920N","lat":51.36057,"lon":-0.0981,"name":"Upland Road","parentId":"490G00013920","stationId":"490G00013920","stopLetter":"GF","topMostParentId":"490G00013920","towards":"Croydon Town Centre"},{"icsId":"1013100","id":"490013100G","lat":51.36323,"lon":-0.09854,"name":"Swan & Sugar Loaf","parentId":"490G00013100","stationId":"490G00013100","stopLetter":"G","topMostParentId":"490G00013100","towards":"West Croydon"},{"icsId":"1005574","id":"490005574V","lat":51.36725,"lon":-0.09908,"name":"Coombe Road","parentId":"490G00005574","stationId":"490G00005574","stopLetter":"V","topMostParentId":"490G00005574","towards":"West Croydon"},{"icsId":"1005855","id":"490005855C1","lat":51.37002,"lon":-0.10002,"name":"Croydon Flyover","parentId":"490G00005855","stationId":"490G00005855","stopLetter":"KS","topMostParentId":"490G00005855","towards":"West Croydon"},{"icsId":"1002406","id":"490005858NX","lat":51.37262,"lon":-0.09864,"name":"St. George's Walk","parentId":"490G00002323","stationId":"490G00002323","stopLetter":"KK","topMostParentId":"490G00002323","towards":"West Croydon"},{"icsId":"1014614","id":"490014614E14","lat":51.37646,"lon":-0.09853,"name":"Whitgift Centre","parentId":"490G00014614","stationId":"490G00014614","stopLetter":"WM","topMostParentId":"490G00014614","towards":"Selhurst Or Waddon"},{"icsId":"1014420","id":"490014420X","lat":51.37891,"lon":-0.10156,"name":"West Croydon Bus Station","parentId":"490G000824","stationId":"490G000824","stopLetter":"B3","topMostParentId":"HUBWCY"},{"icsId":"1011806","id":"490011806W11","lat":51.37685,"lon":-0.10304,"name":"Ruskin Road","parentId":"490G00011806","stationId":"490G00011806","stopLetter":"CJ","topMostParentId":"490G00011806","towards":"Beddington, Mitcham Or Wallington"},{"icsId":"1002023","id":"490002023W13","lat":51.37427,"lon":-0.10465,"name":"Church Street Tram Stop","stopLetter":"CL","topMostParentId":"490002023W13","towards":"Waddon Or Wallington"},{"icsId":"1009410","id":"490009410W","lat":51.37455,"lon":-0.10788,"name":"Rectory Grove","parentId":"490G00009410","stationId":"490G00009410","stopLetter":"->W","topMostParentId":"490G00009410","towards":"Beddington, Mitcham Or Wallington"},{"icsId":"1014111","id":"490014111S","lat":51.37224,"lon":-0.11004,"name":"Waddon New Road / Waddon Road","parentId":"490G00014111","stationId":"490G00014111","stopLetter":"D","topMostParentId":"490G00014111","towards":"Beddington Or Wallington"},{"icsId":"1014043","id":"490014043A","lat":51.37161,"lon":-0.11354,"name":"Vicarage Rd / Wandle Park Tram Stop","parentId":"490G000811","stationId":"490G000811","stopLetter":"A","topMostParentId":"490G000811","towards":"Beddington"},{"icsId":"1014110","id":"490014110S","lat":51.3706,"lon":-0.11706,"name":"Purley Way / Waddon Road","parentId":"490G00014110","stationId":"490G00014110","stopLetter":"SV","topMostParentId":"490G00014110","towards":"Beddington"},{"icsId":"1011275","id":"490011275C","lat":51.36762,"lon":-0.11994,"name":"Purley Way / Waddon Station","parentId":"490G000717","stationId":"490G000717","stopLetter":"WQ","topMostParentId":"490G000717","towards":"Carshalton Or Wallington"},{"icsId":"1009010","id":"490009010W","lat":51.36758,"lon":-0.12608,"name":"Lavington Road","parentId":"490G00009010","stationId":"490G00009010","stopLetter":"K","topMostParentId":"490G00009010","towards":"Carshalton Or Wallington"},{"icsId":"1003769","id":"490003769W","lat":51.36759,"lon":-0.13135,"name":"Croydon Road / Plough Lane","parentId":"490G00003769","stationId":"490G00003769","stopLetter":"L","topMostParentId":"490G00003769","towards":"Carshalton Or Wallington"},{"icsId":"1005289","id":"490005289W","lat":51.36982,"lon":-0.14165,"name":"Church Road","parentId":"490G00005289","stationId":"490G00005289","stopLetter":"GT","topMostParentId":"490G00005289","towards":"Carshalton Or Wallington"},{"icsId":"1013422","id":"490013422W","lat":51.36955,"lon":-0.14434,"name":"The Holt","parentId":"490G00013422","stationId":"490G00013422","stopLetter":"GU","topMostParentId":"490G00013422","towards":"Carshalton Or Wallington"},{"icsId":"1014136","id":"490014136W","lat":51.36878,"lon":-0.14834,"name":"Wallington County Grammar School","parentId":"490G00014136","stationId":"490G00014136","stopLetter":"GV","topMostParentId":"490G00014136","towards":"Carshalton Or Wallington"},{"icsId":"1014137","id":"490014137W","lat":51.36753,"lon":-0.15261,"name":"Croydon Road / Wallington Green","parentId":"490G00014137","stationId":"490G00014137","stopLetter":"GW","topMostParentId":"490G00014137","towards":"Carshalton Or Wallington"},{"icsId":"1004821","id":"490004821E","lat":51.36558,"lon":-0.15957,"name":"Carshalton High Street","parentId":"490G00004821","stationId":"490G00004821","stopLetter":"E","topMostParentId":"490G00004821","towards":"Hackbridge, Rosehill Or Sutton"},{"icsId":"1011153","id":"490011153W","lat":51.36411,"lon":-0.16637,"name":"Pound Street","parentId":"490G00011153","stationId":"490G00011153","stopLetter":"->W","topMostParentId":"490G00011153","towards":"Belmont Or Sutton"},{"icsId":"1001646","id":"490004708W","lat":51.36306,"lon":-0.17355,"name":"Oxford Road","parentId":"490G000280","stationId":"490G000280","stopLetter":"->W","topMostParentId":"490G000280","towards":"Sutton"},{"icsId":"1011585","id":"490011585W","lat":51.36285,"lon":-0.17749,"name":"Carshalton Road / Ringstead Road","parentId":"490G00011585","stationId":"490G00011585","stopLetter":"->W","topMostParentId":"490G00011585","towards":"Sutton"},{"icsId":"1009180","id":"490009180W1","lat":51.3624,"lon":-0.18628,"name":"Lind Road","parentId":"490G00009180","stationId":"490G00009180","stopLetter":"->W","topMostParentId":"490G00009180","towards":"Sutton"},{"icsId":"1015833","id":"490015833S","lat":51.36127,"lon":-0.18954,"name":"Chalk Pit Way","parentId":"490G00015833","stationId":"490G00015833","stopLetter":"AA","topMostParentId":"490G00015833","towards":"Marshall's Road, Sutton"},{"icsId":"1013082","id":"490013082R","lat":51.36006,"lon":-0.1926,"name":"Sutton / Grove Road","parentId":"490G00013082","stationId":"490G00013082","stopLetter":"R","topMostParentId":"490G00013082","towards":"Rosehill Or Sutton Common"},{"icsId":"1013064","id":"490013064V","lat":51.36191,"lon":-0.1945,"name":"Sutton Civic Centre","parentId":"490G00013064","stationId":"490G00013064","stopLetter":"V","topMostParentId":"490G00013064","towards":"Rosehill Or Sutton Common"},{"icsId":"1011856","id":"490011856W","lat":51.36548,"lon":-0.19541,"name":"St Nicholas Centre","parentId":"490G00011856","stationId":"490G00011856","stopLetter":"W","topMostParentId":"490G00011856","towards":"Rosehill Or Sutton Common"},{"icsId":"1013061","id":"490013061D","lat":51.36781,"lon":-0.19389,"name":"Sutton / Marshall's Road","parentId":"490G00013061","stationId":"490G00013061","stopLetter":"D","topMostParentId":"490G00013061","towards":"Carshalton"}]}]}