{"direction":"inbound","lineId":"41","lineName":"41","mode":"bus","stopPointSequences":[{"stopPoint":[{"icsId":"1009917","id":"490009917D","lat":51.58833,"lon":-0.06092,"name":"Tottenham Hale Bus Station","stopLetter":"B","topMostParentId":"490009917D","towards":"Wood Green Or Northumberland Park"},{"icsId":"1013729","id":"490013729X","lat":51.58667,"lon":-0.06374,"name":"Tottenham Hale Retail Park","parentId":"490G000802","stationId":"490G000802","stopLetter":"P","topMostParentId":"490G000802","towards":"Seven Sisters"},{"icsId":"1012525","id":"490012525Y","lat":51.58463,"lon":-0.06641,"name":"Stamford Road","parentId":"490G00012525","stationId":"490G00012525","stopLetter":"M","topMostParentId":"490G00012525","towards":"Turnpike Lane"},{"icsId":"1014118","id":"490014118H","lat":51.58399,"lon":-0.07058,"name":"Wakefield Road","parentId":"490G000816","stationId":"490G000816","stopLetter":"L","topMostParentId":"490G000816","towards":"Turnpike Lane"},{"icsId":"1000201","id":"490000201C","lat":51.58403,"lon":-0.07414,"name":"Seven Sisters Station","stopLetter":"E","topMostParentId":"490000201C","towards":"Turnpike Lane","zone":"3"},{"icsId":"1004535","id":"490004535W","lat":51.58474,"lon":-0.07716,"name":"Brunswick Road","parentId":"490G00004535","stationId":"490G00004535","stopLetter":"L","topMostParentId":"490G00004535","towards":"Turnpike Lane"},{"icsId":"1009023","id":"490009023W","lat":51.58518,"lon":-0.08057,"name":"Bedford Road","parentId":"490G00009023","stationId":"490G00009023","stopLetter":"M","topMostParentId":"490G00009023","towards":"Turnpike Lane"},{"icsId":"1003502","id":"490003499W","lat":51.58575,"lon":-0.08472,"name":"West Green Baptist Church","parentId":"490G00003502","stationId":"490G00003502","stopLetter":"N","topMostParentId":"490G00003502","towards":"Turnpike Lane"},{"icsId":"1010982","id":"490010982W","lat":51.58639,"lon":-0.08816,"name":"Philip Lane","parentId":"490G00010982","stationId":"490G00010982","stopLetter":"S","topMostParentId":"490G00010982","towards":"Turnpike Lane"},{"icsId":"1004053","id":"490004053W","lat":51.58612,"lon":-0.09077,"name":"La Rose Lane","parentId":"490G00004053","stationId":"490G00004053","stopLetter":"T","topMostParentId":"490G00004053","towards":"Turnpike Lane Or Wood Green"},{"icsId":"1014464","id":"490014863W","lat":51.58602,"lon":-0.0944,"name":"West Green Primary School","parentId":"490G00014464","stationId":"490G00014464","stopLetter":"U","topMostParentId":"490G00014464","towards":"Turnpike Lane Or Wood Green"},{"icsId":"1012557","id":"490012557W","lat":51.58718,"lon":-0.09809,"name":"Stanley Road","parentId":"490G00012557","stationId":"490G00012557","stopLetter":"V","topMostParentId":"490G00012557","towards":"Wood Green Or Hornsey"},{"icsId":"1014713","id":"490014713W","lat":51.58759,"lon":-0.10013,"name":"Willow Walk","parentId":"490G00014713","stationId":"490G00014713","stopLetter":"G","topMostParentId":"490G00014713","towards":"Wood Green Or Hornsey"},{"icsId":"1000241","id":"490015475U","lat":51.58924,"lon":-0.10246,"name":"Turnpike Lane Station","stopLetter":"U","topMostParentId":"490015475U","towards":"Crouch End and Wood Green","zone":"3"},{"icsId":"1014668","id":"490000241Q","lat":51.59016,"lon":-0.10378,"name":"Wood Green High Road","parentId":"490G000834","stationId":"490G000834","stopLetter":"Q","topMostParentId":"490G000834","towards":"Hornsey Or Crouch End"},{"icsId":"1014665","id":"490014665W","lat":51.58866,"lon":-0.111,"name":"Wightman Road","parentId":"490G00014665","stationId":"490G00014665","stopLetter":"H","topMostParentId":"490G00014665","towards":"Crouch End Or Muswell Hill"},{"icsId":"1001155","id":"490001155A","lat":51.58636,"lon":-0.11224,"name":"Hornsey Station","stopLetter":"U","topMostParentId":"490001155A","towards":"Crouch End"},{"icsId":"1007880","id":"490007880S","lat":51.58404,"lon":-0.11612,"name":"Harvey Road","parentId":"490G00007880","stationId":"490G00007880","stopLetter":"V","topMostParentId":"490G00007880","towards":"Crouch End"},{"icsId":"1006799","id":"490006799S","lat":51.58214,"lon":-0.11959,"name":"Tottenham Lane Y M C A","parentId":"490G00006799","stationId":"490G00006799","stopLetter":"W","topMostParentId":"490G00006799","towards":"Archway, Holloway Or Alexandra Palace"},{"icsId":"1005863","id":"490005826CB","lat":51.58005,"lon":-0.12302,"name":"Crouch End Broadway / Park Road","parentId":"490G00005863","stationId":"490G00005863","stopLetter":"CB","topMostParentId":"490G00005863","towards":"Archway Or Holloway"},{"icsId":"1006435","id":"490006435CF","lat":51.5775,"lon":-0.12456,"name":"Edison Road","parentId":"490G00006435","stationId":"490G00006435","stopLetter":"CF","topMostParentId":"490G00006435","towards":"Archway Or Holloway"},{"icsId":"1008360","id":"490008360S","lat":51.57423,"lon":-0.1271,"name":"Hornsey Lane","parentId":"490G00008360","stationId":"490G00008360","stopLetter":"A","topMostParentId":"490G00008360","towards":"Archway Or Holloway"},{"icsId":"1008365","id":"490008365S","lat":51.57032,"lon":-0.12396,"name":"Hornsey Rise","parentId":"490G00008365","stationId":"490G00008365","stopLetter":"B","topMostParentId":"490G00008365","towards":"Archway, Finsbury Park Or Kings Cross"},{"icsId":"1007971","id":"490007971W","lat":51.56955,"lon":-0.12565,"name":"Hazellville Road","parentId":"490G00007971","stationId":"490G00007971","stopLetter":"C","topMostParentId":"490G00007971","towards":"Archway"},{"icsId":"1010119","id":"490010119S","lat":51.57015,"lon":-0.12839,"name":"Mulkern Road","parentId":"490G00010119","stationId":"490G00010119","stopLetter":"D","topMostParentId":"490G00010119","towards":"Highgate Village"},{"icsId":"1005752","id":"490005752S","lat":51.56882,"lon":-0.13058,"name":"Cressida Road","parentId":"490G00005752","stationId":"490G00005752","stopLetter":"Z","topMostParentId":"490G00005752","towards":"Archway And Highgate Village"},{"icsId":"1019710","id":"490003363N","lat":51.56653,"lon":-0.133,"name":"Archway Road","parentId":"490G00019710","stationId":"490G00019710","stopLetter":"N","topMostParentId":"490G00019710","towards":"Highgate Village"},{"icsId":"1000008","id":"490000008W","lat":51.56483,"lon":-0.13482,"name":"Archway Station","stopLetter":"W","topMostParentId":"490000008W","towards":"Highgate Village Or Tufnell Park","zone":"2+3"}]}]}