{"direction":"inbound","lineId":"412","lineName":"412","mode":"bus","stopPointSequences":[{"stopPoint":[{"icsId":"1010839","id":"490010839C3","lat":51.37349,"lon":-0.09793,"name":"Park Street","parentId":"490G00010839","stationId":"490G00010839","stopLetter":"KH","topMostParentId":"490G00010839","towards":"Purley"},{"icsId":"1005855","id":"490005855C14","lat":51.37126,"lon":-0.10032,"name":"Croydon Flyover","parentId":"490G00005855","stationId":"490G00005855","stopLetter":"KN","topMostParentId":"490G00005855","towards":"Selsdon Or Waddon"},{"icsId":"1005574","id":"490005574S","lat":51.36821,"lon":-0.0992,"name":"Coombe Road","parentId":"490G00005574","stationId":"490G00005574","stopLetter":"W","topMostParentId":"490G00005574","towards":"Purley, Selsdon Or Waddon"},{"icsId":"1013269","id":"490013269S","lat":51.36589,"lon":-0.09897,"name":"Aberdeen Road","parentId":"490G00013269","stationId":"490G00013269","stopLetter":"S","topMostParentId":"490G00013269","towards":"Purley, Selsdon Or Waddon"},{"icsId":"1013100","id":"490015548P","lat":51.36438,"lon":-0.09855,"name":"Swan & Sugar Loaf","parentId":"490G00013100","stationId":"490G00013100","stopLetter":"P","topMostParentId":"490G00013100","towards":"Sanderstead Or Selsdon"},{"icsId":"1018698","id":"490001258F","lat":51.36311,"lon":-0.09733,"name":"Ruskin Parade / South Croydon Station","parentId":"490G00018698","stationId":"490G00018698","stopLetter":"F","topMostParentId":"490G00018698","towards":"Sanderstead Or Selsdon"},{"icsId":"1013051","id":"490013051E","lat":51.35957,"lon":-0.09373,"name":"Sussex Road","parentId":"490G00013051","stationId":"490G00013051","stopLetter":"GP","topMostParentId":"490G00013051","towards":"Sanderstead"},{"icsId":"1004802","id":"490004802S1","lat":51.35567,"lon":-0.09115,"name":"Carlton Road","parentId":"490G00004802","stationId":"490G00004802","stopLetter":"->E","topMostParentId":"490G00004802","towards":"Selsdon"},{"icsId":"1008443","id":"490008443S","lat":51.35405,"lon":-0.08856,"name":"Hurst View Road","parentId":"490G00008443","stationId":"490G00008443","stopLetter":"->S","topMostParentId":"490G00008443","towards":"Selsdon"},{"icsId":"1014472","id":"490014472S","lat":51.35254,"lon":-0.08611,"name":"West Hill","parentId":"490G00014472","stationId":"490G00014472","stopLetter":"->S","topMostParentId":"490G00014472","towards":"Selsdon"},{"icsId":"1006508","id":"490006508S","lat":51.35012,"lon":-0.08154,"name":"Elmfield Way","parentId":"490G00006508","stationId":"490G00006508","stopLetter":"->S","topMostParentId":"490G00006508","towards":"Selsdon"},{"icsId":"1003377","id":"490003377S","lat":51.34844,"lon":-0.07815,"name":"Arkwright Road","parentId":"490G00003377","stationId":"490G00003377","stopLetter":"->S","topMostParentId":"490G00003377","towards":"Sanderstead"},{"icsId":"1011574","id":"490011574S","lat":51.34694,"lon":-0.07204,"name":"Ridge Langley","parentId":"490G00011574","stationId":"490G00011574","stopLetter":"->S","topMostParentId":"490G00011574","towards":"Sanderstead"},{"icsId":"1003397","id":"490003397S","lat":51.34475,"lon":-0.06854,"name":"Arundel Avenue","parentId":"490G00003397","stationId":"490G00003397","stopLetter":"->S","topMostParentId":"490G00003397","towards":"Sanderstead"},{"icsId":"1012748","id":"490012748S","lat":51.34226,"lon":-0.06518,"name":"St John the Divine Church","parentId":"490G000766","stationId":"490G000766","stopLetter":"H","topMostParentId":"490G000766","towards":"Purley"},{"icsId":"1011992","id":"490011992E","lat":51.34257,"lon":-0.06396,"name":"Farley Road","parentId":"490G00011992","stationId":"490G00011992","stopLetter":"Z","topMostParentId":"490G00011992","towards":"Addington Village"},{"icsId":"1011993","id":"490011990N","lat":51.3427,"lon":-0.06317,"name":"Selsdon Library","parentId":"490G00011993","stationId":"490G00011993","stopLetter":"B","topMostParentId":"490G00011993","towards":"Farleigh or Purley"},{"icsId":"1016426","id":"490016426W","lat":51.34168,"lon":-0.06536,"name":"Ferns Close","parentId":"490G00016426","stationId":"490G00016426","stopLetter":"D","topMostParentId":"490G00016426","towards":"Purley"},{"icsId":"1011898","id":"490011898W","lat":51.33983,"lon":-0.06985,"name":"Sanderstead Plantation","parentId":"490G00011898","stationId":"490G00011898","stopLetter":"->W","topMostParentId":"490G00011898","towards":"Purley"},{"icsId":"1007775","id":"490007775W","lat":51.33845,"lon":-0.07358,"name":"Harbledown Road","parentId":"490G00007775","stationId":"490G00007775","topMostParentId":"490G00007775","towards":"Purley"},{"icsId":"1011894","id":"490011894W","lat":51.3372,"lon":-0.07524,"name":"Sanderstead / All Saints Church","parentId":"490G00011894","stationId":"490G00011894","stopLetter":"->W","topMostParentId":"490G00011894","towards":"Purley"},{"icsId":"1011895","id":"490011895W","lat":51.33551,"lon":-0.07889,"name":"Sanderstead Clinic","parentId":"490G00011895","stationId":"490G00011895","stopLetter":"->W","topMostParentId":"490G00011895","towards":"Purley"},{"icsId":"1004161","id":"490004161W","lat":51.33357,"lon":-0.08286,"name":"Borrowdale Drive","parentId":"490G00004161","stationId":"490G00004161","stopLetter":"->W","topMostParentId":"490G00004161","towards":"Purley"},{"icsId":"1009954","id":"490009954W1","lat":51.3319,"lon":-0.08518,"name":"Mitchley Hill","parentId":"490G00009954","stationId":"490G00009954","stopLetter":"->W","topMostParentId":"490G00009954","towards":"Purley"},{"icsId":"1011568","id":"490011568W","lat":51.33043,"lon":-0.08977,"name":"Riddlesdown","parentId":"490G00011568","stationId":"490G00011568","stopLetter":"->W","topMostParentId":"490G00011568","towards":"Purley"},{"icsId":"1009407","id":"490009407W","lat":51.33011,"lon":-0.09313,"name":"Lower Barn Road","parentId":"490G00009407","stationId":"490G00009407","stopLetter":"->W","topMostParentId":"490G00009407","towards":"Purley"},{"icsId":"1011570","id":"490011570B","lat":51.33036,"lon":-0.09897,"name":"Riddlesdown School / Riddlesdown Stn","parentId":"490G00011570","stationId":"490G00011570","stopLetter":"B","topMostParentId":"490G00011570","towards":"Purley"},{"icsId":"1011569","id":"490011569W","lat":51.33061,"lon":-0.10137,"name":"Riddlesdown Road","parentId":"490G00011569","stationId":"490G00011569","stopLetter":"->W","topMostParentId":"490G00011569","towards":"Purley"},{"icsId":"1006177","id":"490006177W","lat":51.33183,"lon":-0.10675,"name":"Downs Court Road / Selcroft Road","parentId":"490G00006177","stationId":"490G00006177","stopLetter":"->W","topMostParentId":"490G00006177","towards":"Purley"},{"icsId":"1006975","id":"490006975NB","lat":51.33549,"lon":-0.11316,"name":"Foxley Hill Road","parentId":"490G00006975","stationId":"490G00006975","stopLetter":"Q","topMostParentId":"490G00006975","towards":"Croydon"},{"icsId":"1011270","id":"490011274P","lat":51.33736,"lon":-0.11649,"name":"Purley High Street / Purley Station","parentId":"490G000715","stationId":"490G000715","stopLetter":"P","topMostParentId":"490G000715","towards":"South Croydon, Waddon Or Wallington"},{"icsId":"1011272","id":"490011272Y","lat":51.33868,"lon":-0.11835,"name":"Purley Library","parentId":"490G00011272","stationId":"490G00011272","stopLetter":"Y","topMostParentId":"490G00011272","towards":"South Croydon, Waddon Or Wallington"},{"icsId":"1011271","id":"490011271E","lat":51.34053,"lon":-0.11614,"name":"Purley Hospital","parentId":"490G00011271","stationId":"490G00011271","stopLetter":"PA","topMostParentId":"490G00011271","towards":"South Croydon"},{"icsId":"1011269","id":"490011269F","lat":51.33981,"lon":-0.11473,"name":"Purley High Street","parentId":"490G00011269","stationId":"490G00011269","stopLetter":"Z1","topMostParentId":"490G00011269"}]}]}