{"direction":"inbound","lineId":"422","lineName":"422","mode":"bus","stopPointSequences":[{"stopPoint":[{"icsId":"1003975","id":"490003975M","lat":51.45648,"lon":0.14643,"name":"Bexleyheath Clock Tower","parentId":"490G00003975","stationId":"490G00003975","stopLetter":"M","topMostParentId":"490G00003975","towards":"Sidcup, Welling Or Bexleyheath Station"},{"icsId":"1003973","id":"490003973A","lat":51.45723,"lon":0.13998,"name":"Trinity Place","parentId":"490G00003973","stationId":"490G00003973","stopLetter":"A","topMostParentId":"490G00003973","towards":"Sidcup, Welling Or Bexleyheath Station"},{"icsId":"1009203","id":"490009203C","lat":51.45791,"lon":0.13523,"name":"Bexleyheath / Lion Road","parentId":"490G00009203","stationId":"490G00009203","stopLetter":"BM","topMostParentId":"490G00009203","towards":"Bexleyheath Station Or Welling"},{"icsId":"1013960","id":"490013960W","lat":51.45839,"lon":0.13194,"name":"Upton Road","parentId":"490G00013960","stationId":"490G00013960","stopLetter":"BN","topMostParentId":"490G00013960","towards":"Sidcup, Welling Or Bexleyheath Station"},{"icsId":"1018994","id":"490007256N","lat":51.46073,"lon":0.13142,"name":"Glynde Road","parentId":"490G00018994","stationId":"490G00018994","stopLetter":"BE","topMostParentId":"490G00018994","towards":"Abbey Wood, Erith Or Plumstead"},{"icsId":"1001025","id":"490001025A","lat":51.46469,"lon":0.13283,"name":"Bexleyheath Station","stopLetter":"BF","topMostParentId":"490001025A","towards":"Abbey Wood, Erith Or Plumstead"},{"icsId":"1004216","id":"490004216N","lat":51.46816,"lon":0.13395,"name":"Pickford Lane / Bowford Avenue","parentId":"490G00004216","stationId":"490G00004216","stopLetter":"->N","topMostParentId":"490G00004216","towards":"Abbey Wood, Erith Or Plumstead"},{"icsId":"1012033","id":"490012033N","lat":51.47057,"lon":0.13463,"name":"Shakespeare Road","parentId":"490G00012033","stationId":"490G00012033","stopLetter":"->N","topMostParentId":"490G00012033","towards":"Abbey Wood, Erith Or Plumstead"},{"icsId":"1014748","id":"490014748N","lat":51.47297,"lon":0.13616,"name":"Hythe Avenue / Cumberland Drive","parentId":"490G00014748","stationId":"490G00014748","stopLetter":"->N","topMostParentId":"490G00014748","towards":"Plumstead"},{"icsId":"1013491","id":"490013491N","lat":51.47519,"lon":0.14103,"name":"The Pantiles","parentId":"490G00013491","stationId":"490G00013491","stopLetter":"->N","topMostParentId":"490G00013491","towards":"Plumstead"},{"icsId":"1010860","id":"490010860N2","lat":51.47729,"lon":0.14519,"name":"Parsonage Manorway","parentId":"490G00010860","stationId":"490G00010860","stopLetter":"->N","topMostParentId":"490G00010860","towards":"Belvedere Or Plumstead"},{"icsId":"1020378","id":"490006206N","lat":51.47881,"lon":0.14321,"name":"Bedonwell Road / Streamway","parentId":"490G00020378","stationId":"490G00020378","stopLetter":"->N","topMostParentId":"490G00020378","towards":"Belvedere Or Plumstead"},{"icsId":"1009083","id":"490009083W","lat":51.47839,"lon":0.13768,"name":"Lenham Road","parentId":"490G00009083","stationId":"490G00009083","stopLetter":"L","topMostParentId":"490G00009083","towards":"Plumstead"},{"icsId":"1009054","id":"490009054W","lat":51.47712,"lon":0.13318,"name":"Leckwith Avenue","parentId":"490G00009054","stationId":"490G00009054","stopLetter":"M","topMostParentId":"490G00009054","towards":"Plumstead"},{"icsId":"1014405","id":"490014405E2","lat":51.47551,"lon":0.12869,"name":"Westbourne Road","parentId":"490G00014405","stationId":"490G00014405","stopLetter":"N","topMostParentId":"490G00014405","towards":"Plumstead"},{"icsId":"1004245","id":"490004245W","lat":51.47429,"lon":0.12528,"name":"Okehampton Crescent / Brampton Road","parentId":"490G00004245","stationId":"490G00004245","stopLetter":"P","topMostParentId":"490G00004245","towards":"Plumstead"},{"icsId":"1011081","id":"490011081W","lat":51.47334,"lon":0.12259,"name":"Plymstock Road","parentId":"490G00011081","stationId":"490G00011081","stopLetter":"R","topMostParentId":"490G00011081","towards":"Plumstead"},{"icsId":"1013722","id":"490013722W","lat":51.47193,"lon":0.11812,"name":"Tor Road","parentId":"490G00013722","stationId":"490G00013722","stopLetter":"A","topMostParentId":"490G00013722","towards":"Plumstead"},{"icsId":"1019951","id":"490010520W","lat":51.47253,"lon":0.11351,"name":"Lodge Hill","parentId":"490G00019951","stationId":"490G00019951","stopLetter":"B","topMostParentId":"490G00019951","towards":"Plumstead"},{"icsId":"1006911","id":"490006911N","lat":51.47487,"lon":0.10948,"name":"Foresters Arms","parentId":"490G00006911","stationId":"490G00006911","stopLetter":"F","topMostParentId":"490G00006911","towards":"Plumstead"},{"icsId":"1009212","id":"490009212N","lat":51.47763,"lon":0.10644,"name":"Littledale","parentId":"490G00009212","stationId":"490G00009212","stopLetter":"G","topMostParentId":"490G00009212","towards":"Plumstead"},{"icsId":"1008782","id":"490008782N","lat":51.47866,"lon":0.10449,"name":"King's Highway","parentId":"490G00008782","stationId":"490G00008782","stopLetter":"H","topMostParentId":"490G00008782","towards":"Plumstead"},{"icsId":"1011819","id":"490011819N","lat":51.4818,"lon":0.10159,"name":"Rutherglen Road","parentId":"490G00011819","stationId":"490G00011819","stopLetter":"WN","topMostParentId":"490G00011819","towards":"Plumstead"},{"icsId":"1011075","id":"490011075W2","lat":51.48564,"lon":0.10111,"name":"Plumstead Corner / Rockmount Road","parentId":"490G00011075","stationId":"490G00011075","stopLetter":"WD","topMostParentId":"490G00011075","towards":"Woolwich"},{"icsId":"1001969","id":"490011077W","lat":51.48661,"lon":0.09601,"name":"Plumstead High St / the Plumstead Centre","parentId":"490G000293","stationId":"490G000293","stopLetter":"WH","topMostParentId":"490G000293","towards":"Woolwich"},{"icsId":"1003584","id":"490003584O","lat":51.48719,"lon":0.0932,"name":"Bannockburn Road","parentId":"490G00003584","stationId":"490G00003584","stopLetter":"WJ","topMostParentId":"490G00003584","towards":"Woolwich"},{"icsId":"1008908","id":"490008908S","lat":51.48784,"lon":0.09045,"name":"Lakedale Road","parentId":"490G00008908","stationId":"490G00008908","stopLetter":"WK","topMostParentId":"490G00008908","towards":"Woolwich"},{"icsId":"1019871","id":"490001227E","lat":51.49036,"lon":0.08353,"name":"Plumstead Road / Plumstead Station","parentId":"490G000959","stationId":"490G000959","stopLetter":"WM","topMostParentId":"490G000959","towards":"Woolwich"},{"icsId":"1014924","id":"490014924D","lat":51.4909,"lon":0.08027,"name":"Greenwich Community College","parentId":"490G00014924","stationId":"490G00014924","stopLetter":"WP","topMostParentId":"490G00014924","towards":"Queen Elizabeth Hosp, Charlton Or Shooters Hill"},{"icsId":"1009723","id":"490009723W","lat":51.49087,"lon":0.07687,"name":"Maxey Road","parentId":"490G00009723","stationId":"490G00009723","stopLetter":"->W","topMostParentId":"490G00009723","towards":"Queen Elizabeth Hosp, Charlton Or Shooters Hill"},{"icsId":"1002162","id":"490014934W","lat":51.49119,"lon":0.07072,"name":"Woolwich","parentId":"910GWOLWXR","stationId":"910GWOLWXR","stopLetter":"Z","topMostParentId":"910GWOLWXR","towards":"Blackheath Or Queen Elizabeth Hospital"},{"icsId":"1001344","id":"490001344H","lat":51.4902,"lon":0.06896,"name":"Woolwich Arsenal Station","stopLetter":"H","topMostParentId":"490001344H","towards":"Blackheath"},{"icsId":"1008574","id":"490014935S","lat":51.48951,"lon":0.06545,"name":"The Woolwich Centre","parentId":"490G00008574","stationId":"490G00008574","stopLetter":"S","topMostParentId":"490G00008574","towards":"Blackheath Or Queen Elizabeth Hospital"},{"icsId":"1008585","id":"490008574X","lat":51.48787,"lon":0.06145,"name":"Artillery Place / John Wilson Street","parentId":"490G00008585","stationId":"490G00008585","stopLetter":"X","topMostParentId":"490G00008585","towards":"Blackheath Or Queen Elizabeth Hospital"},{"icsId":"1006981","id":"490006981W","lat":51.48739,"lon":0.05766,"name":"Artillery Place / Frances Street","parentId":"490G00006981","stationId":"490G00006981","stopLetter":"->W","topMostParentId":"490G00006981","towards":"Blackheath Or Queen Elizabeth Hospital"},{"icsId":"1006632","id":"490006632W","lat":51.48512,"lon":0.04953,"name":"Erwood Road","parentId":"490G00006632","stationId":"490G00006632","stopLetter":"A","topMostParentId":"490G00006632","towards":"Blackheath Or North Greenwich"},{"icsId":"1004916","id":"490004916W","lat":51.48291,"lon":0.04674,"name":"Cemetery Lane","parentId":"490G00004916","stationId":"490G00004916","stopLetter":"B","topMostParentId":"490G00004916","towards":"Blackheath Or North Greenwich"},{"icsId":"1005013","id":"490005013Q","lat":51.48199,"lon":0.04004,"name":"Charlton Park Road","parentId":"490G00005013","stationId":"490G00005013","stopLetter":"Q","topMostParentId":"490G00005013","towards":"Blackheath Or North Greenwich"},{"icsId":"1005007","id":"490005007P","lat":51.48086,"lon":0.03588,"name":"Charlton House","parentId":"490G00005007","stationId":"490G00005007","stopLetter":"P","topMostParentId":"490G00005007","towards":"North Greenwich, Deptford Or Lewisham"},{"icsId":"1014075","id":"490014075W","lat":51.47952,"lon":0.0309,"name":"Charlton Road / Victoria Way","parentId":"490G00014075","stationId":"490G00014075","stopLetter":"->W","topMostParentId":"490G00014075","towards":"North Greenwich, Deptford Or Lewisham"},{"icsId":"1014978","id":"490014978W1","lat":51.47939,"lon":0.02541,"name":"Wyndcliff Road","parentId":"490G00014978","stationId":"490G00014978","stopLetter":"BT","topMostParentId":"490G00014978","towards":"North Greenwich, Deptford Or Lewisham"},{"icsId":"1004065","id":"490004065BA","lat":51.47758,"lon":0.0191,"name":"Blackheath / Royal Standard","parentId":"490G00004065","stationId":"490G00004065","stopLetter":"BA","topMostParentId":"490G00004065","towards":"Greenwich Or North Greenwich"},{"icsId":"1008854","id":"490008854N","lat":51.48179,"lon":0.01989,"name":"Kirkside Road","parentId":"490G00008854","stationId":"490G00008854","stopLetter":"->N","topMostParentId":"490G00008854","towards":"Greenwich Or North Greenwich"},{"icsId":"1001323","id":"490001323A","lat":51.48352,"lon":0.01969,"name":"Westcombe Park Station","stopLetter":"A","topMostParentId":"490001323A","towards":"Greenwich Or North Greenwich"},{"icsId":"1014436","id":"490014436N","lat":51.48499,"lon":0.01905,"name":"Westerdale Road","parentId":"490G00014436","stationId":"490G00014436","stopLetter":"C","topMostParentId":"490G00014436","towards":"Greenwich Or North Greenwich"},{"icsId":"1006356","id":"490006356W","lat":51.48627,"lon":0.01631,"name":"Kemsing Road","parentId":"490G00006356","stationId":"490G00006356","stopLetter":"D","topMostParentId":"490G00006356","towards":"North Greenwich, Deptford Or Kidbrooke"},{"icsId":"1009685","id":"490009685W","lat":51.4861,"lon":0.01296,"name":"Marlton Street","parentId":"490G00009685","stationId":"490G00009685","stopLetter":"Q","topMostParentId":"490G00009685","towards":"North Greenwich, Deptford Or Kidbrooke"},{"icsId":"1003334","id":"490003334W","lat":51.48614,"lon":0.01102,"name":"Calvert Road","parentId":"490G00003334","stationId":"490G00003334","stopLetter":"->W","topMostParentId":"490G00003334","towards":"North Greenwich, Deptford Or Kidbrooke"},{"icsId":"1015332","id":"490015332B","lat":51.48623,"lon":0.00901,"name":"Vanbrugh Hill","parentId":"490G00015332","stationId":"490G00015332","stopLetter":"B","topMostParentId":"490G00015332","towards":"North Greenwich"},{"icsId":"1010892","id":"490010892C","lat":51.48637,"lon":0.00714,"name":"Pelton Road","parentId":"490G00010892","stationId":"490G00010892","stopLetter":"C","topMostParentId":"490G00010892","towards":"North Greenwich"},{"icsId":"1013840","id":"490013840R","lat":51.49027,"lon":0.00855,"name":"Tunnel Avenue","parentId":"490G00013840","stationId":"490G00013840","stopLetter":"MQ","topMostParentId":"490G00013840","towards":"North Greenwich"},{"icsId":"1009888","id":"490009888M","lat":51.49407,"lon":0.01071,"name":"Millennium Primary School","parentId":"490G00009888","stationId":"490G00009888","stopLetter":"MS","topMostParentId":"490G00009888","towards":"North Greenwich"},{"icsId":"1010374","id":"490010374E","lat":51.50061,"lon":0.00287,"name":"North Greenwich Station","parentId":"490G000682","stationId":"490G000682","stopLetter":"E","topMostParentId":"HUBNGW"}]}]}