{"direction":"inbound","lineId":"424","lineName":"424","mode":"bus","stopPointSequences":[{"stopPoint":[{"icsId":"1012676","id":"490012676N","lat":51.47712,"lon":-0.22202,"name":"Stevenage Road / Fulham Football Club","parentId":"490G00012676","stationId":"490G00012676","stopLetter":"->N","topMostParentId":"490G00012676","towards":"Fulham Broadway"},{"icsId":"1011337","id":"490011337N1","lat":51.48007,"lon":-0.22133,"name":"Queensmill Road","parentId":"490G00011337","stationId":"490G00011337","stopLetter":"->N","topMostParentId":"490G00011337"},{"icsId":"1009155","id":"490009155N","lat":51.48267,"lon":-0.2192,"name":"Lillie Road","parentId":"490G00009155","stationId":"490G00009155","stopLetter":"HQ","topMostParentId":"490G00009155","towards":"Hammersmith Or West Brompton"},{"icsId":"1004174","id":"490004174E","lat":51.48349,"lon":-0.21781,"name":"Bothwell Street","parentId":"490G00004174","stationId":"490G00004174","stopLetter":"HC","topMostParentId":"490G00004174","towards":"Fulham Or West Brompton"},{"icsId":"1007052","id":"490007050S","lat":51.48213,"lon":-0.21347,"name":"Munster Road / Fulham Cross","parentId":"490G00007052","stationId":"490G00007052","stopLetter":"HH","topMostParentId":"490G00007052","towards":"Fulham Broadway"},{"icsId":"1011385","id":"490011385E","lat":51.47637,"lon":-0.20457,"name":"Radipole Road","parentId":"490G00011385","stationId":"490G00011385","stopLetter":"S","topMostParentId":"490G00011385","towards":"South Kensington Or Sands End"},{"icsId":"1010861","id":"490010861T","lat":51.47773,"lon":-0.20162,"name":"Parsons Green Lane / Fulham Library","parentId":"490G000699","stationId":"490G000699","stopLetter":"T","topMostParentId":"490G000699","towards":"Sands End Or South Kensington"},{"icsId":"1000352","id":"490008547E","lat":51.48022,"lon":-0.19844,"name":"Fulham Broadway","parentId":"490G00000352","stationId":"490G00000352","stopLetter":"E","topMostParentId":"490G00000352","towards":"South Kensington, Sands End Or Wandsworth"},{"icsId":"1007057","id":"490007057S","lat":51.47925,"lon":-0.19453,"name":"Fulham Town Hall","parentId":"490G000526","stationId":"490G000526","stopLetter":"S","topMostParentId":"490G000526","towards":"Sands End Or Wandsworth Bridge"},{"icsId":"1013888","id":"490013888S","lat":51.4778,"lon":-0.19233,"name":"Tyrawley Road","parentId":"490G00013888","stationId":"490G00013888","stopLetter":"GE","topMostParentId":"490G00013888","towards":"Chelsea Or Wandsworth Bridge"},{"icsId":"1011918","id":"490011918W","lat":51.46857,"lon":-0.18624,"name":"William Morris Way / Sainsbury's","parentId":"490G00011918","stationId":"490G00011918","stopLetter":"TQ","topMostParentId":"490G00011918","towards":"Clapham Junction Or Fulham Broadway"},{"icsId":"1014187","id":"490014185W","lat":51.46737,"lon":-0.18786,"name":"Wandsworth Bridge","parentId":"490G00014187","stationId":"490G00014187","stopLetter":"TT","topMostParentId":"490G00014187","towards":"Clapham Junction Or Putney Bridge"},{"icsId":"1008433","id":"490008433N","lat":51.47028,"lon":-0.19771,"name":"Peterborough Road / Hurlingham","parentId":"490G00008433","stationId":"490G00008433","stopLetter":"->N","topMostParentId":"490G00008433"},{"icsId":"1015393","id":"490015393Y","lat":51.47182,"lon":-0.20462,"name":"Munster Road","parentId":"490G00015393","stationId":"490G00015393","stopLetter":"Y","topMostParentId":"490G00015393","towards":"Putney Common Or Putney Heath"},{"icsId":"1008435","id":"490008435W","lat":51.46936,"lon":-0.20892,"name":"Putney Bridge Stn / Fulham High Street","parentId":"490G00008435","stationId":"490G00008435","stopLetter":"FX","topMostParentId":"490G00008435","towards":"Putney Common Or Putney Heath"},{"icsId":"1007281","id":"490015157T","lat":51.46781,"lon":-0.21179,"name":"Putney Bridge","parentId":"490G000536","stationId":"490G000536","stopLetter":"FE","topMostParentId":"490G000536","towards":"Roehampton, Putney Heath Or Barnes"},{"icsId":"1011278","id":"490011278R","lat":51.46533,"lon":-0.21432,"name":"St Mary's Church / Putney Pier","parentId":"490G00011278","stationId":"490G00011278","stopLetter":"R","topMostParentId":"490G00011278","towards":"Roehampton, Wandsworth Or Wimbledon"},{"icsId":"1011289","id":"490011286L","lat":51.46272,"lon":-0.21612,"name":"Putney Exchange","parentId":"490G00011289","stationId":"490G00011289","stopLetter":"L","topMostParentId":"490G00011289","towards":"Roehampton, Southfields Or Wimbledon"},{"icsId":"1001231","id":"490001231H","lat":51.46019,"lon":-0.21724,"name":"Putney Station","stopLetter":"H","topMostParentId":"490001231H","towards":"Southfields"},{"icsId":"1018691","id":"490018690E","lat":51.45712,"lon":-0.21998,"name":"Chartfield Avenue","parentId":"490G00018691","stationId":"490G00018691","topMostParentId":"490G00018691"},{"icsId":"1018691","id":"490018691W","lat":51.45744,"lon":-0.22237,"name":"Chartfield Avenue","parentId":"490G00018691","stationId":"490G00018691","topMostParentId":"490G00018691"},{"icsId":"1018691","id":"490018692W","lat":51.45755,"lon":-0.22451,"name":"Chartfield Avenue","parentId":"490G00018691","stationId":"490G00018691","stopLetter":"->W","topMostParentId":"490G00018691"},{"icsId":"1018693","id":"490018693S","lat":51.45685,"lon":-0.22599,"name":"Genoa Avenue","parentId":"490G00018693","stationId":"490G00018693","stopLetter":"->S","topMostParentId":"490G00018693"},{"icsId":"1018694","id":"490018694W","lat":51.4562,"lon":-0.22658,"name":"Westleigh Avenue Putney","parentId":"490G00018694","stationId":"490G00018694","stopLetter":"->W","topMostParentId":"490G00018694"},{"icsId":"1006685","id":"490006685W","lat":51.45255,"lon":-0.22885,"name":"Exeter House","parentId":"490G00006685","stationId":"490G00006685","stopLetter":"E","topMostParentId":"490G00006685","towards":"Roehampton"},{"icsId":"1013567","id":"490013567N1","lat":51.44924,"lon":-0.22725,"name":"Telegraph Road","parentId":"490G00013567","stationId":"490G00013567","stopLetter":"PH","topMostParentId":"490G00013567","towards":"Putney Heath"},{"icsId":"1011285","id":"490011285S","lat":51.45291,"lon":-0.2223,"name":"Putney Heath / Green Man","parentId":"490G00011285","stationId":"490G00011285","stopLetter":"B","topMostParentId":"490G00011285","towards":"Putney"}]}]}