{"direction":"inbound","lineId":"432","lineName":"432","mode":"bus","stopPointSequences":[{"stopPoint":[{"icsId":"1001007","id":"490001007AD","lat":51.41202,"lon":-0.06556,"name":"Anerley Station","stopLetter":"F","topMostParentId":"490001007AD","towards":"Upper Norwood Or West Norwood"},{"icsId":"1018975","id":"490001007AB","lat":51.41189,"lon":-0.06683,"name":"Anerley Road / Anerley Station","parentId":"490G00018975","stationId":"490G00018975","stopLetter":"H","topMostParentId":"490G00018975","towards":"Upper Norwood Or West Norwood"},{"icsId":"1003319","id":"490003319N","lat":51.41325,"lon":-0.06877,"name":"Anerley Park","parentId":"490G00003319","stationId":"490G00003319","stopLetter":"J","topMostParentId":"490G00003319","towards":"West Norwood Or Upper Norwood"},{"icsId":"1013610","id":"490013610N1","lat":51.41437,"lon":-0.07029,"name":"Thicket Road","parentId":"490G00013610","stationId":"490G00013610","stopLetter":"K","topMostParentId":"490G00013610","towards":"Upper Norwood Or West Norwood"},{"icsId":"1001078","id":"490001078P","lat":51.41729,"lon":-0.07367,"name":"Crystal Palace Station","stopLetter":"P","topMostParentId":"490001078P","towards":"Upper Norwood Or West Norwood"},{"icsId":"1005870","id":"490005870F","lat":51.41977,"lon":-0.07759,"name":"Anerley Hill / Crystal Palace","parentId":"490G00005870","stationId":"490G00005870","stopLetter":"F","topMostParentId":"490G00005870","towards":"Upper Norwood Or West Norwood"},{"icsId":"1014510","id":"490014510G","lat":51.41902,"lon":-0.07939,"name":"Westow Hill","parentId":"490G00014510","stationId":"490G00014510","stopLetter":"G","topMostParentId":"490G00014510","towards":"Thornton Heath, Streatham Or West Norwood"},{"icsId":"1015491","id":"490015491H","lat":51.41784,"lon":-0.08217,"name":"Westow Street","parentId":"490G00015491","stationId":"490G00015491","stopLetter":"H","topMostParentId":"490G00015491","towards":"Crown Point Or West Norwood"},{"icsId":"1007191","id":"490007191L","lat":51.41938,"lon":-0.08459,"name":"Gipsy Hill Police Station","parentId":"490G00007191","stationId":"490G00007191","stopLetter":"L","topMostParentId":"490G00007191","towards":"Upper Norwood Or West Norwood"},{"icsId":"1015346","id":"490015346N","lat":51.42031,"lon":-0.08887,"name":"Rockmount Road","parentId":"490G00015346","stationId":"490G00015346","stopLetter":"->N","topMostParentId":"490G00015346","towards":"Upper Norwood Or West Norwood"},{"icsId":"1015338","id":"490015338N","lat":51.42164,"lon":-0.09139,"name":"Hermitage Road","parentId":"490G00015338","stationId":"490G00015338","stopLetter":"H","topMostParentId":"490G00015338","towards":"Streatham Hill, Thornton Heath Or West Norwood"},{"icsId":"1011876","id":"490011876W","lat":51.42276,"lon":-0.09461,"name":"Salter's Hill","parentId":"490G00011876","stationId":"490G00011876","stopLetter":"J","topMostParentId":"490G00011876","towards":"Streatham Hill Or West Norwood"},{"icsId":"1010449","id":"490010449N","lat":51.42406,"lon":-0.09796,"name":"Norwood Park","parentId":"490G00010449","stationId":"490G00010449","stopLetter":"K","topMostParentId":"490G00010449","towards":"Tulse Hill"},{"icsId":"1007193","id":"490007193N","lat":51.42729,"lon":-0.09996,"name":"Gipsy Road","parentId":"490G00007193","stationId":"490G00007193","stopLetter":"L","topMostParentId":"490G00007193","towards":"Tulse Hill"},{"icsId":"1010444","id":"490010444W","lat":51.42952,"lon":-0.10355,"name":"Norwood Bus Garage","parentId":"490G00010444","stationId":"490G00010444","stopLetter":"U","topMostParentId":"490G00010444","towards":"Upper Norwood"},{"icsId":"1012754","id":"490012754N","lat":51.43015,"lon":-0.10441,"name":"St Julian's Farm Road","parentId":"490G00012754","stationId":"490G00012754","stopLetter":"Y","topMostParentId":"490G00012754","towards":"Brixton, Herne Hill Or Streatham"},{"icsId":"1001331","id":"490001331W","lat":51.43236,"lon":-0.10398,"name":"West Norwood Station","stopLetter":"W","topMostParentId":"490001331W","towards":"Brixton, Herne Hill Or Streatham"},{"icsId":"1013670","id":"490013655N","lat":51.43408,"lon":-0.10385,"name":"Norwood Road / Robson Road","parentId":"490G00013670","stationId":"490G00013670","stopLetter":"N","topMostParentId":"490G00013670","towards":"Brixton Or Streatham"},{"icsId":"1008927","id":"490008927K","lat":51.43677,"lon":-0.10509,"name":"Lancaster Avenue","parentId":"490G00008927","stationId":"490G00008927","stopLetter":"K","topMostParentId":"490G00008927","towards":"Brixton"},{"icsId":"1001298","id":"490001298E","lat":51.44027,"lon":-0.10758,"name":"Tulse Hill Station","stopLetter":"E","topMostParentId":"490001298E","towards":"Brixton Or Streatham"},{"icsId":"1007778","id":"490007778D","lat":51.44126,"lon":-0.10856,"name":"Hardel Rise","parentId":"490G000571","stationId":"490G000571","stopLetter":"D","topMostParentId":"490G000571","towards":"Brixton Or Streatham Hill"},{"icsId":"1008194","id":"490008194N","lat":51.44297,"lon":-0.10993,"name":"High Trees","parentId":"490G00008194","stationId":"490G00008194","stopLetter":"H","topMostParentId":"490G00008194","towards":"Brixton Or Streatham"},{"icsId":"1013950","id":"490013950N","lat":51.44533,"lon":-0.11203,"name":"Upper Tulse Hill","parentId":"490G00013950","stationId":"490G00013950","stopLetter":"J","topMostParentId":"490G00013950","towards":"Brixton"},{"icsId":"1005366","id":"490006080N","lat":51.44897,"lon":-0.11313,"name":"Craignair Road","parentId":"490G00005366","stationId":"490G00005366","stopLetter":"K","topMostParentId":"490G00005366","towards":"Kennington Or Stockwell"},{"icsId":"1004401","id":"490004401N","lat":51.45133,"lon":-0.11324,"name":"Jubilee Primary School","parentId":"490G00004401","stationId":"490G00004401","stopLetter":"L","topMostParentId":"490G00004401","towards":"Kennington Or Stockwell"},{"icsId":"1015275","id":"490015275N2","lat":51.45458,"lon":-0.11351,"name":"Brixton Water Lane","parentId":"490G00015275","stationId":"490G00015275","stopLetter":"M","topMostParentId":"490G00015275","towards":"Kennington Or Stockwell"},{"icsId":"1005847","id":"490005847N","lat":51.45661,"lon":-0.1144,"name":"Morval Road","parentId":"490G00005847","stationId":"490G00005847","stopLetter":"N","topMostParentId":"490G00005847","towards":"Clapham Common, Kennington Or Stockwell"},{"icsId":"1012810","id":"490012810N","lat":51.45835,"lon":-0.11508,"name":"St Matthews Estate","parentId":"490G00012810","stationId":"490G00012810","stopLetter":"P","topMostParentId":"490G00012810","towards":"Clapham Common, Kennington Or Stockwell"},{"icsId":"1008919","id":"490008919W","lat":51.46033,"lon":-0.11664,"name":"Lambeth Town Hall","parentId":"490G000627","stationId":"490G000627","stopLetter":"W","topMostParentId":"490G000627","towards":"Stockwell"},{"icsId":"1000031","id":"490000031T","lat":51.46197,"lon":-0.11538,"name":"Brixton Station","stopLetter":"T","topMostParentId":"490000031T","towards":"Stockwell Or Loughborough Junction","zone":"2"}]}]}