{"direction":"inbound","lineId":"436","lineName":"436","mode":"bus","stopPointSequences":[{"stopPoint":[{"icsId":"1001016","id":"490001016A","lat":51.47711,"lon":-0.14717,"name":"Battersea Park Station","stopLetter":"A","topMostParentId":"490001016A","towards":"Vauxhall"},{"icsId":"1003686","id":"490003686E","lat":51.4782,"lon":-0.14504,"name":"Battersea Dogs & Cats Home","parentId":"490G00003686","stationId":"490G00003686","stopLetter":"J","topMostParentId":"490G00003686","towards":"Vauxhall"},{"icsId":"1002195","id":"490012196E","lat":51.47987,"lon":-0.14131,"name":"Battersea Power Station","stopLetter":"A","topMostParentId":"490012196E","towards":"Vauxhall"},{"icsId":"1005777","id":"490005777E","lat":51.48166,"lon":-0.13756,"name":"Riverlight Quay","parentId":"490G00005777","stationId":"490G00005777","stopLetter":"B","topMostParentId":"490G00005777","towards":"Vauxhall"},{"icsId":"1001274","id":"490006515E","lat":51.48328,"lon":-0.13365,"name":"United States Embassy","parentId":"490G000272","stationId":"490G000272","stopLetter":"C","topMostParentId":"490G000272","towards":"Camberwell Or Elephant & Castle"},{"icsId":"1000714","id":"490014193E","lat":51.48462,"lon":-0.12909,"name":"St George Wharf Pier","parentId":"490G000270","stationId":"490G000270","stopLetter":"->E","topMostParentId":"490G000270","towards":"Camberwell Or Elephant & Castle"},{"icsId":"1020252","id":"490000247C","lat":51.48555,"lon":-0.12428,"name":"Vauxhall Bus Station","stopLetter":"C","topMostParentId":"490000247C"},{"icsId":"1012571","id":"490012571T","lat":51.48631,"lon":-0.12041,"name":"St Anne's Church","parentId":"490G00012571","stationId":"490G00012571","stopLetter":"T","topMostParentId":"490G00012571","towards":"Elephant & Castle Or Oval"},{"icsId":"1020326","id":"490020326S","lat":51.48544,"lon":-0.11871,"name":"Durham Street / Harleyford Road","parentId":"490G00020326","stationId":"490G00020326","stopLetter":"->S","topMostParentId":"490G00020326","towards":"Camberwell"},{"icsId":"1003359","id":"490003359A","lat":51.48303,"lon":-0.11554,"name":"Archbishop Tenison's School","parentId":"490G00003359","stationId":"490G00003359","stopLetter":"A","topMostParentId":"490G00003359","towards":"Camberwell"},{"icsId":"1000172","id":"490000172C","lat":51.48239,"lon":-0.11275,"name":"Oval Station","stopLetter":"C","topMostParentId":"490000172C","towards":"Camberwell","zone":"2"},{"icsId":"1008644","id":"490008644E","lat":51.48067,"lon":-0.10905,"name":"Kennington Park","parentId":"490G00008644","stationId":"490G00008644","stopLetter":"E","topMostParentId":"490G00008644","towards":"Camberwell"},{"icsId":"1008571","id":"490008571E","lat":51.47957,"lon":-0.1064,"name":"John Ruskin Street","parentId":"490G00008571","stationId":"490G00008571","stopLetter":"D","topMostParentId":"490G00008571","towards":"Denmark Hill Or Peckham"},{"icsId":"1014014","id":"490014014E","lat":51.47797,"lon":-0.10252,"name":"Vassall Road","parentId":"490G00014014","stationId":"490G00014014","stopLetter":"E","topMostParentId":"490G00014014","towards":"Denmark Hill Or Peckham"},{"icsId":"1005645","id":"490005645E","lat":51.47662,"lon":-0.09928,"name":"County Grove","parentId":"490G00005645","stationId":"490G00005645","stopLetter":"F","topMostParentId":"490G00005645","towards":"Denmark Hill Or Peckham"},{"icsId":"1011846","id":"490011846E","lat":51.47538,"lon":-0.09636,"name":"Sacred Heart School","parentId":"490G00011846","stationId":"490G00011846","stopLetter":"G","topMostParentId":"490G00011846","towards":"Denmark Hill Or Peckham"},{"icsId":"1014229","id":"490014229H","lat":51.47483,"lon":-0.09499,"name":"Warner Road","parentId":"490G00014229","stationId":"490G00014229","stopLetter":"H","topMostParentId":"490G00014229","towards":"Denmark Hill Or Peckham"},{"icsId":"1015299","id":"490015299K","lat":51.47423,"lon":-0.09169,"name":"Camberwell Church St / Camberwell Grn","parentId":"490G00015299","stationId":"490G00015299","stopLetter":"K","topMostParentId":"490G00015299","towards":"Peckham"},{"icsId":"1012713","id":"490012713E","lat":51.47362,"lon":-0.08797,"name":"St Giles Church","parentId":"490G00012713","stationId":"490G00012713","stopLetter":"->E","topMostParentId":"490G00012713","towards":"Dulwich Or New Cross"},{"icsId":"1012357","id":"490012357E1","lat":51.47371,"lon":-0.08457,"name":"Vestry Road","parentId":"490G00012357","stationId":"490G00012357","stopLetter":"N","topMostParentId":"490G00012357","towards":"Dulwich Or New Cross"},{"icsId":"1012248","id":"490012248E","lat":51.47418,"lon":-0.07847,"name":"Peckham Road / Southampton Way","parentId":"490G00012248","stationId":"490G00012248","stopLetter":"P","topMostParentId":"490G00012248","towards":"Dulwich Or New Cross"},{"icsId":"1014252","id":"490014252E","lat":51.47399,"lon":-0.07365,"name":"Harris Academy","parentId":"490G00014252","stationId":"490G00014252","stopLetter":"Q","topMostParentId":"490G00014252","towards":"Brockley, Dulwich Or New Cross"},{"icsId":"1010878","id":"490011842B","lat":51.47342,"lon":-0.07038,"name":"Peckham Library","parentId":"490G00010878","stationId":"490G00010878","stopLetter":"B","topMostParentId":"490G00010878","towards":"Brockley, Dulwich Or New Cross"},{"icsId":"1010882","id":"490010882G","lat":51.47403,"lon":-0.0667,"name":"Peckham Post Office","parentId":"490G00010882","stationId":"490G00010882","stopLetter":"G","topMostParentId":"490G00010882","towards":"New Cross Or Surrey Quays"},{"icsId":"1004799","id":"490004799QD","lat":51.47416,"lon":-0.06231,"name":"Carlton Grove","parentId":"490G00004799","stationId":"490G00004799","stopLetter":"QD","topMostParentId":"490G00004799","towards":"New Cross Or Surrey Quays"},{"icsId":"1001233","id":"490001233QN","lat":51.47343,"lon":-0.05669,"name":"Queen's Road Peckham Station","stopLetter":"QH","topMostParentId":"490001233QN","towards":"Brockley, Deptford Or Lewisham"},{"icsId":"1011088","id":"490011088QJ","lat":51.47303,"lon":-0.05352,"name":"Pomeroy Street","parentId":"490G00011088","stationId":"490G00011088","stopLetter":"QJ","topMostParentId":"490G00011088","towards":"Brockley, Deptford Or Lewisham"},{"icsId":"1010205","id":"490010205E","lat":51.47406,"lon":-0.04848,"name":"New Cross Fire Station","parentId":"490G00010205","stationId":"490G00010205","stopLetter":"B","topMostParentId":"490G00010205","towards":"Brockley, Deptford Or Lewisham"},{"icsId":"1010204","id":"490010204H","lat":51.4744,"lon":-0.04419,"name":"New Cross Bus Garage","parentId":"490G00010204","stationId":"490G00010204","stopLetter":"H","topMostParentId":"490G00010204","towards":"Lewisham"},{"icsId":"1000156","id":"490000156M","lat":51.47487,"lon":-0.04112,"name":"New Cross Gate Station","stopLetter":"M","topMostParentId":"490000156M","towards":"Lewisham"},{"icsId":"1009689","id":"490009689T","lat":51.47579,"lon":-0.03532,"name":"Marquis of Granby","parentId":"490G00009689","stationId":"490G00009689","stopLetter":"T","topMostParentId":"490G00009689","towards":"Lewisham Or Brockley Rise"},{"icsId":"1003298","id":"490003298S","lat":51.47334,"lon":-0.03214,"name":"Amersham Road","parentId":"490G00003298","stationId":"490G00003298","stopLetter":"B","topMostParentId":"490G00003298","towards":"Lewisham"},{"icsId":"1009530","id":"490009530S","lat":51.47162,"lon":-0.03038,"name":"Malpas Road","parentId":"490G00009530","stationId":"490G00009530","stopLetter":"B","topMostParentId":"490G00009530","towards":"Lewisham"},{"icsId":"1009441","id":"490009441E","lat":51.47044,"lon":-0.02889,"name":"Lucas Street","parentId":"490G00009441","stationId":"490G00009441","stopLetter":"C","topMostParentId":"490G00009441","towards":"Catford Or Lee Green"},{"icsId":"1009107","id":"490009107E","lat":51.46869,"lon":-0.02593,"name":"Lewisham College / Ashmead School","parentId":"490G000635","stationId":"490G000635","stopLetter":"SK","topMostParentId":"490G000635","towards":"Catford Or Lee Green"},{"icsId":"1013890","id":"490013890W","lat":51.46762,"lon":-0.02298,"name":"Tyrwhitt Road / St Johns Station","parentId":"490G00013890","stationId":"490G00013890","stopLetter":"SL","topMostParentId":"490G00013890","towards":"Catford Or Lee Green"},{"icsId":"1013896","id":"490013896E","lat":51.46601,"lon":-0.0196,"name":"Undercliff Road","parentId":"490G00013896","stationId":"490G00013896","stopLetter":"SN","topMostParentId":"490G00013896","towards":"Catford Or Lee Green"},{"icsId":"1008549","id":"490008549E","lat":51.4653,"lon":-0.0179,"name":"Loampit Vale / Jerrard Street","parentId":"490G00008549","stationId":"490G00008549","stopLetter":"SP","topMostParentId":"490G00008549","towards":"Catford Or Lee Green"},{"icsId":"1001177","id":"490001177E","lat":51.46463,"lon":-0.01361,"name":"Lewisham Station","stopLetter":"E","topMostParentId":"490001177E","towards":"Molesworth Street","zone":"2+3"},{"icsId":"1009963","id":"490009963S","lat":51.46006,"lon":-0.01267,"name":"Molesworth Street","parentId":"490G00009963","stationId":"490G00009963","stopLetter":"S","topMostParentId":"490G00009963","towards":"New Cross"}]}]}