{"direction":"inbound","lineId":"452","lineName":"452","mode":"bus","stopPointSequences":[{"stopPoint":[{"icsId":"1020252","id":"490000247G1","lat":51.48495,"lon":-0.12468,"name":"Vauxhall Bus Station","stopLetter":"G","topMostParentId":"490000247G1"},{"icsId":"1005678","id":"490005678X","lat":51.48347,"lon":-0.12698,"name":"Covent Garden Market East Side","parentId":"490G00005678","stationId":"490G00005678","stopLetter":"X","topMostParentId":"490G00005678","towards":"Brixton Or Clapham Junction"},{"icsId":"1002196","id":"490014679S","lat":51.48063,"lon":-0.1278,"name":"Nine Elms Station","stopLetter":"L","topMostParentId":"490014679S","towards":"Brixton Or Clapham Junction"},{"icsId":"1008969","id":"490008969S","lat":51.47668,"lon":-0.13031,"name":"Lansdowne Green","parentId":"490G00008969","stationId":"490G00008969","stopLetter":"M","topMostParentId":"490G00008969","towards":"Brixton Or Clapham Junction"},{"icsId":"1008978","id":"490008978N2","lat":51.47459,"lon":-0.13214,"name":"Larkhall Park","parentId":"490G00008978","stationId":"490G00008978","stopLetter":"N","topMostParentId":"490G00008978","towards":"Clapham Junction Or Patmore Estate"},{"icsId":"1013908","id":"490013908S","lat":51.47245,"lon":-0.13474,"name":"Union Road","parentId":"490G00013908","stationId":"490G00013908","stopLetter":"A","topMostParentId":"490G00013908","towards":"Clapham Junction"},{"icsId":"1010921","id":"490010921S","lat":51.47099,"lon":-0.13754,"name":"Wandsworth Road Station","parentId":"490G00010921","stationId":"490G00010921","stopLetter":"B","topMostParentId":"490G00010921"},{"icsId":"1001314","id":"490001310B","lat":51.46986,"lon":-0.14033,"name":"Westbury Street","parentId":"490G00001314","stationId":"490G00001314","stopLetter":"C","topMostParentId":"490G00001314","towards":"Sloane Square Or Clapham Junction"},{"icsId":"1012162","id":"490012162W","lat":51.46841,"lon":-0.14362,"name":"Silverthorne Road","parentId":"490G00012162","stationId":"490G00012162","stopLetter":"D","topMostParentId":"490G00012162","towards":"Sloane Square Or Clapham Junction"},{"icsId":"1008921","id":"490008921W","lat":51.467,"lon":-0.14712,"name":"The Chase","parentId":"490G00008921","stationId":"490G00008921","stopLetter":"E","topMostParentId":"490G00008921","towards":"Sloane Square Or Clapham Junction"},{"icsId":"1011360","id":"490011360W","lat":51.46632,"lon":-0.14965,"name":"Cedars Road","parentId":"490G00011360","stationId":"490G00011360","stopLetter":"F","topMostParentId":"490G00011360","towards":"Sloane Square Or Clapham Junction"},{"icsId":"1014192","id":"490014192N2","lat":51.46685,"lon":-0.15072,"name":"Queenstown Road / Wandsworth Road","parentId":"490G00014192","stationId":"490G00014192","stopLetter":"Q","topMostParentId":"490G00014192","towards":"Sloane Square Or Vauxhall"},{"icsId":"1011163","id":"490011163N","lat":51.47068,"lon":-0.14946,"name":"Prairie Street","parentId":"490G00011163","stationId":"490G00011163","stopLetter":"R","topMostParentId":"490G00011163","towards":"Sloane Square Or Vauxhall"},{"icsId":"1012161","id":"490012161N","lat":51.47284,"lon":-0.14854,"name":"Silverthorne Road","parentId":"490G00012161","stationId":"490G00012161","stopLetter":"S","topMostParentId":"490G00012161","towards":"Sloane Square Or Vauxhall"},{"icsId":"1001234","id":"490001234N","lat":51.47432,"lon":-0.14702,"name":"Queenstown Road Station","stopLetter":"K","topMostParentId":"490001234N","towards":"Sloane Square Or Vauxhall"},{"icsId":"1001016","id":"490001016D","lat":51.47695,"lon":-0.14846,"name":"Battersea Park Station","stopLetter":"D","topMostParentId":"490001016D","towards":"Sloane Square Or Victoria"},{"icsId":"1012235","id":"490012235N","lat":51.48015,"lon":-0.149,"name":"Sopwith Way","parentId":"490G00012235","stationId":"490G00012235","stopLetter":"E","topMostParentId":"490G00012235","towards":"Sloane Square Or Victoria"},{"icsId":"1005064","id":"490005064N","lat":51.48322,"lon":-0.14968,"name":"Battersea Park / Chelsea Gate","parentId":"490G00005064","stationId":"490G00005064","stopLetter":"CJ","topMostParentId":"490G00005064","towards":"Sloane Square Or Victoria"},{"icsId":"1009205","id":"490009205N","lat":51.48635,"lon":-0.1508,"name":"Lister Hospital","parentId":"490G00009205","stationId":"490G00009205","stopLetter":"CK","topMostParentId":"490G00009205","towards":"South Kensington, Knightsbridge Or Victoria"},{"icsId":"1005063","id":"490005063N","lat":51.48833,"lon":-0.15397,"name":"Royal Hospital Chelsea","parentId":"490G00005063","stationId":"490G00005063","stopLetter":"T","topMostParentId":"490G00005063","towards":"Knightsbridge Or South Kensington"},{"icsId":"1011764","id":"490011763N","lat":51.48995,"lon":-0.15647,"name":"Royal Hospital Road","parentId":"490G00011764","stationId":"490G00011764","stopLetter":"L","topMostParentId":"490G00011764","towards":"South Kensington, Fulham Or Knightsbridge"},{"icsId":"1000206","id":"490000206K","lat":51.49145,"lon":-0.15749,"name":"Sloane Square Station","stopLetter":"K","topMostParentId":"490000206K","towards":"South Kensington, Fulham Or Knightsbridge","zone":"1"},{"icsId":"1015175","id":"490015175A","lat":51.49333,"lon":-0.15799,"name":"Sloane Street / Sloane Square Station","parentId":"490G000868","stationId":"490G000868","stopLetter":"A","topMostParentId":"490G000868","towards":"Hyde Park Corner Or South Kensington"},{"icsId":"1011097","id":"490011097N","lat":51.49636,"lon":-0.15889,"name":"Pont Street","parentId":"490G00011097","stationId":"490G00011097","stopLetter":"KM","topMostParentId":"490G00011097","towards":"Hyde Park Corner Or South Kensington"},{"icsId":"1000130","id":"490000130K1","lat":51.5009,"lon":-0.16021,"name":"Knightsbridge Station","parentId":"940GZZLUKNB","stationId":"940GZZLUKNB","stopLetter":"KJ","topMostParentId":"940GZZLUKNB","towards":"Hyde Park Corner Or South Kensington","zone":"1"},{"icsId":"1007853","id":"490000130KE","lat":51.50163,"lon":-0.16191,"name":"Knightsbridge Station  / Harrods","stopLetter":"KE","topMostParentId":"490000130KE","towards":"Notting Hill Gate Or Olympia"},{"icsId":"1008875","id":"490011822W","lat":51.5017,"lon":-0.16604,"name":"Knightsbridge Barracks","parentId":"490G00008875","stationId":"490G00008875","stopLetter":"KF","topMostParentId":"490G00008875","towards":"Notting Hill Gate Or Olympia"},{"icsId":"1011198","id":"490011198W","lat":51.50184,"lon":-0.1693,"name":"Prince of Wales Gate","parentId":"490G00011198","stationId":"490G00011198","stopLetter":"RA","topMostParentId":"490G00011198","towards":"Notting Hill Gate Or Olympia"},{"icsId":"1006691","id":"490006691W","lat":51.50176,"lon":-0.17331,"name":"Exhibition Road","parentId":"490G00006691","stationId":"490G00006691","stopLetter":"RB","topMostParentId":"490G00006691","towards":"Notting Hill Gate Or Olympia"},{"icsId":"1011750","id":"490011750W","lat":51.50146,"lon":-0.17884,"name":"Royal Albert Hall","parentId":"490G00011750","stationId":"490G00011750","stopLetter":"RC","topMostParentId":"490G00011750","towards":"Hammersmith Or Notting Hill Gate"},{"icsId":"1010728","id":"490010728W","lat":51.50147,"lon":-0.18295,"name":"Palace Gate","parentId":"490G00010728","stationId":"490G00010728","stopLetter":"RE","topMostParentId":"490G00010728","towards":"Hammersmith Or Notting Hill Gate"},{"icsId":"1011761","id":"490011761N","lat":51.50224,"lon":-0.18776,"name":"Kensington Palace","parentId":"490G00011761","stationId":"490G00011761","stopLetter":"N","topMostParentId":"490G00011761","towards":"Hammersmith Or Notting Hill Gate"},{"icsId":"1008288","id":"490008288H","lat":51.5031,"lon":-0.19165,"name":"Kensington Church Street / Holland St","parentId":"490G00008288","stationId":"490G00008288","stopLetter":"H","topMostParentId":"490G00008288","towards":"Ladbroke Grove Or Westbourne Park"},{"icsId":"1012055","id":"490012055N","lat":51.50612,"lon":-0.19448,"name":"Sheffield Terrace","parentId":"490G00012055","stationId":"490G00012055","stopLetter":"X","topMostParentId":"490G00012055","towards":"Ladbroke Grove Or Westbourne Park"},{"icsId":"1000167","id":"490000167G","lat":51.50877,"lon":-0.1953,"name":"Notting Hill Gate Station","stopLetter":"G","topMostParentId":"490000167G","towards":"Ladbroke Grove Or Westbourne Park","zone":"1+2"},{"icsId":"1019160","id":"490000167A","lat":51.51011,"lon":-0.19841,"name":"Ladbroke Road","parentId":"490G00019160","stationId":"490G00019160","stopLetter":"A","topMostParentId":"490G00019160","towards":"Ladbroke Grove"},{"icsId":"1012550","id":"490012550N","lat":51.51208,"lon":-0.20221,"name":"Stanley Gardens","parentId":"490G00012550","stationId":"490G00012550","stopLetter":"PT","topMostParentId":"490G00012550","towards":"Ladbroke Grove"},{"icsId":"1003399","id":"490006476N","lat":51.51445,"lon":-0.20519,"name":"Portobello and Golborne Market","parentId":"490G00003399","stationId":"490G00003399","stopLetter":"PP","topMostParentId":"490G00003399","towards":"Kensal Rise Or Westbourne Park"},{"icsId":"1004099","id":"490004099N","lat":51.51475,"lon":-0.20823,"name":"Blenheim Crescent","parentId":"490G00004099","stationId":"490G00004099","stopLetter":"PR","topMostParentId":"490G00004099","towards":"Kensal Rise Or Westbourne Park"},{"icsId":"1000131","id":"490000131A","lat":51.51727,"lon":-0.21007,"name":"Ladbroke Grove Station","stopLetter":"A","topMostParentId":"490000131A","towards":"Westbourne Park, East Acton Or Kensal Rise","zone":"2"},{"icsId":"1005139","id":"490005139D","lat":51.51978,"lon":-0.21154,"name":"Chesterton Road","parentId":"490G00005139","stationId":"490G00005139","stopLetter":"D","topMostParentId":"490G00005139","towards":"East Acton,kensal Rise Or Westbourne Park"},{"icsId":"1008898","id":"490008898F","lat":51.52134,"lon":-0.21241,"name":"St Charles Square","parentId":"490G00008898","stationId":"490G00008898","stopLetter":"F","topMostParentId":"490G00008898","towards":"Kensal Rise, East Acton Or Maida Hill"},{"icsId":"1003619","id":"490003619M","lat":51.52343,"lon":-0.21364,"name":"Barlby Road","parentId":"490G00003619","stationId":"490G00003619","stopLetter":"M","topMostParentId":"490G00003619","towards":"East Acton, Kensal Rise Or Westbourne Park"},{"icsId":"1004737","id":"490004737R","lat":51.52554,"lon":-0.21487,"name":"Kensal House","parentId":"490G00004737","stationId":"490G00004737","stopLetter":"R","topMostParentId":"490G00004737","towards":"Kensal Rise Or Queens Park"},{"icsId":"1008897","id":"490008897T","lat":51.52569,"lon":-0.21552,"name":"Ladbroke Grove Sainsbury's","parentId":"490G00008897","stationId":"490G00008897","stopLetter":"T","topMostParentId":"490G00008897","towards":"Acton, Kilburn Or Willesden"}]}]}