{"direction":"inbound","lineId":"460","lineName":"460","mode":"bus","stopPointSequences":[{"stopPoint":[{"icsId":"1015443","id":"490015443P","lat":51.61266,"lon":-0.17691,"name":"North Finchley Bus Station","parentId":"490G00015443","stationId":"490G00015443","stopLetter":"P","topMostParentId":"490G00015443"},{"icsId":"1015271","id":"490015271S","lat":51.60999,"lon":-0.18089,"name":"Christchurch Avenue","parentId":"490G00015271","stationId":"490G00015271","stopLetter":"Q","topMostParentId":"490G00015271","towards":"Golders Green Or Hendon"},{"icsId":"1007373","id":"490007373F4","lat":51.60903,"lon":-0.18221,"name":"Granville Road","parentId":"490G00007373","stationId":"490G00007373","stopLetter":"LL","topMostParentId":"490G00007373","towards":"Golders Green Or Hendon"},{"icsId":"1006642","id":"490006642S","lat":51.60678,"lon":-0.18572,"name":"Victoria Park","parentId":"490G000508","stationId":"490G000508","stopLetter":"MM","topMostParentId":"490G000508","towards":"Golders Green Or Hendon"},{"icsId":"1009322","id":"490009322B","lat":51.60414,"lon":-0.18947,"name":"Long Lane","parentId":"490G00009322","stationId":"490G00009322","stopLetter":"B","topMostParentId":"490G00009322","towards":"Golders Green, Hendon Or Mill Hill East"},{"icsId":"1000081","id":"490000081D","lat":51.60225,"lon":-0.19232,"name":"Finchley Central Station","stopLetter":"D","topMostParentId":"490000081D","towards":"Golders Green, Hendon Or Mill Hill East","zone":"4"},{"icsId":"1008054","id":"490008054H","lat":51.59946,"lon":-0.19585,"name":"Hendon Lane","parentId":"490G00008054","stationId":"490G00008054","stopLetter":"H","topMostParentId":"490G00008054","towards":"Golders Green Or Hendon"},{"icsId":"1006337","id":"490006337S","lat":51.59791,"lon":-0.19734,"name":"East End Road","parentId":"490G00006337","stationId":"490G00006337","stopLetter":"S","topMostParentId":"490G00006337","towards":"Golders Green Or Hendon"},{"icsId":"1010079","id":"490010079S","lat":51.59411,"lon":-0.19888,"name":"Mountfield Road","parentId":"490G00010079","stationId":"490G00010079","stopLetter":"H","topMostParentId":"490G00010079","towards":"Golders Green"},{"icsId":"1005488","id":"490005488S","lat":51.59192,"lon":-0.1994,"name":"Allandale Avenue","parentId":"490G00005488","stationId":"490G00005488","stopLetter":"TA","topMostParentId":"490G00005488","towards":"Golders Green"},{"icsId":"1008069","id":"490008069S","lat":51.59051,"lon":-0.19964,"name":"Henlys Corner","parentId":"490G00008069","stationId":"490G00008069","stopLetter":"TB","topMostParentId":"490G00008069","towards":"Golders Green"},{"icsId":"1003108","id":"490003108S","lat":51.58793,"lon":-0.19977,"name":"Addison Way","parentId":"490G00003108","stationId":"490G00003108","stopLetter":"TC","topMostParentId":"490G00003108","towards":"Golders Green"},{"icsId":"1005162","id":"490005162S","lat":51.58461,"lon":-0.19981,"name":"Childs Way","parentId":"490G00005162","stationId":"490G00005162","stopLetter":"TD","topMostParentId":"490G00005162","towards":"Brent Cross, Cricklewood Or Swiss Cottage"},{"icsId":"1013192","id":"490013192S","lat":51.58155,"lon":-0.19887,"name":"Temple Fortune Lane","parentId":"490G00013192","stationId":"490G00013192","stopLetter":"TE","topMostParentId":"490G00013192","towards":"Brent Cross, Cricklewood Or Swiss Cottage"},{"icsId":"1005421","id":"490005421S","lat":51.58029,"lon":-0.19835,"name":"Clifton Gardens","parentId":"490G00005421","stationId":"490G00005421","stopLetter":"TF","topMostParentId":"490G00005421","towards":"Brent Cross, Cricklewood Or Swiss Cottage"},{"icsId":"1008343","id":"490008343S","lat":51.57668,"lon":-0.19687,"name":"Hoop Lane","parentId":"490G00008343","stationId":"490G00008343","stopLetter":"->S","topMostParentId":"490G00008343","towards":"Brent Cross, Cricklewood Or Swiss Cottage"},{"icsId":"1000087","id":"490015496GV","lat":51.57296,"lon":-0.19564,"name":"Golders Green Station","stopLetter":"GV","topMostParentId":"490015496GV","towards":"Brent Cross, Cricklewood Or Swiss Cottage","zone":"3"},{"icsId":"1007267","id":"490007267GL","lat":51.57096,"lon":-0.1952,"name":"Golders Green / Finchley Road","parentId":"490G00007267","stationId":"490G00007267","stopLetter":"GL","topMostParentId":"490G00007267","towards":"Cricklewood, Swiss Cottage Or West Hampstead"},{"icsId":"1006262","id":"490006262S","lat":51.56799,"lon":-0.19481,"name":"Dunstan Road","parentId":"490G00006262","stationId":"490G00006262","stopLetter":"A","topMostParentId":"490G00006262","towards":"Cricklewood, Swiss Cottage Or West Hampstead"},{"icsId":"1009232","id":"490009232S","lat":51.56531,"lon":-0.19619,"name":"Llanvanor Road","parentId":"490G00009232","stationId":"490G00009232","stopLetter":"B","topMostParentId":"490G00009232","towards":"Cricklewood, Swiss Cottage Or West Hampstead"},{"icsId":"1005160","id":"490005160S1","lat":51.56384,"lon":-0.19681,"name":"Childs Hill / Cricklewood Lane","parentId":"490G00005160","stationId":"490G00005160","stopLetter":"C","topMostParentId":"490G00005160","towards":"Cricklewood"},{"icsId":"1005161","id":"490005161W1","lat":51.56298,"lon":-0.19886,"name":"Childs Hill / Finchley Road","parentId":"490G00005161","stationId":"490G00005161","stopLetter":"H","topMostParentId":"490G00005161","towards":"Cricklewood"},{"icsId":"1009463","id":"490009463W","lat":51.56192,"lon":-0.2021,"name":"Lyndale Avenue","parentId":"490G00009463","stationId":"490G00009463","stopLetter":"J","topMostParentId":"490G00009463","towards":"Cricklewood"},{"icsId":"1008064","id":"490008058W","lat":51.56085,"lon":-0.20518,"name":"Farm Avenue","parentId":"490G00008064","stationId":"490G00008064","stopLetter":"->W","topMostParentId":"490G00008064","towards":"Neasden Or Willesden"},{"icsId":"1005775","id":"490005775W","lat":51.5604,"lon":-0.20833,"name":"Dersingham Road","parentId":"490G00005775","stationId":"490G00005775","stopLetter":"CN","topMostParentId":"490G00005775","towards":"Neasden Or Willesden"},{"icsId":"1005346","id":"490005346Z","lat":51.55904,"lon":-0.21082,"name":"Claremont Road","parentId":"490G000465","stationId":"490G000465","stopLetter":"CN","topMostParentId":"490G000465","towards":"Neasden Or Willesden"},{"icsId":"1005773","id":"490005773D","lat":51.55708,"lon":-0.21478,"name":"Cricklewood Broadway","parentId":"490G000473","stationId":"490G000473","stopLetter":"CW","topMostParentId":"490G000473","towards":"Kilburn, Neasden Or Willesden"},{"icsId":"1005771","id":"490005771E","lat":51.55537,"lon":-0.21613,"name":"Sheldon Road","parentId":"490G000472","stationId":"490G000472","stopLetter":"CX","topMostParentId":"490G000472","towards":"Willesden"},{"icsId":"1003338","id":"490003338S","lat":51.55337,"lon":-0.21768,"name":"Anson Road","parentId":"490G00003338","stationId":"490G00003338","stopLetter":"CZ","topMostParentId":"490G00003338","towards":"Harlesden"},{"icsId":"1000270","id":"490000270A","lat":51.54911,"lon":-0.22089,"name":"Willesden Green Station","stopLetter":"A","topMostParentId":"490000270A","towards":"Harlesden","zone":"2+3"},{"icsId":"1014706","id":"490014693D","lat":51.54776,"lon":-0.22378,"name":"Willesden Lane","parentId":"490G00014706","stationId":"490G00014706","stopLetter":"C","topMostParentId":"490G00014706","towards":"Harlesden"},{"icsId":"1014691","id":"490014691W1","lat":51.54723,"lon":-0.22806,"name":"Willesden Green Library","parentId":"490G00014691","stationId":"490G00014691","stopLetter":"K","topMostParentId":"490G00014691","towards":"Harlesden"},{"icsId":"1014088","id":"490014088W","lat":51.5473,"lon":-0.23393,"name":"Villiers Road","parentId":"490G00014088","stationId":"490G00014088","stopLetter":"T","topMostParentId":"490G00014088","towards":"Harlesden Or Neasden"},{"icsId":"1014687","id":"490014687W","lat":51.54831,"lon":-0.2379,"name":"Willesden Bus Garage","parentId":"490G00014687","stationId":"490G00014687","stopLetter":"WO","topMostParentId":"490G00014687","towards":"Harlesden"},{"icsId":"1014701","id":"490014687W1","lat":51.5486,"lon":-0.23995,"name":"Pound Lane","parentId":"490G00014701","stationId":"490G00014701","stopLetter":"WU","topMostParentId":"490G00014701","towards":"Harlesden"}]}]}