{"direction":"inbound","lineId":"465","lineName":"465","mode":"bus","stopPointSequences":[{"stopPoint":[{"icsId":"1006121","id":"40004408085A","lat":51.227134,"lon":-0.335522,"name":"Townfield Court","parentId":"400G4408085A","stationId":"400G4408085A","stopLetter":"S","topMostParentId":"400G4408085A"},{"icsId":"1000001","id":"40004408088A","lat":51.229672,"lon":-0.337536,"name":"Vincent Lane","topMostParentId":"40004408088A"},{"icsId":"1006128","id":"40004408110A","lat":51.231826,"lon":-0.335338,"name":"West Street","parentId":"400G4408110A","stationId":"400G4408110A","stopLetter":"Q","topMostParentId":"910GDRKGW"},{"icsId":"1006129","id":"40004408111A","lat":51.23282,"lon":-0.330046,"name":"White Horse","parentId":"400G4408111A","stationId":"400G4408111A","stopLetter":"N","topMostParentId":"400G4408111A"},{"icsId":"1006120","id":"40004408112B","lat":51.234417,"lon":-0.327209,"name":"Moores Road","parentId":"400G4408112A","stationId":"400G4408112A","stopLetter":"J","topMostParentId":"400G4408112A"},{"icsId":"1006125","id":"40004408113B","lat":51.235326,"lon":-0.324755,"name":"Dorking Council Offices","parentId":"400G4408113A","stationId":"400G4408113A","stopLetter":"G","topMostParentId":"400G4408113A"},{"icsId":"1000387","id":"40004408240B","lat":51.239303,"lon":-0.325528,"name":"Dorking Station","parentId":"400G4408240B","stationId":"400G4408240B","stopLetter":"A","topMostParentId":"910GDORKING"},{"icsId":"1007025","id":"40004408128A","lat":51.244365,"lon":-0.324857,"name":"Pixham Lane","parentId":"400G4408128A","stationId":"400G4408128A","topMostParentId":"400G4408128A","towards":"Headley Or Leatherhead"},{"icsId":"1014481","id":"40004408129A","lat":51.252215,"lon":-0.323597,"name":"Westhumble Street","parentId":"400G4408129A","stationId":"400G4408129A","topMostParentId":"910GBOXHAWH","towards":"Leatherhead"},{"icsId":"1004590","id":"40004408130B","lat":51.254999,"lon":-0.322077,"name":"Burford Bridge","parentId":"400G4408130B","stationId":"400G4408130B","stopLetter":"T","topMostParentId":"400G4408130B","towards":"Leatherhead"},{"icsId":"1013609","id":"40004408223A","lat":51.258392,"lon":-0.322871,"name":"Zig Zag Road","parentId":"400G4408016A","stationId":"400G4408016A","topMostParentId":"400G4408016A","towards":"Leatherhead"},{"icsId":"1008594","id":"40004408131A","lat":51.261652,"lon":-0.321978,"name":"Juniper Hall","parentId":"400G4408131A","stationId":"400G4408131A","topMostParentId":"400G4408131A","towards":"Leatherhead"},{"icsId":"1008595","id":"40004408239A","lat":51.263722,"lon":-0.324569,"name":"The Villa","parentId":"400G4408239A","stationId":"400G4408239A","topMostParentId":"400G4408239A","towards":"Leatherhead"},{"icsId":"1013546","id":"40004408132A","lat":51.267698,"lon":-0.324066,"name":"Mickleham Church","parentId":"400G4408132B","stationId":"400G4408132B","topMostParentId":"400G4408132B","towards":"Leatherhead"},{"icsId":"1004670","id":"40004408133A","lat":51.271429,"lon":-0.320862,"name":"Byttom Hill","parentId":"400G4408133A","stationId":"400G4408133A","topMostParentId":"400G4408133A","towards":"Leatherhead Or Malden Rushett"},{"icsId":"1007197","id":"40004408134A","lat":51.282375,"lon":-0.328493,"name":"Givons Roundabout","parentId":"400G4408134A","stationId":"400G4408134A","topMostParentId":"400G4408134A","towards":"Malden Rushett"},{"icsId":"1013528","id":"40004408172A","lat":51.282807,"lon":-0.350072,"name":"The Ridgeway","parentId":"400G4408172A","stationId":"400G4408172A","topMostParentId":"400G4408172A","towards":"Ashtead, Malden Rushett Or Woodbridge"},{"icsId":"1013461","id":"40004408173A","lat":51.285071,"lon":-0.344829,"name":"The Mount","parentId":"400G4408173B","stationId":"400G4408173B","topMostParentId":"400G4408173B","towards":"Ashtead, Malden Rushett Or Woodbridge"},{"icsId":"1007594","id":"40004408174A","lat":51.292143,"lon":-0.336873,"name":"Leatherhead Leisure Centre","parentId":"400G4408174B","stationId":"400G4408174B","topMostParentId":"400G4408174B","towards":"Ashtead Or Malden Rushett"},{"icsId":"1009043","id":"40004408175A","lat":51.294587,"lon":-0.331693,"name":"Bridge Street","parentId":"400G4408175A","stationId":"400G4408175A","stopLetter":"Q","topMostParentId":"400G4408175A","towards":"Ashtead Or Malden Rushett"},{"icsId":"1009044","id":"40004408176A","lat":51.295867,"lon":-0.331259,"name":"North Street","parentId":"400G4408176A","stationId":"400G4408176A","stopLetter":"R","topMostParentId":"910GLETHRHD","towards":"Ashtead Or Malden Rushett"},{"icsId":"1001510","id":"40004408237A","lat":51.298685,"lon":-0.33338,"name":"Leatherhead Station","parentId":"400G4408237B","stationId":"400G4408237B","stopLetter":"T","topMostParentId":"910GLETHRHD","towards":"Ashtead, Headley, Great Bookham Or Oxshott"},{"icsId":"1010795","id":"40004408187A","lat":51.299309,"lon":-0.330446,"name":"Park Rise","parentId":"400G4408187A","stationId":"400G4408187A","stopLetter":"N","topMostParentId":"910GLETHRHD","towards":"Ashtead, Malden Rushett Or Oxshott"},{"icsId":"1003244","id":"40004408188A","lat":51.302107,"lon":-0.329914,"name":"All Saints Church","parentId":"400G4408188A","stationId":"400G4408188A","topMostParentId":"400G4408188A","towards":"Ashtead, Malden Rushett Or Oxshott"},{"icsId":"1003253","id":"40004408189A","lat":51.307487,"lon":-0.331957,"name":"All Saints School","parentId":"400G4408189A","stationId":"400G4408189A","topMostParentId":"400G4408189A","towards":"Oxshott Or Malden Rushett"},{"icsId":"1013544","id":"40004408234A","lat":51.308898,"lon":-0.332537,"name":"Oak Road","parentId":"400G4408234A","stationId":"400G4408234A","topMostParentId":"400G4408234A","towards":"Oxshott Or Chessington"},{"icsId":"1011507","id":"40004408191A","lat":51.311388,"lon":-0.333738,"name":"Regent Park","parentId":"400G4408191A","stationId":"400G4408191A","topMostParentId":"400G4408191A","towards":"Oxshott Or Chessington"},{"icsId":"1010706","id":"40004408226A","lat":51.31384,"lon":-0.335457,"name":"Oxshott Road","parentId":"400G4408226B","stationId":"400G4408226B","topMostParentId":"400G4408226B","towards":"Hook Or Oxshott"},{"icsId":"1009045","id":"40004408192A","lat":51.321804,"lon":-0.3295,"name":"Leatherhead Golf Club","parentId":"400G4408192B","stationId":"400G4408192B","topMostParentId":"400G4408192B","towards":"Hook"},{"icsId":"1009525","id":"40004408959A","lat":51.326194,"lon":-0.327733,"name":"Malden Rushett / the Star","parentId":"400G4408959A","stationId":"400G4408959A","topMostParentId":"400G4408959A","towards":"Hook"},{"icsId":"1013552","id":"490013552N","lat":51.33778,"lon":-0.32013,"name":"Malden Rushett / Shy Horse","parentId":"490G00013552","stationId":"490G00013552","stopLetter":"->N","topMostParentId":"490G00013552","towards":"Hook"},{"icsId":"1011796","id":"490011796N","lat":51.34012,"lon":-0.31894,"name":"Rushett Lane","parentId":"490G00011796","stationId":"490G00011796","stopLetter":"->N","topMostParentId":"490G00011796","towards":"Hook"},{"icsId":"1020192","id":"490020192N","lat":51.34421,"lon":-0.31654,"name":"Chessington Garden Centre","parentId":"490G00020192","stationId":"490G00020192","stopLetter":"->N","topMostParentId":"490G00020192","towards":"Hook"},{"icsId":"1005121","id":"490005121X","lat":51.35019,"lon":-0.31336,"name":"Chessington World of Adventures","parentId":"490G00005121","stationId":"490G00005121","stopLetter":"X","topMostParentId":"490G00005121","towards":"Hook"},{"icsId":"1003663","id":"490003663X","lat":51.35358,"lon":-0.31236,"name":"Barwell Business Park","parentId":"490G00003663","stationId":"490G00003663","stopLetter":"U","topMostParentId":"490G00003663","towards":"Hook"},{"icsId":"1009048","id":"490009048C","lat":51.35575,"lon":-0.31186,"name":"Garrison Lane","parentId":"490G00009048","stationId":"490G00009048","stopLetter":"C","topMostParentId":"490G00009048","towards":"Hook"},{"icsId":"1006490","id":"490006490L","lat":51.36026,"lon":-0.31012,"name":"Ellingham Road","parentId":"490G00006490","stationId":"490G00006490","stopLetter":"L","topMostParentId":"490G00006490","towards":"Surbiton"},{"icsId":"1009615","id":"490009615P","lat":51.36392,"lon":-0.30836,"name":"Mansfield Road","parentId":"490G00009615","stationId":"490G00009615","stopLetter":"P","topMostParentId":"490G00009615","towards":"Surbiton"},{"icsId":"1013597","id":"490013597N","lat":51.36608,"lon":-0.30735,"name":"Holmwood Road","parentId":"490G00013597","stationId":"490G00013597","stopLetter":"W","topMostParentId":"490G00013597","towards":"Surbiton"},{"icsId":"1008338","id":"490008338N","lat":51.36803,"lon":-0.30663,"name":"Hook Parade","parentId":"490G00008338","stationId":"490G00008338","stopLetter":"HL","topMostParentId":"490G00008338","towards":"Surbiton"},{"icsId":"1013474","id":"490013474N","lat":51.37102,"lon":-0.3059,"name":"The North Star","parentId":"490G00013474","stationId":"490G00013474","stopLetter":"HM","topMostParentId":"490G00013474","towards":"Surbiton"},{"icsId":"1006501","id":"490006501N","lat":51.37365,"lon":-0.30471,"name":"Elmcroft Drive","parentId":"490G00006501","stationId":"490G00006501","stopLetter":"HN","topMostParentId":"490G00006501","towards":"Surbiton"},{"icsId":"1007205","id":"490007205N","lat":51.37605,"lon":-0.30383,"name":"Southborough High School","parentId":"490G00007205","stationId":"490G00007205","stopLetter":"HP","topMostParentId":"490G00007205","towards":"Surbiton"},{"icsId":"1013628","id":"490013628N","lat":51.3793,"lon":-0.30222,"name":"Thornhill Road","parentId":"490G00013628","stationId":"490G00013628","stopLetter":"HQ","topMostParentId":"490G00013628","towards":"Surbiton"},{"icsId":"1019714","id":"490013457N","lat":51.38243,"lon":-0.30087,"name":"The Maypole","parentId":"490G00019714","stationId":"490G00019714","stopLetter":"HR","topMostParentId":"490G00019714","towards":"Surbiton"},{"icsId":"1008949","id":"490008949N","lat":51.3861,"lon":-0.30077,"name":"Langley Avenue","parentId":"490G00008949","stationId":"490G00008949","stopLetter":"SA","topMostParentId":"490G00008949","towards":"Kingston"},{"icsId":"1010075","id":"490010075N","lat":51.38809,"lon":-0.30319,"name":"Mountcombe Close","parentId":"490G00010075","stationId":"490G00010075","stopLetter":"SB","topMostParentId":"490G00010075","towards":"Kingston"},{"icsId":"1009395","id":"490009395N","lat":51.39042,"lon":-0.30763,"name":"Lovelace Gardens","parentId":"490G00009395","stationId":"490G00009395","stopLetter":"SC","topMostParentId":"490G00009395","towards":"Kingston"},{"icsId":"1013036","id":"490013036H","lat":51.3916,"lon":-0.30865,"name":"Surbiton Sainsbury's","parentId":"490G00013036","stationId":"490G00013036","stopLetter":"NA","topMostParentId":"490G00013036","towards":"Kingston"},{"icsId":"1001285","id":"490001285C","lat":51.39291,"lon":-0.30542,"name":"Surbiton Station","stopLetter":"NB","topMostParentId":"490001285C","towards":"Kingston"},{"icsId":"1019769","id":"490015165A","lat":51.39391,"lon":-0.30462,"name":"Claremont Road / Surbiton Station","parentId":"490G000949","stationId":"490G000949","stopLetter":"NC","topMostParentId":"490G000949","towards":"Kingston"},{"icsId":"1013315","id":"490013315N","lat":51.39626,"lon":-0.30415,"name":"The Crescent","parentId":"490G00013315","stationId":"490G00013315","stopLetter":"ND","topMostParentId":"490G00013315","towards":"Kingston Or Hampton Wick"},{"icsId":"1009627","id":"490009627N","lat":51.39861,"lon":-0.30458,"name":"Maple Road","parentId":"490G00009627","stationId":"490G00009627","stopLetter":"D","topMostParentId":"490G00009627","towards":"Kingston Or Hampton Wick"},{"icsId":"1013035","id":"490013035N","lat":51.40124,"lon":-0.30402,"name":"Surbiton Road / Penrhyn Road","parentId":"490G00013035","stationId":"490G00013035","stopLetter":"UE","topMostParentId":"490G00013035","towards":"Kingston Or Hampton Wick"},{"icsId":"1013037","id":"490013037W","lat":51.403,"lon":-0.30693,"name":"Surbiton Road / Milestone House","parentId":"490G00013037","stationId":"490G00013037","stopLetter":"US","topMostParentId":"490G00013037","towards":"Kingston"},{"icsId":"1006364","id":"490006364N","lat":51.40635,"lon":-0.30828,"name":"East Lane","parentId":"490G00006364","stationId":"490G00006364","stopLetter":"UV","topMostParentId":"490G00006364","towards":"Kingston"},{"icsId":"1007595","id":"490007595K","lat":51.40888,"lon":-0.30664,"name":"Guildhall / Rose Theatre","parentId":"490G00007595","stationId":"490G00007595","stopLetter":"K","topMostParentId":"490G00007595","towards":"Kingston Hospital Or Ham"},{"icsId":"1006412","id":"490006412E3","lat":51.41046,"lon":-0.30236,"name":"Eden Street","parentId":"490G00006412","stationId":"490G00006412","stopLetter":"E3","topMostParentId":"490G00006412","towards":"Ham Or Richmond"},{"icsId":"1005800","id":"490005800A2","lat":51.41236,"lon":-0.29887,"name":"Cromwell Road Bus Station","parentId":"490G000476","stationId":"490G000476","stopLetter":"A2","topMostParentId":"490G000476","towards":"Kingston Vale, New Malden Or Raynes Park"}]}]}