{"direction":"inbound","lineId":"468","lineName":"468","mode":"bus","stopPointSequences":[{"stopPoint":[{"icsId":"1004158","id":"490003871DS","lat":51.49903,"lon":-0.09934,"name":"Borough Road","parentId":"490G00004158","stationId":"490G00004158","stopLetter":"->W","topMostParentId":"490G00004158","towards":"Camberwell"},{"icsId":"1009281","id":"490009281D","lat":51.49663,"lon":-0.102,"name":"Elephant & Castle / London Road","parentId":"490G000642","stationId":"490G000642","stopLetter":"D","topMostParentId":"490G000642","towards":"Camberwell Green"},{"icsId":"1000073","id":"490000073R","lat":51.49224,"lon":-0.09814,"name":"Elephant & Castle Station","stopLetter":"R","topMostParentId":"490000073R","towards":"Brixton, Peckham Or Camberwell Green","zone":"1+2"},{"icsId":"1008975","id":"490008975S","lat":51.49045,"lon":-0.09696,"name":"Larcom Street","parentId":"490G00008975","stationId":"490G00008975","stopLetter":"B","topMostParentId":"490G00008975","towards":"Camberwell Green"},{"icsId":"1006380","id":"490006380E","lat":51.48705,"lon":-0.09508,"name":"East Street","parentId":"490G00006380","stationId":"490G00006380","stopLetter":"E","topMostParentId":"490G00006380","towards":"Camberwell Green"},{"icsId":"1014501","id":"490014501K","lat":51.48493,"lon":-0.09367,"name":"Westmoreland Road","parentId":"490G00014501","stationId":"490G00014501","stopLetter":"K","topMostParentId":"490G00014501","towards":"Dulwich Or Herne Hill"},{"icsId":"1003138","id":"490003138N","lat":51.48142,"lon":-0.09435,"name":"Camberwell Road / Albany Road","parentId":"490G00003138","stationId":"490G00003138","stopLetter":"N","topMostParentId":"490G00003138","towards":"Brixton, Dulwich Or Herne Hill"},{"icsId":"1004221","id":"490004221S","lat":51.47977,"lon":-0.09419,"name":"Bowyer Place","parentId":"490G00004221","stationId":"490G00004221","stopLetter":"N","topMostParentId":"490G00004221","towards":"Brixton, Dulwich Or Herne Hill"},{"icsId":"1009784","id":"490009784B","lat":51.47769,"lon":-0.0939,"name":"Medlar Street","parentId":"490G00009784","stationId":"490G00009784","stopLetter":"B","topMostParentId":"490G00009784","towards":"Brixton, Herne Hill Or Peckham"},{"icsId":"1004687","id":"490004687Q","lat":51.47322,"lon":-0.09305,"name":"Denmark Hill / Camberwell Green","parentId":"490G00004687","stationId":"490G00004687","stopLetter":"Q","topMostParentId":"490G00004687","towards":"Brixton Or Herne Hill"},{"icsId":"1005464","id":"490005464V","lat":51.47107,"lon":-0.0929,"name":"Coldharbour Lane","parentId":"490G00005464","stationId":"490G00005464","stopLetter":"V","topMostParentId":"490G00005464","towards":"Tulse Hill Or East Dulwich"},{"icsId":"1008764","id":"490008764H4","lat":51.4693,"lon":-0.09234,"name":"King's College Hospital","parentId":"490G00008764","stationId":"490G00008764","stopLetter":"A","topMostParentId":"490G00008764","towards":"Tulse Hill"},{"icsId":"1004973","id":"490004973S","lat":51.46499,"lon":-0.09013,"name":"Champion Hill","parentId":"490G00004973","stationId":"490G00004973","stopLetter":"K","topMostParentId":"490G00004973","towards":"Tulse Hill"},{"icsId":"1004092","id":"490004092S","lat":51.46303,"lon":-0.09074,"name":"Blanchedowne","parentId":"490G00004092","stationId":"490G00004092","stopLetter":"L","topMostParentId":"490G00004092","towards":"Tulse Hill"},{"icsId":"1013027","id":"490013027S","lat":51.46158,"lon":-0.09171,"name":"Deepdene Road","parentId":"490G00013027","stationId":"490G00013027","stopLetter":"M","topMostParentId":"490G00013027","towards":"Tulse Hill"},{"icsId":"1011491","id":"490011491S","lat":51.45914,"lon":-0.09448,"name":"Herne Hill Road","parentId":"490G00011491","stationId":"490G00011491","stopLetter":"->S","topMostParentId":"490G00011491","towards":"Tulse Hill"},{"icsId":"1006992","id":"490006992S","lat":51.45756,"lon":-0.09558,"name":"Frankfurt Road","parentId":"490G00006992","stationId":"490G00006992","stopLetter":"U","topMostParentId":"490G00006992","towards":"Tulse Hill"},{"icsId":"1008294","id":"490008294S","lat":51.45601,"lon":-0.09779,"name":"Hollingbourne Road","parentId":"490G00008294","stationId":"490G00008294","stopLetter":"V","topMostParentId":"490G00008294","towards":"Tulse Hill"},{"icsId":"1012877","id":"490012877S","lat":51.45485,"lon":-0.09988,"name":"St Paul's Church","parentId":"490G00012877","stationId":"490G00012877","stopLetter":"W","topMostParentId":"490G00012877","towards":"Tulse Hill"},{"icsId":"1001149","id":"490015248C","lat":51.45331,"lon":-0.10099,"name":"Herne Hill Station","stopLetter":"C","topMostParentId":"490015248C","towards":"Tulse Hill"},{"icsId":"1004403","id":"490004403F","lat":51.45188,"lon":-0.10124,"name":"Brockwell Park","parentId":"490G000428","stationId":"490G000428","stopLetter":"F","topMostParentId":"490G000428","towards":"West Norwood"},{"icsId":"1011701","id":"490011701S","lat":51.44812,"lon":-0.10256,"name":"Rosendale Road","parentId":"490G00011701","stationId":"490G00011701","stopLetter":"P","topMostParentId":"490G00011701","towards":"West Norwood"},{"icsId":"1004404","id":"490004404S","lat":51.44624,"lon":-0.10488,"name":"Brockwell Park Gardens","parentId":"490G00004404","stationId":"490G00004404","stopLetter":"R","topMostParentId":"490G00004404","towards":"West Norwood"},{"icsId":"1006058","id":"490006058S","lat":51.44388,"lon":-0.10487,"name":"Deronda Road","parentId":"490G00006058","stationId":"490G00006058","stopLetter":"->S","topMostParentId":"490G00006058","towards":"West Norwood"},{"icsId":"1013656","id":"490013656C","lat":51.4415,"lon":-0.10604,"name":"Thurlow Park Road","parentId":"490G00013656","stationId":"490G00013656","stopLetter":"C","topMostParentId":"490G00013656","towards":"West Norwood"},{"icsId":"1001298","id":"490001298G","lat":51.43943,"lon":-0.10612,"name":"Tulse Hill Station","stopLetter":"G","topMostParentId":"490001298G","towards":"Crown Point Or Crystal Palace"},{"icsId":"1014508","id":"490014508H","lat":51.43779,"lon":-0.10554,"name":"Elmcourt Road","parentId":"490G00014508","stationId":"490G00014508","stopLetter":"H","topMostParentId":"490G00014508","towards":"Crown Point Or Crystal Palace"},{"icsId":"1008927","id":"490008927L","lat":51.43574,"lon":-0.10411,"name":"Lancaster Avenue","parentId":"490G00008927","stationId":"490G00008927","stopLetter":"L","topMostParentId":"490G00008927","towards":"Crown Point Or Crystal Palace"},{"icsId":"1013670","id":"490013655P","lat":51.43402,"lon":-0.10364,"name":"Norwood Road / Robson Road","parentId":"490G00013670","stationId":"490G00013670","stopLetter":"P","topMostParentId":"490G00013670","towards":"Crown Point Or Crystal Palace"},{"icsId":"1001331","id":"490001331T","lat":51.43166,"lon":-0.10254,"name":"West Norwood Station","stopLetter":"T","topMostParentId":"490001331T","towards":"Crown Point Or Crystal Palace"},{"icsId":"1010444","id":"490010444W","lat":51.42952,"lon":-0.10355,"name":"Norwood Bus Garage","parentId":"490G00010444","stationId":"490G00010444","stopLetter":"U","topMostParentId":"490G00010444","towards":"Upper Norwood"},{"icsId":"1011726","id":"490011726S","lat":51.4289,"lon":-0.10429,"name":"Rothschild Street","parentId":"490G00011726","stationId":"490G00011726","stopLetter":"V","topMostParentId":"490G00011726","towards":"Upper Norwood"},{"icsId":"1012969","id":"490012969S","lat":51.42686,"lon":-0.10481,"name":"West Norwood Fire Station","parentId":"490G00012969","stationId":"490G00012969","stopLetter":"CP","topMostParentId":"490G00012969","towards":"Upper Norwood"},{"icsId":"1007066","id":"490007066S","lat":51.42388,"lon":-0.10532,"name":"Furneaux Avenue","parentId":"490G00007066","stationId":"490G00007066","stopLetter":"CR","topMostParentId":"490G00007066","towards":"Upper Norwood"},{"icsId":"1005839","id":"490005839S","lat":51.42201,"lon":-0.10602,"name":"Crown Point / Beulah Hill","parentId":"490G00005839","stationId":"490G00005839","stopLetter":"CQ","topMostParentId":"490G00005839","towards":"Crystal Palace Or Thornton Heath"},{"icsId":"1007430","id":"490007430S","lat":51.42042,"lon":-0.10643,"name":"Grecian Crescent","parentId":"490G00007430","stationId":"490G00007430","stopLetter":"->S","topMostParentId":"490G00007430","towards":"Crystal Palace Or Thornton Heath"},{"icsId":"1003992","id":"490003992S","lat":51.41882,"lon":-0.10365,"name":"Biggin Hill","parentId":"490G00003992","stationId":"490G00003992","stopLetter":"SA","topMostParentId":"490G00003992","towards":"Crystal Palace, Norwood Junction Or Thornton Heath"},{"icsId":"1005559","id":"490005559S","lat":51.41822,"lon":-0.10059,"name":"Convent Hill","parentId":"490G00005559","stationId":"490G00005559","stopLetter":"SB","topMostParentId":"490G00005559","towards":"Crystal Palace Or Thornton Heath"},{"icsId":"1015337","id":"490015337S","lat":51.41639,"lon":-0.09656,"name":"Hermitage Road","parentId":"490G00015337","stationId":"490G00015337","stopLetter":"SC","topMostParentId":"490G00015337","towards":"Crystal Palace Or Thornton Heath"},{"icsId":"1003959","id":"490003959S","lat":51.41424,"lon":-0.0925,"name":"Beulah Spa","parentId":"490G00003959","stationId":"490G00003959","stopLetter":"SD","topMostParentId":"490G00003959","towards":"Crystal Palace Or Thornton Heath"},{"icsId":"1013929","id":"490013929S","lat":51.41267,"lon":-0.0888,"name":"Upper Beulah Hill","parentId":"490G00013929","stationId":"490G00013929","stopLetter":"SK","topMostParentId":"490G00013929","towards":"Crystal Palace Or Thornton Heath"},{"icsId":"1003242","id":"490003242S","lat":51.41098,"lon":-0.08738,"name":"Beulah Hill / All Saints Church","parentId":"490G00003242","stationId":"490G00003242","stopLetter":"SL","topMostParentId":"490G00003242","towards":"Crystal Palace, Croydon Or South Norwood"},{"icsId":"1007344","id":"490007344S","lat":51.40832,"lon":-0.08634,"name":"Grange Avenue","parentId":"490G00007344","stationId":"490G00007344","stopLetter":"SQ","topMostParentId":"490G00007344","towards":"South Norwood Or West Croydon"},{"icsId":"1014227","id":"490014227S","lat":51.40692,"lon":-0.08503,"name":"Wharncliffe Gardens","parentId":"490G00014227","stationId":"490G00014227","stopLetter":"SR","topMostParentId":"490G00014227","towards":"South Norwood Or West Croydon"},{"icsId":"1011718","id":"490011718S","lat":51.40555,"lon":-0.08306,"name":"Ross Road","parentId":"490G00011718","stationId":"490G00011718","stopLetter":"ST","topMostParentId":"490G00011718","towards":"South Norwood Or West Croydon"},{"icsId":"1014601","id":"490014601S","lat":51.40367,"lon":-0.08196,"name":"Nugent Road","parentId":"490G00014601","stationId":"490G00014601","stopLetter":"SP","topMostParentId":"490G00014601","towards":"West Croydon"},{"icsId":"1014621","id":"490014621S","lat":51.40142,"lon":-0.08417,"name":"Whitworth Road","parentId":"490G00014621","stationId":"490G00014621","stopLetter":"->S","topMostParentId":"490G00014621","towards":"West Croydon"},{"icsId":"1010818","id":"490010818S","lat":51.3992,"lon":-0.08643,"name":"Selhurst Park Stadium","parentId":"490G00010818","stationId":"490G00010818","stopLetter":"->S","topMostParentId":"490G00010818","towards":"West Croydon Or Thornton Heath"},{"icsId":"1005424","id":"490005424R","lat":51.39815,"lon":-0.0911,"name":"Clifton Road","parentId":"490G00005424","stationId":"490G00005424","stopLetter":"R","topMostParentId":"490G00005424","towards":"West Croydon Or Thornton Heath"},{"icsId":"1015026","id":"490015026N","lat":51.39661,"lon":-0.09246,"name":"Talbot Road","parentId":"490G00015026","stationId":"490G00015026","stopLetter":"N","topMostParentId":"490G00015026","towards":"Croydon Town Centre"},{"icsId":"1010868","id":"490010868S","lat":51.39311,"lon":-0.09376,"name":"Pawsons Road","parentId":"490G00010868","stationId":"490G00010868","stopLetter":"P","topMostParentId":"490G00010868","towards":"Croydon Town Centre"},{"icsId":"1016652","id":"490016652S","lat":51.38998,"lon":-0.09498,"name":"Beaconsfield Road / Legacy Youth Zone","parentId":"490G00016652","stationId":"490G00016652","stopLetter":"Q","topMostParentId":"490G00016652","towards":"Croydon Town Centre"},{"icsId":"1010350","id":"490010343S","lat":51.38764,"lon":-0.09615,"name":"Northcote Road / Legacy Youth Zone","parentId":"490G00010350","stationId":"490G00010350","stopLetter":"R","topMostParentId":"490G00010350","towards":"South Croydon"},{"icsId":"1019785","id":"490013376S","lat":51.38576,"lon":-0.09708,"name":"Cromwell Road","parentId":"490G00019785","stationId":"490G00019785","stopLetter":"H","topMostParentId":"490G00019785","towards":"South Croydon Or Waddon"},{"icsId":"1008271","id":"490015451S","lat":51.38327,"lon":-0.09826,"name":"Hogarth Crescent","parentId":"490G00008271","stationId":"490G00008271","stopLetter":"R","topMostParentId":"490G00008271","towards":"South Croydon Or Waddon"},{"icsId":"1012794","id":"490012794W10","lat":51.38021,"lon":-0.09961,"name":"St Mary's Church / West Croydon","parentId":"490G00012794","stationId":"490G00012794","stopLetter":"WG","topMostParentId":"490G00012794","towards":"South Croydon"},{"icsId":"1014614","id":"490014614E10","lat":51.3769,"lon":-0.09844,"name":"Whitgift Centre","parentId":"490G00014614","stationId":"490G00014614","stopLetter":"WK","topMostParentId":"490G00014614","towards":"South Croydon"},{"icsId":"1010839","id":"490010839C4","lat":51.37343,"lon":-0.09822,"name":"Park Street","parentId":"490G00010839","stationId":"490G00010839","stopLetter":"KJ","topMostParentId":"490G00010839","towards":"South Croydon"},{"icsId":"1005855","id":"490005855C14","lat":51.37126,"lon":-0.10032,"name":"Croydon Flyover","parentId":"490G00005855","stationId":"490G00005855","stopLetter":"KN","topMostParentId":"490G00005855","towards":"Selsdon Or Waddon"},{"icsId":"1005574","id":"490005574S","lat":51.36821,"lon":-0.0992,"name":"Coombe Road","parentId":"490G00005574","stationId":"490G00005574","stopLetter":"W","topMostParentId":"490G00005574","towards":"Purley, Selsdon Or Waddon"},{"icsId":"1013269","id":"490013269S","lat":51.36589,"lon":-0.09897,"name":"Aberdeen Road","parentId":"490G00013269","stationId":"490G00013269","stopLetter":"S","topMostParentId":"490G00013269","towards":"Purley, Selsdon Or Waddon"},{"icsId":"1013101","id":"490013100L","lat":51.36354,"lon":-0.09934,"name":"Warham Road / Brighton Road","parentId":"490G00013101","stationId":"490G00013101","stopLetter":"L","topMostParentId":"490G00013101","towards":"Croydon Airport Or Purley"}]}]}