{"direction":"inbound","lineId":"469","lineName":"469","mode":"bus","stopPointSequences":[{"stopPoint":[{"icsId":"1005817","id":"490005817H","lat":51.48077,"lon":0.17968,"name":"Erith Town Centre / Riverside","parentId":"490G00005817","stationId":"490G00005817","stopLetter":"H","topMostParentId":"490G00005817","towards":"Bexleyheath Or Woolwich"},{"icsId":"1006623","id":"490006623E","lat":51.48128,"lon":0.17741,"name":"Walnut Tree Road","parentId":"490G00006623","stationId":"490G00006623","stopLetter":"E","topMostParentId":"490G00006623","towards":"Belvedere"},{"icsId":"1006621","id":"490006621F","lat":51.4831,"lon":0.1772,"name":"Erith High Street","parentId":"490G000507","stationId":"490G000507","stopLetter":"F","topMostParentId":"490G000507","towards":"Abbey Wood Or Belvedere"},{"icsId":"1009725","id":"490009725W","lat":51.48529,"lon":0.17289,"name":"Maxim Road / the Ship","parentId":"490G00009725","stationId":"490G00009725","stopLetter":"->W","topMostParentId":"490G00009725","towards":"Abbey Wood Or Belvedere"},{"icsId":"1012687","id":"490012687W","lat":51.48669,"lon":0.17076,"name":"St Francis Road","parentId":"490G00012687","stationId":"490G00012687","stopLetter":"->W","topMostParentId":"490G00012687","towards":"Abbey Wood Or Belvedere"},{"icsId":"1005279","id":"490005279W","lat":51.48805,"lon":0.16882,"name":"Lower Road / Church Manorway","parentId":"490G00005279","stationId":"490G00005279","stopLetter":"->W","topMostParentId":"490G00005279","towards":"Abbey Wood"},{"icsId":"1009739","id":"490009739W","lat":51.49022,"lon":0.16178,"name":"Mayfield Road","parentId":"490G00009739","stationId":"490G00009739","stopLetter":"->W","topMostParentId":"490G00009739","towards":"Abbey Wood"},{"icsId":"1011112","id":"490011112W","lat":51.49019,"lon":0.15876,"name":"Poplar Mount","parentId":"490G00011112","stationId":"490G00011112","stopLetter":"->W","topMostParentId":"490G00011112","towards":"Abbey Wood"},{"icsId":"1007688","id":"490007688W","lat":51.49004,"lon":0.15658,"name":"Halt Robin Lane","parentId":"490G00007688","stationId":"490G00007688","stopLetter":"G","topMostParentId":"490G00007688","towards":"Abbey Wood"},{"icsId":"1003880","id":"490003880A","lat":51.49061,"lon":0.15229,"name":"Lower Road / Belvedere Station","parentId":"490G00003880","stationId":"490G00003880","stopLetter":"H","topMostParentId":"490G00003880","towards":"Abbey Wood Or Bexleyheath"},{"icsId":"1007689","id":"490007689S","lat":51.48788,"lon":0.14971,"name":"Halt Robin Road","parentId":"490G00007689","stationId":"490G00007689","stopLetter":"L","topMostParentId":"490G00007689","towards":"Abbey Wood Or Bexleyheath"},{"icsId":"1003882","id":"490003882S","lat":51.48482,"lon":0.14849,"name":"Eardley Road","parentId":"490G00003882","stationId":"490G00003882","stopLetter":"M","topMostParentId":"490G00003882","towards":"Abbey Wood Or Bexleyheath"},{"icsId":"1013342","id":"490013342W","lat":51.48379,"lon":0.14142,"name":"The Eardley Arms","parentId":"490G00013342","stationId":"490G00013342","stopLetter":"->W","topMostParentId":"490G00013342","towards":"Abbey Wood & Plumstead"},{"icsId":"1013583","id":"490013583W","lat":51.48343,"lon":0.13726,"name":"The View","parentId":"490G00013583","stationId":"490G00013583","stopLetter":"->W","topMostParentId":"490G00013583","towards":"Abbey Wood & Woolwich"},{"icsId":"1003803","id":"490003803W","lat":51.48151,"lon":0.13256,"name":"Woolwich Road / Bedonwell Road","parentId":"490G00003803","stationId":"490G00003803","stopLetter":"G","topMostParentId":"490G00003803","towards":"Abbey Wood & Plumstead"},{"icsId":"1016307","id":"490016307N","lat":51.48214,"lon":0.1264,"name":"Hurst Lane","parentId":"490G00016307","stationId":"490G00016307","stopLetter":"E","topMostParentId":"490G00016307","towards":"Plumstead Or Thamesmead"},{"icsId":"1016308","id":"490016308N","lat":51.4882,"lon":0.12541,"name":"Woodland Way","parentId":"490G00016308","stationId":"490G00016308","stopLetter":"->N","topMostParentId":"490G00016308","towards":"Plumstead Or Thamesmead"},{"icsId":"1006877","id":"490006877L","lat":51.48969,"lon":0.1227,"name":"Abbey Wood / Florence Road","parentId":"490G000518","stationId":"490G000518","stopLetter":"L","topMostParentId":"490G000518","towards":"Plumstead Or Thamesmead"},{"icsId":"1003039","id":"490003039G","lat":51.48936,"lon":0.12143,"name":"Abbey Wood Road","parentId":"490G000378","stationId":"490G000378","stopLetter":"G","topMostParentId":"490G000378","towards":"Plumstead Or Thamesmead"},{"icsId":"1001001","id":"490001001Y","lat":51.49163,"lon":0.12143,"name":"Abbey Wood Station","stopLetter":"C","topMostParentId":"490001001Y","towards":"Plumstead Or Thamesmead"},{"icsId":"1019881","id":"490013257A","lat":51.49449,"lon":0.12108,"name":"Harrow Manorway / Lensbury Way","parentId":"490G00019881","stationId":"490G00019881","stopLetter":"A","topMostParentId":"490G00019881","towards":"Plumstead Or Thamesmead"},{"icsId":"1015210","id":"490015210W","lat":51.49619,"lon":0.11892,"name":"Eynsham Drive / Harrow Manor Way","parentId":"490G00015210","stationId":"490G00015210","stopLetter":"R","topMostParentId":"490G00015210","towards":"Plumstead"},{"icsId":"1013264","id":"490013264N","lat":51.49714,"lon":0.11508,"name":"The Birchwood","parentId":"490G00013264","stationId":"490G00013264","stopLetter":"->N","topMostParentId":"490G00013264","towards":"Plumstead"},{"icsId":"1003038","id":"490012529W","lat":51.49789,"lon":0.11256,"name":"Abbey Wood Pumping Station","parentId":"490G00003038","stationId":"490G00003038","stopLetter":"->W","topMostParentId":"490G00003038","towards":"Plumstead"},{"icsId":"1006062","id":"490006062W","lat":51.49669,"lon":0.10883,"name":"Devenish Road","parentId":"490G00006062","stationId":"490G00006062","stopLetter":"->W","topMostParentId":"490G00006062","towards":"Plumstead"},{"icsId":"1005280","id":"490005280W","lat":51.49543,"lon":0.10483,"name":"Sewell Road / Church Manorway","parentId":"490G00005280","stationId":"490G00005280","stopLetter":"T","topMostParentId":"490G00005280","towards":"Plumstead"},{"icsId":"1010742","id":"490010742E","lat":51.4932,"lon":0.10426,"name":"St Pauls Academy","parentId":"490G00010742","stationId":"490G00010742","stopLetter":"->E","topMostParentId":"490G00010742","towards":"Plumstead"},{"icsId":"1003040","id":"490003040E","lat":51.49418,"lon":0.10893,"name":"Penmon Road","parentId":"490G00003040","stationId":"490G00003040","stopLetter":"->E","topMostParentId":"490G00003040","towards":"Plumstead"},{"icsId":"1003026","id":"490003026S","lat":51.49483,"lon":0.11218,"name":"Finchale Road / Eynsham Drive","parentId":"490G00003026","stationId":"490G00003026","stopLetter":"->S","topMostParentId":"490G00003026","towards":"Plumstead"},{"icsId":"1004957","id":"490004957W","lat":51.49392,"lon":0.11202,"name":"Chalcombe Road","parentId":"490G00004957","stationId":"490G00004957","stopLetter":"->W","topMostParentId":"490G00004957","towards":"Plumstead"},{"icsId":"1006774","id":"490006774W","lat":51.49351,"lon":0.11095,"name":"Felixstowe Road","parentId":"490G00006774","stationId":"490G00006774","stopLetter":"->W","topMostParentId":"490G00006774","towards":"Plumstead"},{"icsId":"1004110","id":"490004110W","lat":51.48943,"lon":0.10798,"name":"Eynsham Drive / Blithdale Road","parentId":"490G00004110","stationId":"490G00004110","stopLetter":"->W","topMostParentId":"490G00004110","towards":"Plumstead"},{"icsId":"1014859","id":"490014859W","lat":51.48879,"lon":0.10517,"name":"Woodhurst Road","parentId":"490G00014859","stationId":"490G00014859","stopLetter":"->W","topMostParentId":"490G00014859","towards":"Woolwich"},{"icsId":"1004449","id":"490004449W","lat":51.48858,"lon":0.10395,"name":"Brookdene Road","parentId":"490G00004449","stationId":"490G00004449","stopLetter":"WA","topMostParentId":"490G00004449","towards":"Woolwich"},{"icsId":"1005261","id":"490005261S","lat":51.4867,"lon":0.10157,"name":"Bannockburn School","parentId":"490G00005261","stationId":"490G00005261","stopLetter":"WB","topMostParentId":"490G00005261","towards":"Woolwich"},{"icsId":"1011075","id":"490011075W1","lat":51.48566,"lon":0.1007,"name":"Plumstead Corner / Rockmount Road","parentId":"490G00011075","stationId":"490G00011075","stopLetter":"WE","topMostParentId":"490G00011075","towards":"Woolwich"},{"icsId":"1001969","id":"490011077W","lat":51.48661,"lon":0.09601,"name":"Plumstead High St / the Plumstead Centre","parentId":"490G000293","stationId":"490G000293","stopLetter":"WH","topMostParentId":"490G000293","towards":"Woolwich"},{"icsId":"1003584","id":"490003584O","lat":51.48719,"lon":0.0932,"name":"Bannockburn Road","parentId":"490G00003584","stationId":"490G00003584","stopLetter":"WJ","topMostParentId":"490G00003584","towards":"Woolwich"},{"icsId":"1008908","id":"490008908S","lat":51.48784,"lon":0.09045,"name":"Lakedale Road","parentId":"490G00008908","stationId":"490G00008908","stopLetter":"WK","topMostParentId":"490G00008908","towards":"Woolwich"},{"icsId":"1019871","id":"490001227F","lat":51.49033,"lon":0.08381,"name":"Plumstead Road / Plumstead Station","parentId":"490G000959","stationId":"490G000959","stopLetter":"WL","topMostParentId":"490G000959","towards":"Woolwich"},{"icsId":"1014924","id":"490014924D","lat":51.4909,"lon":0.08027,"name":"Greenwich Community College","parentId":"490G00014924","stationId":"490G00014924","stopLetter":"WP","topMostParentId":"490G00014924","towards":"Queen Elizabeth Hosp, Charlton Or Shooters Hill"},{"icsId":"1009723","id":"490009723W","lat":51.49087,"lon":0.07687,"name":"Maxey Road","parentId":"490G00009723","stationId":"490G00009723","stopLetter":"->W","topMostParentId":"490G00009723","towards":"Queen Elizabeth Hosp, Charlton Or Shooters Hill"},{"icsId":"1002162","id":"490014934W","lat":51.49119,"lon":0.07072,"name":"Woolwich","parentId":"910GWOLWXR","stationId":"910GWOLWXR","stopLetter":"Z","topMostParentId":"910GWOLWXR","towards":"Blackheath Or Queen Elizabeth Hospital"},{"icsId":"1001344","id":"490001344J","lat":51.48965,"lon":0.06812,"name":"Woolwich Arsenal Station","stopLetter":"J","topMostParentId":"490001344J","towards":"Queen Elizabeth Hospital Or Shooters Hill"},{"icsId":"1005370","id":"490005370S","lat":51.48613,"lon":0.06487,"name":"Claydown Mews","parentId":"490G00005370","stationId":"490G00005370","stopLetter":"E","topMostParentId":"490G00005370","towards":"Shooters Hill Or Queen Elizabeth Hospital"},{"icsId":"1007601","id":"490007601S","lat":51.4843,"lon":0.06273,"name":"Gunner Lane","parentId":"490G00007601","stationId":"490G00007601","stopLetter":"F","topMostParentId":"490G00007601","towards":"Queen Elizabeth Hospital Or Shooters Hill"},{"icsId":"1019873","id":"490010273W","lat":51.48214,"lon":0.06081,"name":"Haha Road / Grand Depot Road","parentId":"490G00019873","stationId":"490G00019873","stopLetter":"Y","topMostParentId":"490G00019873","towards":"Blackheath, Eltham Or Kidbrooke"},{"icsId":"1011309","id":"490011309H2","lat":51.47862,"lon":0.05221,"name":"Queen Elizabeth Hospital / Main Entrance","parentId":"490G00011309","stationId":"490G00011309","stopLetter":"H2","topMostParentId":"490G00011309"},{"icsId":"1011307","id":"490011307S","lat":51.47683,"lon":0.05111,"name":"Queen Elizabeth Hospital / West Entrance","parentId":"490G00011307","stationId":"490G00011307","stopLetter":"->S","topMostParentId":"490G00011307"}]}]}