{"direction":"inbound","lineId":"481","lineName":"481","mode":"bus","stopPointSequences":[{"stopPoint":[{"icsId":"1014494","id":"490014493HE","lat":51.47223,"lon":-0.32511,"name":"West London Mental Health Trust","parentId":"490G00014494","stationId":"490G00014494","stopLetter":"HE","topMostParentId":"490G00014494","towards":"Hounslow Or Whitton"},{"icsId":"1014493","id":"490014493E","lat":51.47399,"lon":-0.32565,"name":"West Middlesex Hospital","parentId":"490G00014493","stationId":"490G00014493","stopLetter":"HA","topMostParentId":"490G00014493","towards":"Hounslow, Twickenham Or Whitton"},{"icsId":"1014503","id":"490014493S","lat":51.47437,"lon":-0.32706,"name":"Twickenham Rd / West Middlesex Hospital","parentId":"490G00014503","stationId":"490G00014503","stopLetter":"HB","topMostParentId":"490G00014503","towards":"Hounslow, Twickenham Or Whitton"},{"icsId":"1009538","id":"490009538S","lat":51.47227,"lon":-0.32774,"name":"Mandeville Road","parentId":"490G00009538","stationId":"490G00009538","stopLetter":"TF","topMostParentId":"490G00009538","towards":"Hounslow, Twickenham Or Whitton"},{"icsId":"1008512","id":"490008512TH","lat":51.47016,"lon":-0.32818,"name":"Isleworth War Memorial","parentId":"490G00008512","stationId":"490G00008512","stopLetter":"TH","topMostParentId":"490G00008512","towards":"Richmond, Twickenham Or Whitton"},{"icsId":"1008511","id":"490014954TM","lat":51.46694,"lon":-0.32959,"name":"Isleworth Library","parentId":"490G00008511","stationId":"490G00008511","stopLetter":"TM","topMostParentId":"490G00008511","towards":"Twickenham  Ivybridge Or Whitton"},{"icsId":"1004260","id":"490004260S","lat":51.46523,"lon":-0.33047,"name":"Brantwood Avenue","parentId":"490G00004260","stationId":"490G00004260","stopLetter":"->S","topMostParentId":"490G00004260","towards":"Twickenham  Ivybridge Or Whitton"},{"icsId":"1003580","id":"490003580S","lat":51.46292,"lon":-0.33169,"name":"Lynton Close","parentId":"490G00003580","stationId":"490G00003580","stopLetter":"A","topMostParentId":"490G00003580","towards":"Twickenham  Ivybridge Or Whitton"},{"icsId":"1013872","id":"490013872W","lat":51.46034,"lon":-0.33261,"name":"Briar Close","parentId":"490G00013872","stationId":"490G00013872","stopLetter":"H","topMostParentId":"490G00013872","towards":"Whitton"},{"icsId":"1013876","id":"490013876S","lat":51.45904,"lon":-0.33971,"name":"Twickenham Tesco","parentId":"490G00013876","stationId":"490G00013876","stopLetter":"F","topMostParentId":"490G00013876","towards":"Hounslow Or Whitton"},{"icsId":"1014011","id":"490014011S","lat":51.45876,"lon":-0.34021,"name":"Varsity Drive","parentId":"490G00014011","stationId":"490G00014011","stopLetter":"J","topMostParentId":"490G00014011","towards":"Whitton"},{"icsId":"1018533","id":"490018533S","lat":51.45657,"lon":-0.33993,"name":"Twickenham Trading Estate","parentId":"490G00018533","stationId":"490G00018533","stopLetter":"K","topMostParentId":"490G00018533","towards":"Whitton and Fulwell"},{"icsId":"1013873","id":"490013873W","lat":51.45467,"lon":-0.3398,"name":"Twickenham Stadium","parentId":"490G00013873","stationId":"490G00013873","stopLetter":"N","topMostParentId":"490G00013873","towards":"Fulwell Or Hounslow"},{"icsId":"1013875","id":"490013875W","lat":51.454,"lon":-0.34306,"name":"Tayben Avenue","parentId":"490G00013875","stationId":"490G00013875","stopLetter":"P","topMostParentId":"490G00013875","towards":"Fulwell Or Hounslow"},{"icsId":"1008869","id":"490008869W","lat":51.45368,"lon":-0.34722,"name":"Kneller Hall","parentId":"490G00008869","stationId":"490G00008869","stopLetter":"Q","topMostParentId":"490G00008869","towards":"Fulwell Or Hounslow"},{"icsId":"1008870","id":"490008870S","lat":51.45522,"lon":-0.35378,"name":"Kneller Road","parentId":"490G00008870","stationId":"490G00008870","stopLetter":"S","topMostParentId":"490G00008870","towards":"Fulwell Or Twickenham"},{"icsId":"1014629","id":"490014629D","lat":51.45355,"lon":-0.35649,"name":"The Admiral Nelson / Whitton","parentId":"490G00014629","stationId":"490G00014629","stopLetter":"W","topMostParentId":"490G00014629","towards":"Fulwell Or Hounslow"},{"icsId":"1014637","id":"490014637W","lat":51.45297,"lon":-0.35935,"name":"Whitton Library","parentId":"490G00014637","stationId":"490G00014637","stopLetter":"N","topMostParentId":"490G00014637","towards":"Fulwell"},{"icsId":"1005558","id":"490005558W","lat":51.45254,"lon":-0.36577,"name":"Constance Road","parentId":"490G00005558","stationId":"490G00005558","stopLetter":"T","topMostParentId":"490G00005558","towards":"Fulwell"},{"icsId":"1018715","id":"490018715S","lat":51.44966,"lon":-0.36672,"name":"Montrose Avenue","parentId":"490G00018715","stationId":"490G00018715","stopLetter":"->S","topMostParentId":"490G00018715","towards":"Fulwell"}]},{"stopPoint":[{"icsId":"1018715","id":"490018715S","lat":51.44966,"lon":-0.36672,"name":"Montrose Avenue","parentId":"490G00018715","stationId":"490G00018715","stopLetter":"->S","topMostParentId":"490G00018715","towards":"Fulwell"},{"icsId":"1018717","id":"490018717S","lat":51.44798,"lon":-0.36632,"name":"Ashley Drive","parentId":"490G00018717","stationId":"490G00018717","stopLetter":"->S","topMostParentId":"490G00018717","towards":"Fulwell"},{"icsId":"1009310","id":"490018718S","lat":51.44604,"lon":-0.36578,"name":"Longford Road","parentId":"490G00009310","stationId":"490G00009310","stopLetter":"->S","topMostParentId":"490G00009310","towards":"Fulwell"},{"icsId":"1007995","id":"490007995S","lat":51.44379,"lon":-0.36514,"name":"Whitton Corner Health & Social Care Ctr","parentId":"490G00007995","stationId":"490G00007995","stopLetter":"E","topMostParentId":"490G00007995","towards":"Fulwell Or Twickenham"},{"icsId":"1014715","id":"490014715S","lat":51.44012,"lon":-0.36324,"name":"Willow Way","parentId":"490G00014715","stationId":"490G00014715","stopLetter":"F","topMostParentId":"490G00014715","towards":"Fulwell Or Twickenham"},{"icsId":"1012487","id":"490012487E","lat":51.43874,"lon":-0.36019,"name":"Staines Road","parentId":"490G00012487","stationId":"490G00012487","stopLetter":"G","topMostParentId":"490G00012487","towards":"Teddington Or Twickenham"},{"icsId":"1006828","id":"490006828E","lat":51.43647,"lon":-0.35414,"name":"Fielding Avenue","parentId":"490G00006828","stationId":"490G00006828","stopLetter":"K","topMostParentId":"490G00006828","towards":"Teddington Or Twickenham"},{"icsId":"1012333","id":"490012333EB","lat":51.43581,"lon":-0.34943,"name":"South Road / Fulwell","parentId":"490G00012333","stationId":"490G00012333","stopLetter":"G","topMostParentId":"490G00012333","towards":"Kingston"},{"icsId":"1001113","id":"490005445D","lat":51.43388,"lon":-0.34629,"name":"Fulwell Station","stopLetter":"D","topMostParentId":"490005445D","towards":"Kingston Or Strawberry Vale"},{"icsId":"1011215","id":"490011215S2","lat":51.43094,"lon":-0.3454,"name":"Princes Road","parentId":"490G00011215","stationId":"490G00011215","stopLetter":"->S","topMostParentId":"490G00011215","towards":"Kingston Or Strawberry Vale"},{"icsId":"1007249","id":"490007249S","lat":51.42887,"lon":-0.3427,"name":"Gloucester Road","parentId":"490G00007249","stationId":"490G00007249","stopLetter":"P","topMostParentId":"490G00007249","towards":"Kingston Or Strawberry Vale"},{"icsId":"1013176","id":"490013176S","lat":51.42692,"lon":-0.34041,"name":"Teddington Memorial Hospital","parentId":"490G00013176","stationId":"490G00013176","stopLetter":"Q","topMostParentId":"490G00013176","towards":"Kingston Or Strawberry Vale"},{"icsId":"1004377","id":"490004377E","lat":51.42607,"lon":-0.33686,"name":"Broad Street / Teddington","parentId":"490G00004377","stationId":"490G00004377","stopLetter":"E","topMostParentId":"490G00004377","towards":"Kingston Or Twickenham"},{"icsId":"1013178","id":"490013178H","lat":51.42503,"lon":-0.33456,"name":"Teddington Police Station","parentId":"490G00013178","stationId":"490G00013178","stopLetter":"H","topMostParentId":"490G00013178","towards":"Hampton Wick"},{"icsId":"1009505","id":"490009505S","lat":51.42217,"lon":-0.33442,"name":"Maddison Close","parentId":"490G00009505","stationId":"490G00009505","stopLetter":"->S","topMostParentId":"490G00009505","towards":"Kingston"},{"icsId":"1018858","id":"490018858E","lat":51.42083,"lon":-0.33202,"name":"Avenue Road","parentId":"490G00018858","stationId":"490G00018858","topMostParentId":"490G00018858","towards":"Kingston"},{"icsId":"1012023","id":"490012023S","lat":51.42,"lon":-0.3276,"name":"Shaef Way","parentId":"490G00012023","stationId":"490G00012023","stopLetter":"->S","topMostParentId":"490G00012023","towards":"Kingston"},{"icsId":"1004656","id":"490004656S","lat":51.41788,"lon":-0.32127,"name":"Bushy Park Road","parentId":"490G00004656","stationId":"490G00004656","stopLetter":"M","topMostParentId":"490G00004656","towards":"Kingston"},{"icsId":"1004914","id":"490004914S","lat":51.41538,"lon":-0.31799,"name":"Vicarage Road","parentId":"490G00004914","stationId":"490G00004914","stopLetter":"N","topMostParentId":"490G00004914","towards":"Kingston"},{"icsId":"1018859","id":"490018859S","lat":51.41292,"lon":-0.31427,"name":"Park Road","parentId":"490G00018859","stationId":"490G00018859","stopLetter":"S","topMostParentId":"490G00018859","towards":"Kingston"},{"icsId":"1007741","id":"490007741C","lat":51.41138,"lon":-0.31179,"name":"Church Grove / the King's Field","parentId":"490G00007741","stationId":"490G00007741","stopLetter":"P","topMostParentId":"490G00007741","towards":"Kingston"},{"icsId":"1003909","id":"490003909N","lat":51.41155,"lon":-0.30583,"name":"Kingston / Wood Street","parentId":"490G00003909","stationId":"490G00003909","stopLetter":"N","topMostParentId":"490G00003909","towards":"Surbiton Or New Malden"},{"icsId":"1005800","id":"490005800A2","lat":51.41236,"lon":-0.29887,"name":"Cromwell Road Bus Station","parentId":"490G000476","stationId":"490G000476","stopLetter":"A2","topMostParentId":"490G000476","towards":"Kingston Vale, New Malden Or Raynes Park"}]},{"stopPoint":[{"id":"490002377XX","lat":51.45024,"lon":-0.36799,"name":"Turing House School Grounds","stopLetter":"->S","topMostParentId":"490002377XX"},{"icsId":"1018715","id":"490018715S","lat":51.44966,"lon":-0.36672,"name":"Montrose Avenue","parentId":"490G00018715","stationId":"490G00018715","stopLetter":"->S","topMostParentId":"490G00018715","towards":"Fulwell"}]}]}