{"direction":"inbound","lineId":"484","lineName":"484","mode":"bus","stopPointSequences":[{"stopPoint":[{"icsId":"1004687","id":"490004687P","lat":51.47357,"lon":-0.09295,"name":"Denmark Hill / Camberwell Green","parentId":"490G00004687","stationId":"490G00004687","stopLetter":"P","topMostParentId":"490G00004687","towards":"East Dulwich"},{"icsId":"1005464","id":"490005464V","lat":51.47107,"lon":-0.0929,"name":"Coldharbour Lane","parentId":"490G00005464","stationId":"490G00005464","stopLetter":"V","topMostParentId":"490G00005464","towards":"Tulse Hill Or East Dulwich"},{"icsId":"1008764","id":"490008764H3","lat":51.4684,"lon":-0.09168,"name":"King's College Hospital","parentId":"490G00008764","stationId":"490G00008764","stopLetter":"B","topMostParentId":"490G00008764","towards":"East Dulwich"},{"icsId":"1001083","id":"490001083H7","lat":51.46808,"lon":-0.0888,"name":"Denmark Hill Station","stopLetter":"C","topMostParentId":"490001083H7","towards":"Dulwich Or Peckham Rye"},{"icsId":"1015829","id":"490015829S","lat":51.46792,"lon":-0.08628,"name":"Grove Lane / Champion Park","parentId":"490G00015829","stationId":"490G00015829","stopLetter":"D","topMostParentId":"490G00015829","towards":"Dulwich Or Peckham Rye"},{"icsId":"1004972","id":"490004972S","lat":51.46624,"lon":-0.0853,"name":"Champion Grove","parentId":"490G00004972","stationId":"490G00004972","stopLetter":"E","topMostParentId":"490G00004972","towards":"Dulwich Or Peckham Rye"},{"icsId":"1006094","id":"490006094S","lat":51.46473,"lon":-0.08359,"name":"Champion Hill","parentId":"490G00006094","stationId":"490G00006094","stopLetter":"F","topMostParentId":"490G00006094","towards":"Dulwich Or Peckham Rye"},{"icsId":"1015847","id":"490015830S","lat":51.46277,"lon":-0.08141,"name":"Quorn Road","parentId":"490G00015847","stationId":"490G00015847","stopLetter":"L","topMostParentId":"490G00015847","towards":"North Dulwich, Dulwich Or Peckham Rye"},{"icsId":"1001090","id":"490001090S","lat":51.46157,"lon":-0.0797,"name":"East Dulwich Station","stopLetter":"E","topMostParentId":"490001090S","towards":"North Dulwich, Dulwich Or Peckham Rye"},{"icsId":"1010595","id":"490010595F","lat":51.46143,"lon":-0.07611,"name":"Ondine Road","parentId":"490G00010595","stationId":"490G00010595","stopLetter":"F","topMostParentId":"490G00010595","towards":"North Dulwich, Dulwich Or Peckham Rye"},{"icsId":"1007299","id":"490007299G","lat":51.46119,"lon":-0.07353,"name":"East Dulwich Road / Goose Green","parentId":"490G00007299","stationId":"490G00007299","stopLetter":"G","topMostParentId":"490G00007299","towards":"Brockley Or Peckham"},{"icsId":"1010490","id":"490010490E","lat":51.46191,"lon":-0.06969,"name":"Oakhurst Grove","parentId":"490G00010490","stationId":"490G00010490","stopLetter":"WH","topMostParentId":"490G00010490","towards":"Brockley Or Peckham"},{"icsId":"1008809","id":"490008807E","lat":51.4623,"lon":-0.0676,"name":"East Dulwich Road / Peckham Rye","parentId":"490G00008809","stationId":"490G00008809","stopLetter":"WJ","topMostParentId":"490G00008809","towards":"Brockley Or Peckham"},{"icsId":"1010888","id":"490010886E","lat":51.46267,"lon":-0.06551,"name":"Peckham Rye Common","parentId":"490G00010888","stationId":"490G00010888","stopLetter":"ED","topMostParentId":"490G00010888","towards":"Lewisham"},{"icsId":"1012221","id":"490012221E","lat":51.46077,"lon":-0.0613,"name":"Solomon's Passage","parentId":"490G00012221","stationId":"490G00012221","stopLetter":"EF","topMostParentId":"490G00012221","towards":"Lewisham Or New Cross"},{"icsId":"1011841","id":"490011841E","lat":51.45937,"lon":-0.05777,"name":"Rye Hill Park","parentId":"490G00011841","stationId":"490G00011841","stopLetter":"EH","topMostParentId":"490G00011841","towards":"Lewisham Or New Cross"},{"icsId":"1012957","id":"490012957E","lat":51.45806,"lon":-0.05374,"name":"Stuart Road","parentId":"490G00012957","stationId":"490G00012957","stopLetter":"EJ","topMostParentId":"490G00012957","towards":"Lewisham Or New Cross"},{"icsId":"1013043","id":"490013043E","lat":51.45637,"lon":-0.0505,"name":"Surrey Road","parentId":"490G00013043","stationId":"490G00013043","stopLetter":"->E","topMostParentId":"490G00013043","towards":"Lewisham Or New Cross"},{"icsId":"1008494","id":"490008493E1","lat":51.45693,"lon":-0.04553,"name":"Merttins Road","parentId":"490G00008494","stationId":"490G00008494","stopLetter":"->E","topMostParentId":"490G00008494","towards":"Honor Oak, Lewisham Or New Cross"},{"icsId":"1012820","id":"490012820N","lat":51.45791,"lon":-0.04417,"name":"St Norbert Road","parentId":"490G00012820","stationId":"490G00012820","stopLetter":"->N","topMostParentId":"490G00012820","towards":"Lewisham Or New Cross"},{"icsId":"1013851","id":"490013851N","lat":51.46026,"lon":-0.04379,"name":"Turnham Road","parentId":"490G00013851","stationId":"490G00013851","stopLetter":"->N","topMostParentId":"490G00013851","towards":"Lewisham Or New Cross"},{"icsId":"1004389","id":"490004389BN","lat":51.46142,"lon":-0.04368,"name":"Brockill Crescent","parentId":"490G00004389","stationId":"490G00004389","stopLetter":"BN","topMostParentId":"490G00004389","towards":"Lewisham Or New Cross"},{"icsId":"1012604","id":"490012604BL","lat":51.46381,"lon":-0.04392,"name":"St Asaph Road","parentId":"490G00012604","stationId":"490G00012604","stopLetter":"BL","topMostParentId":"490G00012604","towards":"Lewisham Or New Cross"},{"icsId":"1006190","id":"490006190BK","lat":51.46579,"lon":-0.04389,"name":"Avignon Road / Drakefell Road","parentId":"490G00006190","stationId":"490G00006190","stopLetter":"BK","topMostParentId":"490G00006190","towards":"Lewisham Or New Cross"},{"icsId":"1008859","id":"490008859N","lat":51.4675,"lon":-0.04405,"name":"Kitto Road","parentId":"490G00008859","stationId":"490G00008859","stopLetter":"->N","topMostParentId":"490G00008859","towards":"Lewisham Or New Cross"},{"icsId":"1014133","id":"490014133E","lat":51.46852,"lon":-0.04209,"name":"Wallbutton Road","parentId":"490G00014133","stationId":"490G00014133","stopLetter":"->E","topMostParentId":"490G00014133","towards":"Lewisham"},{"icsId":"1015283","id":"490015283BH","lat":51.46575,"lon":-0.03818,"name":"Endwell Road","parentId":"490G00015283","stationId":"490G00015283","stopLetter":"BH","topMostParentId":"490G00015283","towards":"Lewisham"},{"icsId":"1004393","id":"490004393E","lat":51.46373,"lon":-0.03497,"name":"Brockley Delivery Office","parentId":"490G00004393","stationId":"490G00004393","stopLetter":"BC","topMostParentId":"490G00004393","towards":"Lewisham"},{"icsId":"1014653","id":"490014653E","lat":51.46389,"lon":-0.03177,"name":"Wickham Road","parentId":"490G00014653","stationId":"490G00014653","topMostParentId":"490G00014653","towards":"Lewisham"},{"icsId":"1004274","id":"490004274E","lat":51.46318,"lon":-0.02915,"name":"Breakspears Road","parentId":"490G00004274","stationId":"490G00004274","stopLetter":"->E","topMostParentId":"490G00004274","towards":"Lewisham"},{"icsId":"1013791","id":"490013791S","lat":51.46254,"lon":-0.02849,"name":"Tressillian Road","parentId":"490G00013791","stationId":"490G00013791","stopLetter":"->S","topMostParentId":"490G00013791","towards":"Lewisham"},{"icsId":"1013889","id":"490013889E","lat":51.4625,"lon":-0.02614,"name":"Tyrwhitt Road","parentId":"490G00013889","stationId":"490G00013889","stopLetter":"->E","topMostParentId":"490G00013889","towards":"Lewisham"},{"icsId":"1004446","id":"490004446N","lat":51.46282,"lon":-0.02413,"name":"Brookbank Road","parentId":"490G00004446","stationId":"490G00004446","stopLetter":"->N","topMostParentId":"490G00004446","towards":"Lewisham"},{"icsId":"1012059","id":"490012059S","lat":51.46268,"lon":-0.02135,"name":"Shell Road / Brookbank Road","parentId":"490G00012059","stationId":"490G00012059","stopLetter":"->S","topMostParentId":"490G00012059","towards":"Lewisham"},{"icsId":"1005418","id":"490005418S","lat":51.46106,"lon":-0.02106,"name":"Cliffview Road","parentId":"490G00005418","stationId":"490G00005418","stopLetter":"->S","topMostParentId":"490G00005418","towards":"Lewisham"},{"icsId":"1019937","id":"490001175S","lat":51.45751,"lon":-0.02007,"name":"Vicars Hill / Ladywell Station","parentId":"490G00019937","stationId":"490G00019937","stopLetter":"HW","topMostParentId":"490G00019937","towards":"Lewisham"},{"icsId":"1009114","id":"490009114E","lat":51.45667,"lon":-0.01629,"name":"Wearside Road","parentId":"490G00009114","stationId":"490G00009114","stopLetter":"HB","topMostParentId":"490G00009114","towards":"Lewisham"},{"icsId":"1009111","id":"490009111HK","lat":51.45707,"lon":-0.01391,"name":"Lewisham Fire Station","parentId":"490G00009111","stationId":"490G00009111","stopLetter":"HK","topMostParentId":"490G00009111","towards":"Lewisham"},{"icsId":"1016170","id":"490016170N1","lat":51.46055,"lon":-0.01314,"name":"Molesworth Street / Riverdale House","parentId":"490G00016170","stationId":"490G00016170","stopLetter":"O","topMostParentId":"490G00016170","towards":"Blackheath, Deptford Or Greenwich"},{"icsId":"1001177","id":"490001177U","lat":51.4649,"lon":-0.01305,"name":"Lewisham Station","stopLetter":"AP","topMostParentId":"490001177U","zone":"2+3"}]}]}