{"direction":"inbound","lineId":"492","lineName":"492","mode":"bus","stopPointSequences":[{"stopPoint":[{"icsId":"1004120","id":"2400A070090A","lat":51.43758,"lon":0.275854,"name":"Bluewater Shopping Centre","parentId":"240G070000A","stationId":"240G070000A","stopLetter":"10","topMostParentId":"240G070000A"},{"icsId":"1019868","id":"2400A018740A","lat":51.447885,"lon":0.275921,"name":"Waterstone Park","topMostParentId":"2400A018740A"},{"icsId":"1014788","id":"2400A018750A","lat":51.446969,"lon":0.270276,"name":"Winston Close","topMostParentId":"2400A018750A"},{"icsId":"1014867","id":"2400A018760A","lat":51.446219,"lon":0.263029,"name":"The Bull","parentId":"240GA018880A","stationId":"240GA018880A","topMostParentId":"910GSTCR"},{"icsId":"1006518","id":"2400A018770A","lat":51.445538,"lon":0.259628,"name":"Elm Road","topMostParentId":"2400A018770A"},{"icsId":"1015723","id":"2400A018780A","lat":51.44386,"lon":0.25009,"name":"Welsh Tavern","topMostParentId":"2400A018780A"},{"icsId":"1015721","id":"2400A018790A","lat":51.442907,"lon":0.244891,"name":"Brent School","topMostParentId":"2400A018790A"},{"icsId":"1009877","id":"2400A018800A","lat":51.442566,"lon":0.24063,"name":"Milestone Road","topMostParentId":"2400A018800A"},{"icsId":"1019121","id":"2400A018810A","lat":51.442106,"lon":0.236477,"name":"Brentfield Road","topMostParentId":"2400A018810A"},{"icsId":"1015726","id":"2400A019260A","lat":51.441672,"lon":0.233304,"name":"St Vincents Road","topMostParentId":"2400A019260A"},{"icsId":"1010821","id":"2400A019270A","lat":51.442,"lon":0.231191,"name":"Park Road","topMostParentId":"2400A019270A"},{"icsId":"1015725","id":"2400A019280A","lat":51.442695,"lon":0.227281,"name":"Livingstone Hospital","topMostParentId":"2400A019280A"},{"icsId":"1001082","id":"2400109092","lat":51.446426,"lon":0.217835,"name":"Dartford Station","parentId":"240GHMGRDN","stationId":"240GHMGRDN","stopLetter":"W","topMostParentId":"910GDARTFD","towards":"Crayford"},{"icsId":"1011230","id":"2400109432","lat":51.445495,"lon":0.20999,"name":"Constance Grove","topMostParentId":"2400109432","towards":"Crayford"},{"icsId":"1014474","id":"2400A019690A","lat":51.44592,"lon":0.207492,"name":"West Hill / Shepherds Lane","topMostParentId":"2400A019690A","towards":"Crayford"},{"icsId":"1019804","id":"240090629","lat":51.444839,"lon":0.206159,"name":"Dartford Grammar School For Boys","topMostParentId":"240090629","towards":"Crayford"},{"icsId":"1015720","id":"240090625","lat":51.443776,"lon":0.202452,"name":"Dartford Grammar School For Girls","topMostParentId":"240090625","towards":"Crayford"},{"icsId":"1012228","id":"2400102543","lat":51.443333,"lon":0.199668,"name":"Somerset Road","topMostParentId":"2400102543","towards":"Crayford"},{"icsId":"1007909","id":"2400102539","lat":51.441758,"lon":0.197333,"name":"Shepherds Lane / Havelock Road","topMostParentId":"2400102539","towards":"Crayford"},{"icsId":"1011211","id":"2400102537","lat":51.443812,"lon":0.193805,"name":"Princes Road","topMostParentId":"2400102537","towards":"Crayford"},{"icsId":"1011967","id":"2400102533","lat":51.44296,"lon":0.188843,"name":"Seaton Road","topMostParentId":"2400102533","towards":"Bexleyheath"},{"icsId":"1010400","id":"2400102529","lat":51.444111,"lon":0.185027,"name":"Chastilian Road / North Road","topMostParentId":"2400102529","towards":"Bexleyheath"},{"icsId":"1005044","id":"490005044W","lat":51.44415,"lon":0.18166,"name":"Chastilian Road / Station Road","parentId":"490G00005044","stationId":"490G00005044","stopLetter":"->W","topMostParentId":"490G00005044","towards":"Bexleyheath"},{"icsId":"1011774","id":"490011774N","lat":51.44593,"lon":0.18028,"name":"Royston Road","parentId":"490G00011774","stationId":"490G00011774","stopLetter":"K","topMostParentId":"490G00011774","towards":"Bexleyheath"},{"icsId":"1001073","id":"490001073P","lat":51.44818,"lon":0.18093,"name":"Crayford Station","stopLetter":"L","topMostParentId":"490001073P","towards":"Bexleyheath"},{"icsId":"1005728","id":"490005728K","lat":51.45028,"lon":0.18067,"name":"Crayford Town Hall","parentId":"490G00005728","stationId":"490G00005728","stopLetter":"M","topMostParentId":"490G00005728","towards":"Bexleyheath Or Erith"},{"icsId":"1005726","id":"490005726F","lat":51.45019,"lon":0.17868,"name":"Crayford Bridge Sainsbury's","parentId":"490G00005726","stationId":"490G00005726","stopLetter":"N","topMostParentId":"490G00005726","towards":"Bexleyheath Or Erith"},{"icsId":"1005727","id":"490005727G","lat":51.45234,"lon":0.1775,"name":"Crayford High Street","parentId":"490G00005727","stationId":"490G00005727","stopLetter":"X","topMostParentId":"490G00005727","towards":"Bexleyheath"},{"icsId":"1010578","id":"490010578W","lat":51.45404,"lon":0.17387,"name":"Old Road / Perry Street","parentId":"490G00010578","stationId":"490G00010578","stopLetter":"->W","topMostParentId":"490G00010578","towards":"Bexleyheath"},{"icsId":"1009585","id":"490009585E","lat":51.45661,"lon":0.17264,"name":"Manor Road / Manor Close","parentId":"490G00009585","stationId":"490G00009585","stopLetter":"->N","topMostParentId":"490G00009585","towards":"Bexleyheath"},{"icsId":"1014899","id":"490014899W","lat":51.45839,"lon":0.16943,"name":"Woodside Road","parentId":"490G00014899","stationId":"490G00014899","stopLetter":"->W","topMostParentId":"490G00014899","towards":"Bexleyheath"},{"icsId":"1009596","id":"490009596W","lat":51.45932,"lon":0.16468,"name":"Mayplace Road East / Manor Way","parentId":"490G00009596","stationId":"490G00009596","stopLetter":"->W","topMostParentId":"490G00009596","towards":"Bexleyheath"},{"icsId":"1003626","id":"490003626W","lat":51.45975,"lon":0.15996,"name":"Mayplace Road East / Barnehurst Road","parentId":"490G00003626","stationId":"490G00003626","stopLetter":"NM","topMostParentId":"490G00003626","towards":"Bexleyheath Or Old Bexley"},{"icsId":"1015380","id":"490015380W","lat":51.45916,"lon":0.1569,"name":"Mayplace Road East / Pinnacle Hill","parentId":"490G00015380","stationId":"490G00015380","stopLetter":"NN","topMostParentId":"490G00015380","towards":"Bexleyheath Or Old Bexley"},{"icsId":"1006622","id":"490006620W","lat":51.45886,"lon":0.1536,"name":"Erith Road","parentId":"490G00006622","stationId":"490G00006622","stopLetter":"NP","topMostParentId":"490G00006622","towards":"Bexleyheath Or Old Bexley"},{"icsId":"1013748","id":"490013748W","lat":51.45762,"lon":0.14993,"name":"Tower Road","parentId":"490G00013748","stationId":"490G00013748","stopLetter":"NQ","topMostParentId":"490G00013748","towards":"Bexleyheath Stn, Bexley Village Or Welling"},{"icsId":"1003975","id":"490003975L","lat":51.45647,"lon":0.14674,"name":"Bexleyheath Clock Tower","parentId":"490G00003975","stationId":"490G00003975","stopLetter":"L","topMostParentId":"490G00003975","towards":"Abbey Wood, Bexley Village Or Belvedere"},{"icsId":"1003972","id":"490003972E","lat":51.45578,"lon":0.15072,"name":"Bexleyheath / Highland Road","parentId":"490G00003972","stationId":"490G00003972","stopLetter":"X","topMostParentId":"490G00003972","towards":"Bexley Village"},{"icsId":"1007662","id":"490007662S","lat":51.45276,"lon":0.15199,"name":"Halcot Avenue","parentId":"490G00007662","stationId":"490G00007662","stopLetter":"C","topMostParentId":"490G00007662","towards":"Bexley Village"},{"icsId":"1004489","id":"490004489S","lat":51.45145,"lon":0.15293,"name":"Broomfield Road","parentId":"490G00004489","stationId":"490G00004489","stopLetter":"D","topMostParentId":"490G00004489","towards":"Bexley Village"},{"icsId":"1007386","id":"490007386S","lat":51.44876,"lon":0.15688,"name":"Gravel Hill Close","parentId":"490G00007386","stationId":"490G00007386","stopLetter":"E","topMostParentId":"490G00007386","towards":"Bexley Village"},{"icsId":"1007872","id":"490007872J","lat":51.44482,"lon":0.15229,"name":"Hartford Road","parentId":"490G00007872","stationId":"490G00007872","stopLetter":"J","topMostParentId":"490G00007872","towards":"Blendon, Joydens Wood Or Sidcup"},{"icsId":"1003984","id":"490003984G","lat":51.44233,"lon":0.15091,"name":"Bexley Library","parentId":"490G00003984","stationId":"490G00003984","stopLetter":"G","topMostParentId":"490G00003984","towards":"Blendon, Joydens Wood Or Sidcup"},{"icsId":"1014042","id":"490014042K","lat":51.43922,"lon":0.15292,"name":"North Cray Road / Vicarage Road","parentId":"490G00014042","stationId":"490G00014042","stopLetter":"K","topMostParentId":"490G00014042","towards":"Sidcup Or Joydens Wood"},{"icsId":"1010083","id":"490010083S","lat":51.43444,"lon":0.14629,"name":"Mount Mascal Farm","parentId":"490G00010083","stationId":"490G00010083","topMostParentId":"490G00010083","towards":"Sidcup"},{"icsId":"1004578","id":"490004579S","lat":51.42999,"lon":0.13951,"name":"Bunkers Hill / the White Cross","parentId":"490G00004578","stationId":"490G00004578","stopLetter":"->S","topMostParentId":"490G00004578","towards":"Sidcup"},{"icsId":"1010858","id":"490010858S","lat":51.42554,"lon":0.13506,"name":"Parsonage Lane / North Cray Church","parentId":"490G00010858","stationId":"490G00010858","stopLetter":"->S","topMostParentId":"490G00010858","towards":"Sidcup"},{"icsId":"1006482","id":"490006482S","lat":51.41996,"lon":0.13294,"name":"Ellenborough Road","parentId":"490G00006482","stationId":"490G00006482","stopLetter":"->S","topMostParentId":"490G00006482","towards":"Sidcup"},{"icsId":"1003662","id":"490003662S","lat":51.4169,"lon":0.12936,"name":"Barton Road","parentId":"490G00003662","stationId":"490G00003662","stopLetter":"->S","topMostParentId":"490G00003662","towards":"Sidcup"},{"icsId":"1019342","id":"490015422W","lat":51.41535,"lon":0.12568,"name":"Ruxley Corner","parentId":"490G00019342","stationId":"490G00019342","stopLetter":"FL","topMostParentId":"490G00019342","towards":"Sidcup"},{"icsId":"1012143","id":"490012143W","lat":51.41727,"lon":0.12134,"name":"Five Arches Business Estate","parentId":"490G00012143","stationId":"490G00012143","stopLetter":"FM","topMostParentId":"490G00012143","towards":"Sidcup"},{"icsId":"1019784","id":"490011463W","lat":51.41888,"lon":0.11737,"name":"Sidcup Hill / Cray Road","parentId":"490G00019784","stationId":"490G00019784","stopLetter":"FU","topMostParentId":"490G00019784","towards":"Sidcup"},{"icsId":"1009854","id":"490009854W","lat":51.4203,"lon":0.11406,"name":"Middleton Avenue","parentId":"490G00009854","stationId":"490G00009854","stopLetter":"->W","topMostParentId":"490G00009854","towards":"Blackfen, Eltham Or Queen Mary's Hospital"},{"icsId":"1008885","id":"490008885W","lat":51.42213,"lon":0.1102,"name":"Knoll Road","parentId":"490G00008885","stationId":"490G00008885","stopLetter":"->W","topMostParentId":"490G00008885","towards":"Blckfen, Eltham Or Queen Mary's Hospital"},{"icsId":"1005299","id":"490005299Z","lat":51.42479,"lon":0.10605,"name":"Church Road","parentId":"490G00005299","stationId":"490G00005299","stopLetter":"Z","topMostParentId":"490G00005299","towards":"Blackfen, Eltham Or Queen Mary's Hospital"},{"icsId":"1012140","id":"490012140V","lat":51.42634,"lon":0.10172,"name":"Sidcup High Street / Station Road","parentId":"490G00012140","stationId":"490G00012140","stopLetter":"V","topMostParentId":"490G00012140","towards":"Blackfen Or Eltham"},{"icsId":"1005747","id":"490005743N","lat":51.43115,"lon":0.10213,"name":"Crescent Road","parentId":"490G00005747","stationId":"490G00005747","stopLetter":"N","topMostParentId":"490G00005747","towards":"Bexleyheath, Blackfen Or Eltham"},{"icsId":"1001249","id":"490015534D","lat":51.43361,"lon":0.10485,"name":"Sidcup Station","stopLetter":"D","topMostParentId":"490015534D"}]}]}