{"direction":"inbound","lineId":"493","lineName":"493","mode":"bus","stopPointSequences":[{"stopPoint":[{"icsId":"1007166","id":"490007166A","lat":51.46033,"lon":-0.30546,"name":"George Street","parentId":"490G00007166","stationId":"490G00007166","stopLetter":"A","topMostParentId":"490G00007166","towards":"Barnes Or Putney"},{"icsId":"1012050","id":"490012050G","lat":51.4613,"lon":-0.30197,"name":"Eton Street","parentId":"490G00012050","stationId":"490G00012050","stopLetter":"G","topMostParentId":"490G00012050","towards":"Barnes, Ham Or Putney"},{"icsId":"1012051","id":"490012051E","lat":51.46192,"lon":-0.29655,"name":"Church Road","parentId":"490G00012051","stationId":"490G00012051","stopLetter":"->E","topMostParentId":"490G00012051","towards":"Hammersmith, Putney Or Roehampton"},{"icsId":"1012452","id":"490012452SH","lat":51.46208,"lon":-0.29136,"name":"St Mary's Grove","parentId":"490G00012452","stationId":"490G00012452","stopLetter":"SH","topMostParentId":"490G00012452","towards":"Barnes, Putney Or Roehampton"},{"icsId":"1006377","id":"490006377SD","lat":51.4618,"lon":-0.28747,"name":"Manor Road / North Sheen Station","parentId":"490G00006377","stationId":"490G00006377","stopLetter":"SD","topMostParentId":"490G00006377","towards":"Barnes, Putney Or Roehampton"},{"icsId":"1012046","id":"490012046E","lat":51.46327,"lon":-0.28278,"name":"Sheen Court","parentId":"490G00012046","stationId":"490G00012046","stopLetter":"S","topMostParentId":"490G00012046","towards":"Barnes, Putney Or Roehampton"},{"icsId":"1003941","id":"490005407E","lat":51.46426,"lon":-0.27871,"name":"Berwyn Road","parentId":"490G00003941","stationId":"490G00003941","stopLetter":"T","topMostParentId":"490G00003941","towards":"Barnes, Putney Or Roehampton"},{"icsId":"1007332","id":"490007332E","lat":51.46432,"lon":-0.27534,"name":"Graemesdyke Avenue","parentId":"490G00007332","stationId":"490G00007332","stopLetter":"U","topMostParentId":"490G00007332","towards":"Barnes, Putney Or Roehampton"},{"icsId":"1013196","id":"490013196E","lat":51.46422,"lon":-0.27177,"name":"Temple Sheen Road","parentId":"490G00013196","stationId":"490G00013196","stopLetter":"V","topMostParentId":"490G00013196","towards":"Barnes, Putney Or Roehampton"},{"icsId":"1012049","id":"490012049E","lat":51.46453,"lon":-0.26819,"name":"East Sheen","parentId":"490G00012049","stationId":"490G00012049","stopLetter":"C","topMostParentId":"490G00012049","towards":"Barnes, Putney Or Roehampton"},{"icsId":"1010732","id":"490010732E","lat":51.46503,"lon":-0.26355,"name":"Thornton Road","parentId":"490G00010732","stationId":"490G00010732","stopLetter":"G","topMostParentId":"490G00010732","towards":"Hammersmith, Putney Or Roehampton"},{"icsId":"1007186","id":"490011350E","lat":51.46528,"lon":-0.25975,"name":"Kings Road","parentId":"490G00007186","stationId":"490G00007186","stopLetter":"H","topMostParentId":"490G00007186","towards":"Hammersmith, Putney Or Roehampton"},{"icsId":"1011184","id":"490011184E","lat":51.46529,"lon":-0.25254,"name":"Priests Bridge","parentId":"490G00011184","stationId":"490G00011184","stopLetter":"J","topMostParentId":"490G00011184","towards":"Hammersmith, Putney Or Roehampton"},{"icsId":"1011229","id":"490011229E","lat":51.46526,"lon":-0.2508,"name":"Priory Lane","parentId":"490G00011229","stationId":"490G00011229","stopLetter":"D","topMostParentId":"490G00011229","towards":"Hammersmith, Putney Or Roehampton"},{"icsId":"1011642","id":"490011642E","lat":51.46532,"lon":-0.2451,"name":"Queens Ride","parentId":"490G00011642","stationId":"490G00011642","stopLetter":"E","topMostParentId":"490G00011642","towards":"Hammersmith, Putney Or Roehampton"},{"icsId":"1011715","id":"490011715D","lat":51.46406,"lon":-0.24381,"name":"Rosslyn Park Rugby Football Club","parentId":"490G00011715","stationId":"490G00011715","stopLetter":"P","topMostParentId":"490G00011715","towards":"Roehampton"},{"icsId":"1006697","id":"490006697S","lat":51.46191,"lon":-0.24339,"name":"Fairacres","parentId":"490G00006697","stationId":"490G00006697","stopLetter":"R","topMostParentId":"490G00006697","towards":"Roehampton"},{"icsId":"1006083","id":"490006083S","lat":51.45896,"lon":-0.24298,"name":"Roehampton University / Main Entrance","parentId":"490G00006083","stationId":"490G00006083","stopLetter":"U","topMostParentId":"490G00006083","towards":"Kingston Vale Or Putney Heath"},{"icsId":"1015037","id":"490015037S","lat":51.45639,"lon":-0.24272,"name":"Queen Mary's Hospital","parentId":"490G00015037","stationId":"490G00015037","stopLetter":"V","topMostParentId":"490G00015037","towards":"Kingston Vale Or Putney Heath"},{"icsId":"1011322","id":"490011322T","lat":51.45345,"lon":-0.24367,"name":"Clarence Lane","parentId":"490G00011322","stationId":"490G00011322","stopLetter":"T","topMostParentId":"490G00011322","towards":"Kingston Vale Or Putney Heath"},{"icsId":"1011640","id":"490011640E","lat":51.44977,"lon":-0.23989,"name":"Medfield Street","parentId":"490G00011640","stationId":"490G00011640","stopLetter":"E","topMostParentId":"490G00011640","towards":"Southfields Or Wandsworth"},{"icsId":"1006150","id":"490006150E","lat":51.45183,"lon":-0.23387,"name":"Dover Park Drive","parentId":"490G00006150","stationId":"490G00006150","stopLetter":"H","topMostParentId":"490G00006150","towards":"Putney Bridge, Southfields Or Wandsworth"},{"icsId":"1006685","id":"490006685E","lat":51.45254,"lon":-0.22948,"name":"Exeter House","parentId":"490G00006685","stationId":"490G00006685","stopLetter":"J","topMostParentId":"490G00006685","towards":"Putney Bridge, Southfields Or Wandsworth"},{"icsId":"1007965","id":"490007965E","lat":51.45323,"lon":-0.22475,"name":"Hayward Gardens","parentId":"490G00007965","stationId":"490G00007965","stopLetter":"K","topMostParentId":"490G00007965","towards":"Putney Bridge, Southfields Or Wandsworth"},{"icsId":"1011285","id":"490011285E2","lat":51.45351,"lon":-0.22117,"name":"Putney Heath / Green Man","parentId":"490G00011285","stationId":"490G00011285","stopLetter":"L","topMostParentId":"490G00011285","towards":"Putney Bridge, Southfields Or Wandsworth"},{"icsId":"1011299","id":"490011285R","lat":51.4517,"lon":-0.2215,"name":"Putney Hill / Green Man","parentId":"490G00011299","stationId":"490G00011299","stopLetter":"R","topMostParentId":"490G00011299","towards":"Southfields, Wandsworth Or Wimbledon"},{"icsId":"1014796","id":"490014796N","lat":51.44823,"lon":-0.22181,"name":"Withycombe Road","parentId":"490G00014796","stationId":"490G00014796","stopLetter":"PL","topMostParentId":"490G00014796","towards":"Southfields"},{"icsId":"1008565","id":"490008565S","lat":51.4479,"lon":-0.21785,"name":"Keevil Drive","parentId":"490G00008565","stationId":"490G00008565","stopLetter":"PM","topMostParentId":"490G00008565","towards":"Wandsworth Or Wimbledon"},{"icsId":"1014758","id":"490004595S","lat":51.44672,"lon":-0.2165,"name":"Windlesham Grove","parentId":"490G00014758","stationId":"490G00014758","stopLetter":"PN","topMostParentId":"490G00014758","towards":"Wandsworth Or Wimbledon"},{"icsId":"1012315","id":"490012315S","lat":51.44512,"lon":-0.21508,"name":"Southmead Primary School","parentId":"490G00012315","stationId":"490G00012315","stopLetter":"->S","topMostParentId":"490G00012315","towards":"Wandsworth Or Wimbledon"},{"icsId":"1012292","id":"490000209E","lat":51.44467,"lon":-0.21165,"name":"Augustus Road","parentId":"490G00012292","stationId":"490G00012292","stopLetter":"->E","topMostParentId":"490G00012292","towards":"Wimbledon"},{"icsId":"1000209","id":"490000209B","lat":51.44435,"lon":-0.20698,"name":"Southfields Station","stopLetter":"U","topMostParentId":"490000209B","towards":"Putney Or Wimbledon","zone":"3"},{"icsId":"1012273","id":"490012273S","lat":51.44196,"lon":-0.20946,"name":"Southdean Gardens","parentId":"490G00012273","stationId":"490G00012273","stopLetter":"V","topMostParentId":"490G00012273","towards":"Putney Or Wimbledon"},{"icsId":"1014054","id":"490014054S","lat":51.43975,"lon":-0.21116,"name":"Woodspring Road","parentId":"490G00014054","stationId":"490G00014054","stopLetter":"V","topMostParentId":"490G00014054","towards":"Putney Or Wimbledon"},{"icsId":"1020224","id":"490020224S","lat":51.43828,"lon":-0.21259,"name":"Bathgate Road","parentId":"490G00020224","stationId":"490G00020224","stopLetter":"E","topMostParentId":"490G00020224","towards":"Putney Or Wimbledon"},{"icsId":"1016252","id":"490016252S","lat":51.43505,"lon":-0.21332,"name":"Wimbledon Tennis Club & Museum","parentId":"490G00016252","stationId":"490G00016252","stopLetter":"W","topMostParentId":"490G00016252","towards":"Wimbledon"},{"icsId":"1016256","id":"490016256S","lat":51.43013,"lon":-0.21228,"name":"Somerset Road","parentId":"490G00016256","stationId":"490G00016256","stopLetter":"->S","topMostParentId":"490G00016256","towards":"Tooting"},{"icsId":"1016257","id":"490016257S","lat":51.42743,"lon":-0.21467,"name":"Belvedere Avenue","parentId":"490G00016257","stationId":"490G00016257","stopLetter":"W","topMostParentId":"490G00016257","towards":"Tooting"},{"icsId":"1008184","id":"490008184E","lat":51.42471,"lon":-0.21635,"name":"High Street / Wimbledon Village","parentId":"490G00008184","stationId":"490G00008184","stopLetter":"E","topMostParentId":"490G00008184","towards":"Tooting Or South Wimbledon"},{"icsId":"1014734","id":"490014734S","lat":51.42242,"lon":-0.2088,"name":"Wimbledon Hill Road","parentId":"490G00014734","stationId":"490G00014734","stopLetter":"S","topMostParentId":"HUBWIM","towards":"South Wimbledon, Colliers Wood Or Tooting"},{"icsId":"1019043","id":"490014734A","lat":51.42203,"lon":-0.20689,"name":"Alexandra Road / Wimbledon","parentId":"490G000930","stationId":"490G000930","stopLetter":"A","topMostParentId":"HUBWIM","towards":"Southfields Or Tooting"},{"icsId":"1014735","id":"490014735N","lat":51.42427,"lon":-0.20324,"name":"Wimbledon Magistrates Court","parentId":"490G00014735","stationId":"490G00014735","stopLetter":"->N","topMostParentId":"490G00014735","towards":"Southfields Or Tooting"},{"icsId":"1012910","id":"490012910E","lat":51.42666,"lon":-0.20079,"name":"Strathearn Road","parentId":"490G00012910","stationId":"490G00012910","stopLetter":"HE","topMostParentId":"490G00012910","towards":"Southfields Or Tooting"},{"icsId":"1003515","id":"490003515E","lat":51.42775,"lon":-0.19544,"name":"Avondale Road","parentId":"490G00003515","stationId":"490G00003515","stopLetter":"HF","topMostParentId":"490G00003515","towards":"Southfields Or Tooting"},{"icsId":"1019846","id":"490011060C","lat":51.42778,"lon":-0.19186,"name":"Gap Road / Plough Lane","parentId":"490G00019846","stationId":"490G00019846","stopLetter":"HG","topMostParentId":"490G00019846","towards":"Southfields Or Tooting"},{"icsId":"1011063","id":"490011063E","lat":51.42804,"lon":-0.18937,"name":"Haydons Road","parentId":"490G00011063","stationId":"490G00011063","stopLetter":"HJ","topMostParentId":"490G00011063","towards":"St George's Hospital"},{"icsId":"1014740","id":"490014740E","lat":51.43041,"lon":-0.18584,"name":"Wimbledon Stadium","parentId":"490G00014740","stationId":"490G00014740","stopLetter":"SL","topMostParentId":"490G00014740","towards":"St George's Hospital"},{"icsId":"1012203","id":"490012203S","lat":51.43095,"lon":-0.18232,"name":"Hazelhurst Estate","parentId":"490G00012203","stationId":"490G00012203","stopLetter":"SM","topMostParentId":"490G00012203","towards":"St George's Hospital"},{"icsId":"1008719","id":"490008719S","lat":51.42666,"lon":-0.1793,"name":"Lambeth Cemetery","parentId":"490G00008719","stationId":"490G00008719","stopLetter":"HL","topMostParentId":"490G00008719","towards":"St George's Hospital"},{"icsId":"1012696","id":"490012696E","lat":51.42466,"lon":-0.17612,"name":"St George's Hospital","parentId":"490G00012696","stationId":"490G00012696","stopLetter":"HM","topMostParentId":"490G00012696","towards":"Tooting Broadway"},{"icsId":"1010468","id":"490010468H8","lat":51.42569,"lon":-0.17028,"name":"Nutwell Street","parentId":"490G00010468","stationId":"490G00010468","stopLetter":"HN","topMostParentId":"490G00010468","towards":"Mitcham, Streatham Or Tooting Bec"},{"icsId":"1000234","id":"490015513L","lat":51.42738,"lon":-0.16881,"name":"Tooting Broadway Station","stopLetter":"L","topMostParentId":"490015513L","towards":"Tooting Bec","zone":"3"},{"icsId":"1003997","id":"490000234N","lat":51.42839,"lon":-0.16908,"name":"Garratt Lane / Tooting Broadway","parentId":"490G000418","stationId":"490G000418","stopLetter":"N","topMostParentId":"490G000418","towards":"Earlsfield"},{"icsId":"1007124","id":"490007124W","lat":51.42958,"lon":-0.17441,"name":"Fountain Road / Garratt Lane","parentId":"490G00007124","stationId":"490G00007124","stopLetter":"HP","topMostParentId":"490G00007124","towards":"St George's Hospital"},{"icsId":"1019074","id":"490012701N","lat":51.42771,"lon":-0.1749,"name":"St George's / University of London","parentId":"490G00019074","stationId":"490G00019074","stopLetter":"HB","topMostParentId":"490G00019074","towards":"Tooting Broadway"}]}]}