{"direction":"inbound","lineId":"496","lineName":"496","mode":"bus","stopPointSequences":[{"stopPoint":[{"icsId":"1016444","id":"490016444HN","lat":51.56877,"lon":0.18114,"name":"Queen's Hospital","parentId":"490G00016444","stationId":"490G00016444","stopLetter":"HN","topMostParentId":"490G00016444","towards":"Romford Market"},{"icsId":"1013271","id":"490013271R","lat":51.57492,"lon":0.17812,"name":"The Brewery","parentId":"490G00013271","stationId":"490G00013271","stopLetter":"R","topMostParentId":"490G00013271","towards":"Romford Station"},{"icsId":"1009721","id":"490009721A","lat":51.57707,"lon":0.17692,"name":"Mawney Road","parentId":"490G00009721","stationId":"490G00009721","stopLetter":"A","topMostParentId":"490G00009721","towards":"Gidea Park, Hornchurch Or Collier Row"},{"icsId":"1010407","id":"490010407C","lat":51.57948,"lon":0.17753,"name":"North Street","parentId":"490G00010407","stationId":"490G00010407","stopLetter":"C","topMostParentId":"490G00010407","towards":"Hornchurch, Elm Park Or Gidea Park"},{"icsId":"1011659","id":"490011659E","lat":51.58066,"lon":0.18215,"name":"Romford Market","parentId":"490G00011659","stationId":"490G00011659","stopLetter":"E","topMostParentId":"490G00011659","towards":"Becontree Heath, Queen's Hosp. Or Gidea Pk"},{"icsId":"1009810","id":"490009810M","lat":51.57935,"lon":0.18496,"name":"Mercury Gardens","parentId":"490G00009810","stationId":"490G00009810","stopLetter":"M","topMostParentId":"490G00009810","towards":"Gidea Park Or Hornchurch"},{"icsId":"1014452","id":"490014448S","lat":51.5775,"lon":0.1851,"name":"Western Road","parentId":"490G00014452","stationId":"490G00014452","stopLetter":"QQ","topMostParentId":"490G00014452","towards":"Elm Park, Gidea Park Or Hornchurch"},{"icsId":"1001243","id":"490015181L","lat":51.57442,"lon":0.18463,"name":"Romford Station","stopLetter":"W","topMostParentId":"490015181L","towards":"Gidea Park Or Hornchurch"},{"icsId":"1003157","id":"490003157E","lat":51.57578,"lon":0.18921,"name":"Albert Road","parentId":"490G00003157","stationId":"490G00003157","stopLetter":"VG","topMostParentId":"490G00003157","towards":"Gidea Park Or Hornchurch"},{"icsId":"1009579","id":"490016649E","lat":51.57773,"lon":0.19592,"name":"Manor Road","parentId":"490G00009579","stationId":"490G00009579","stopLetter":"->E","topMostParentId":"490G00009579","towards":"Gallows Corner Or Hornchurch"},{"icsId":"1006714","id":"490006714E","lat":51.57786,"lon":0.19896,"name":"Fairholme Avenue","parentId":"490G00006714","stationId":"490G00006714","stopLetter":"AS","topMostParentId":"490G00006714","towards":"Gallows Corner Or Hornchurch"},{"icsId":"1009647","id":"490009647E","lat":51.57788,"lon":0.20301,"name":"Margaret Road","parentId":"490G00009647","stationId":"490G00009647","stopLetter":"AT","topMostParentId":"490G00009647","towards":"Gallows Corner Or Hornchurch"},{"icsId":"1013327","id":"490003559N","lat":51.57887,"lon":0.2072,"name":"The Drill Roundabout","parentId":"490G00013327","stationId":"490G00013327","stopLetter":"AV","topMostParentId":"490G00013327","towards":"Gallows Corner Or Harold Wood"},{"icsId":"1001115","id":"490001115B","lat":51.58156,"lon":0.20634,"name":"Gidea Park Station","stopLetter":"PB","topMostParentId":"490001115B","towards":"Harold Wood Or Gallows Corner"},{"icsId":"1006270","id":"490006270N","lat":51.58223,"lon":0.20878,"name":"Durham Avenue","parentId":"490G000494","stationId":"490G000494","stopLetter":"PC","topMostParentId":"490G000494","towards":"Gallows Corner"},{"icsId":"1011766","id":"490011766N","lat":51.58476,"lon":0.21017,"name":"Royal Liberty School","parentId":"490G00011766","stationId":"490G00011766","stopLetter":"PD","topMostParentId":"490G00011766","towards":"Harold Hill"},{"icsId":"1003835","id":"490003835N","lat":51.58736,"lon":0.21109,"name":"Belgrave Avenue","parentId":"490G00003835","stationId":"490G00003835","stopLetter":"PE","topMostParentId":"490G00003835","towards":"Harold Hill"},{"icsId":"1014445","id":"490014445N","lat":51.58873,"lon":0.21117,"name":"Western Avenue","parentId":"490G00014445","stationId":"490G00014445","stopLetter":"PF","topMostParentId":"490G00014445","towards":"Harold Hill"},{"icsId":"1013930","id":"490013930E","lat":51.59151,"lon":0.21052,"name":"Upper Brentwood Road","parentId":"490G00013930","stationId":"490G00013930","stopLetter":"GN","topMostParentId":"490G00013930","towards":"Harold Hill Or Harold Wood"},{"icsId":"1007095","id":"490007095N1","lat":51.59414,"lon":0.21298,"name":"Gallows Corner","parentId":"490G00007095","stationId":"490G00007095","stopLetter":"GL","topMostParentId":"490G00007095","towards":"Harold Hill"},{"icsId":"1010165","id":"490012894E","lat":51.59657,"lon":0.21335,"name":"Neave Crescent","parentId":"490G00010165","stationId":"490G00010165","stopLetter":"GJ","topMostParentId":"490G00010165","towards":"Harold Wood"},{"icsId":"1003451","id":"490003451E","lat":51.59778,"lon":0.21756,"name":"Ashton Road","parentId":"490G00003451","stationId":"490G00003451","stopLetter":"->E","topMostParentId":"490G00003451","towards":"Harold Wood"},{"icsId":"1012389","id":"490012389E","lat":51.59904,"lon":0.22008,"name":"Spilsby Road","parentId":"490G00012389","stationId":"490G00012389","stopLetter":"->E","topMostParentId":"490G00012389","towards":"Harold Wood"},{"icsId":"1005051","id":"490005051E","lat":51.60073,"lon":0.22188,"name":"Chatteris Avenue","parentId":"490G00005051","stationId":"490G00005051","stopLetter":"->E","topMostParentId":"490G00005051","towards":"Harold Wood"},{"icsId":"1006231","id":"490006231","lat":51.60236,"lon":0.22323,"name":"Dulverton Road","parentId":"490G00006231","stationId":"490G00006231","stopLetter":"FH","topMostParentId":"490G00006231","towards":"Harold Wood"},{"icsId":"1006074","id":"490006074E","lat":51.6035,"lon":0.22612,"name":"Dewsbury Road","parentId":"490G00006074","stationId":"490G00006074","stopLetter":"FX","topMostParentId":"490G00006074","towards":"Harold Wood"},{"icsId":"1007301","id":"490007301E","lat":51.60462,"lon":0.22835,"name":"Gooshays Drive","parentId":"490G00007301","stationId":"490G00007301","stopLetter":"PH","topMostParentId":"490G00007301","towards":"Harold Wood"},{"icsId":"1010726","id":"490011852E","lat":51.60595,"lon":0.23258,"name":"Paines Brook Way","parentId":"490G00010726","stationId":"490G00010726","stopLetter":"PJ","topMostParentId":"490G00010726","towards":"Brentwood Or Harold Wood"},{"icsId":"1013497","id":"490013497S","lat":51.60532,"lon":0.23494,"name":"The Petersfield Centre","parentId":"490G00013497","stationId":"490G00013497","stopLetter":"PK","topMostParentId":"490G00013497","towards":"Harold Wood"},{"icsId":"1018347","id":"490012819N2","lat":51.60415,"lon":0.23812,"name":"Leamington Close","parentId":"490G00018347","stationId":"490G00018347","stopLetter":"LQ","topMostParentId":"490G00018347","towards":"Harold Wood"},{"icsId":"1011492","id":"490011492N","lat":51.60668,"lon":0.23757,"name":"Redruth Road","parentId":"490G00011492","stationId":"490G00011492","stopLetter":"LS","topMostParentId":"490G00011492","towards":"Harold Wood"},{"icsId":"1011997","id":"490011997E","lat":51.60889,"lon":0.23851,"name":"Settle Road","parentId":"490G00011997","stationId":"490G00011997","stopLetter":"DE","topMostParentId":"490G00011997","towards":"Harold Wood"},{"icsId":"1012054","id":"490012054S","lat":51.60757,"lon":0.24178,"name":"Sheffield Drive","parentId":"490G00012054","stationId":"490G00012054","stopLetter":"DF","topMostParentId":"490G00012054","towards":"Harold Wood"},{"icsId":"1012912","id":"490012912S","lat":51.60617,"lon":0.24349,"name":"Stratton Road","parentId":"490G00012912","stationId":"490G00012912","stopLetter":"DH","topMostParentId":"490G00012912","towards":"Harold Wood"},{"icsId":"1006711","id":"490006711S","lat":51.60341,"lon":0.24437,"name":"Fairford Way","parentId":"490G00006711","stationId":"490G00006711","stopLetter":"PP","topMostParentId":"490G00006711","towards":"Harold Wood"},{"icsId":"1007826","id":"490007826S","lat":51.60244,"lon":0.24754,"name":"Colchester Road","parentId":"490G00007826","stationId":"490G00007826","stopLetter":"HS","topMostParentId":"490G00007826","towards":"Harold Wood"},{"icsId":"1007668","id":"490007668W","lat":51.60006,"lon":0.24729,"name":"Halidon Rise","parentId":"490G00007668","stationId":"490G00007668","stopLetter":"CW","topMostParentId":"490G00007668","towards":"Harold Wood"},{"icsId":"1005983","id":"490005983W","lat":51.59885,"lon":0.24319,"name":"David Drive","parentId":"490G00005983","stationId":"490G00005983","stopLetter":"CV","topMostParentId":"490G00005983","towards":"Harold Wood"},{"icsId":"1006851","id":"490006851W","lat":51.59704,"lon":0.23922,"name":"Firham Park Avenue","parentId":"490G00006851","stationId":"490G00006851","stopLetter":"CU","topMostParentId":"490G00006851","towards":"Harold Wood"},{"icsId":"1003498","id":"490003498W","lat":51.59469,"lon":0.23589,"name":"Harold Wood Library","parentId":"490G00003498","stationId":"490G00003498","stopLetter":"D","topMostParentId":"490G00003498","towards":"Harold Wood"},{"icsId":"1001137","id":"490001137B","lat":51.59299,"lon":0.23288,"name":"Harold Wood Station","stopLetter":"B","topMostParentId":"490001137B","towards":"Upminster, Gidea Park Or Hornchurch"}]}]}