{"direction":"inbound","lineId":"499","lineName":"499","mode":"bus","stopPointSequences":[{"stopPoint":[{"icsId":"1009207","id":"490009207E","lat":51.55731,"lon":0.15166,"name":"Stansgate Road Shops","parentId":"490G00009207","stationId":"490G00009207","stopLetter":"->E","topMostParentId":"490G00009207"},{"icsId":"1020322","id":"490020322E","lat":51.55548,"lon":0.15206,"name":"Rusholme Avenue","parentId":"490G00020322","stationId":"490G00020322","stopLetter":"->E","topMostParentId":"490G00020322"},{"icsId":"1020323","id":"490020323N","lat":51.55559,"lon":0.1553,"name":"Frizlands Lane","parentId":"490G00020323","stationId":"490G00020323","stopLetter":"->N","topMostParentId":"490G00020323"},{"icsId":"1020324","id":"490020324N","lat":51.5577,"lon":0.15537,"name":"Bull Lane / Frizlands Lane","parentId":"490G00020324","stationId":"490G00020324","stopLetter":"->N","topMostParentId":"490G00020324"},{"icsId":"1007042","id":"490007042N","lat":51.56007,"lon":0.15482,"name":"Cu London University / Rainham Rd North","parentId":"490G00007042","stationId":"490G00007042","stopLetter":"N","topMostParentId":"490G00007042","towards":"Romford"},{"icsId":"1005923","id":"490005923R","lat":51.56238,"lon":0.1573,"name":"Cu London University / Wood Lane","parentId":"490G00005923","stationId":"490G00005923","stopLetter":"R","topMostParentId":"490G00005923","towards":"Romford"},{"icsId":"1003660","id":"490003660E","lat":51.5632,"lon":0.16161,"name":"Barton Avenue","parentId":"490G00003660","stationId":"490G00003660","stopLetter":"A","topMostParentId":"490G00003660","towards":"Romford"},{"icsId":"1005381","id":"490005381E","lat":51.56369,"lon":0.165,"name":"Clayton Road","parentId":"490G00005381","stationId":"490G00005381","stopLetter":"B","topMostParentId":"490G00005381","towards":"Romford"},{"icsId":"1009090","id":"490009090E","lat":51.56513,"lon":0.17127,"name":"Leonard Avenue","parentId":"490G00009090","stationId":"490G00009090","stopLetter":"C","topMostParentId":"490G00009090","towards":"Romford"},{"icsId":"1011798","id":"490011798N2","lat":51.56651,"lon":0.1762,"name":"Norwood Avenue","parentId":"490G00011798","stationId":"490G00011798","stopLetter":"E","topMostParentId":"490G00011798","towards":"Romford"},{"icsId":"1005834","id":"490005834N","lat":51.56921,"lon":0.17503,"name":"Crow Lane","parentId":"490G00005834","stationId":"490G00005834","stopLetter":"F","topMostParentId":"490G00005834","towards":"Romford"},{"icsId":"1015408","id":"490015408E","lat":51.57062,"lon":0.17823,"name":"Oldchurch Rise","parentId":"490G00015408","stationId":"490G00015408","stopLetter":"HB","topMostParentId":"490G00015408","towards":"Romford Town Centre"},{"icsId":"1016444","id":"490016444HM","lat":51.56861,"lon":0.18124,"name":"Queen's Hospital","parentId":"490G00016444","stationId":"490G00016444","stopLetter":"HM","topMostParentId":"490G00016444","towards":"Romford Station"},{"icsId":"1011667","id":"490011667HE","lat":51.57169,"lon":0.18199,"name":"Rom Valley Way","parentId":"490G00011667","stationId":"490G00011667","stopLetter":"HE","topMostParentId":"490G00011667","towards":"Chase Cross Or Gallows Corner"},{"icsId":"1001243","id":"490001243V","lat":51.5745,"lon":0.18358,"name":"Romford Station","stopLetter":"V","topMostParentId":"490001243V","towards":"Chase Cross, Collier Row Or Gidea Park"},{"icsId":"1014452","id":"490014452P","lat":51.57683,"lon":0.18316,"name":"Western Road","parentId":"490G00014452","stationId":"490G00014452","stopLetter":"P","topMostParentId":"490G00014452","towards":"Chadwell Heath, Collier Row Or Newbury Pk"},{"icsId":"1009810","id":"490009810N","lat":51.57898,"lon":0.18482,"name":"Mercury Gardens","parentId":"490G00009810","stationId":"490G00009810","stopLetter":"N","topMostParentId":"490G00009810","towards":"Gallows Corner Or Chase Cross"},{"icsId":"1011660","id":"490011660NA","lat":51.58113,"lon":0.18565,"name":"Romford Police Station","parentId":"490G00011660","stationId":"490G00011660","stopLetter":"Y","topMostParentId":"490G00011660","towards":"Gallows Corner"},{"icsId":"1018247","id":"490018247N","lat":51.58551,"lon":0.18641,"name":"Pettits Lane Romford","parentId":"490G00018247","stationId":"490G00018247","stopLetter":"->N","topMostParentId":"490G00018247"},{"icsId":"1020318","id":"490020318N","lat":51.58848,"lon":0.18437,"name":"Parkland Avenue","parentId":"490G00020318","stationId":"490G00020318","stopLetter":"->N","topMostParentId":"490G00020318"},{"icsId":"1015787","id":"490015787N","lat":51.59057,"lon":0.18258,"name":"Marshalls Park Academy","parentId":"490G00015787","stationId":"490G00015787","stopLetter":"->N","topMostParentId":"490G00015787"},{"icsId":"1007989","id":"490007989N","lat":51.59382,"lon":0.18067,"name":"Heather Gardens","parentId":"490G00007989","stationId":"490G00007989","stopLetter":"->N","topMostParentId":"490G00007989","towards":"Chase Cross"},{"icsId":"1007988","id":"490007988W","lat":51.59516,"lon":0.17731,"name":"Heather Close","parentId":"490G00007988","stationId":"490G00007988","stopLetter":"CU","topMostParentId":"490G00007988","towards":"Chase Cross"},{"icsId":"1009715","id":"490009715N","lat":51.59702,"lon":0.17486,"name":"Mashiters Hill","parentId":"490G00009715","stationId":"490G00009715","stopLetter":"CV","topMostParentId":"490G00009715","towards":"Chase Cross"},{"icsId":"1010016","id":"490010016N","lat":51.59954,"lon":0.17716,"name":"Moray Way","parentId":"490G00010016","stationId":"490G00010016","stopLetter":"CW","topMostParentId":"490G00010016","towards":"Chase Cross"},{"icsId":"1007128","id":"490007128N","lat":51.6016,"lon":0.17973,"name":"Garry Way","parentId":"490G00007128","stationId":"490G00007128","stopLetter":"CY","topMostParentId":"490G00007128","towards":"Noak Hill"},{"icsId":"1005038","id":"490005032N1","lat":51.60315,"lon":0.18036,"name":"Chase Cross Road","parentId":"490G00005038","stationId":"490G00005038","stopLetter":"CZ","topMostParentId":"490G00005038","towards":"Gallows Corner Or Havering Village"},{"icsId":"1016685","id":"490016685W","lat":51.60319,"lon":0.18315,"name":"Helmsdale Road","parentId":"490G00016685","stationId":"490G00016685","stopLetter":"CJ","topMostParentId":"490G00016685","towards":"Noak Hill"},{"icsId":"1007658","id":"490007644E","lat":51.61085,"lon":0.20907,"name":"Broxhill Road","parentId":"490G00007658","stationId":"490G00007658","stopLetter":"->E","topMostParentId":"490G00007658","towards":"Noak Hill"},{"icsId":"1013169","id":"490013169E","lat":51.61278,"lon":0.21138,"name":"Taunton Road","parentId":"490G00013169","stationId":"490G00013169","stopLetter":"->E","topMostParentId":"490G00013169","towards":"Noak Hill Or Harold Hill"},{"icsId":"1008889","id":"490008889E","lat":51.61422,"lon":0.21459,"name":"Kynance Close","parentId":"490G00008889","stationId":"490G00008889","stopLetter":"->E","topMostParentId":"490G00008889","towards":"Noak Hill Or Harold Hill"},{"icsId":"1014747","id":"490014747S1","lat":51.61511,"lon":0.218,"name":"Wincanton Road","parentId":"490G00014747","stationId":"490G00014747","stopLetter":"->S","topMostParentId":"490G00014747","towards":"Harold Hill and Harold Wood"},{"icsId":"1003409","id":"490003409S","lat":51.61347,"lon":0.21882,"name":"Ashbourne Road","parentId":"490G00003409","stationId":"490G00003409","stopLetter":"->S","topMostParentId":"490G00003409","towards":"Harold Hill and Harold Wood"},{"icsId":"1006127","id":"490006127S","lat":51.61036,"lon":0.21897,"name":"Dorking Walk","parentId":"490G00006127","stationId":"490G00006127","stopLetter":"->S","topMostParentId":"490G00006127","towards":"Gallows Corner"},{"icsId":"1006122","id":"490006122S","lat":51.60912,"lon":0.22199,"name":"Dorking Road","parentId":"490G00006122","stationId":"490G00006122","stopLetter":"NL","topMostParentId":"490G00006122","towards":"Gallows Corner"},{"icsId":"1005187","id":"490005187W","lat":51.60793,"lon":0.22082,"name":"Chippenham Road","parentId":"490G00005187","stationId":"490G00005187","stopLetter":"HH","topMostParentId":"490G00005187","towards":"Noak Hill Or Gallows Corner"},{"icsId":"1006762","id":"490006762W","lat":51.60715,"lon":0.21762,"name":"Hilldene Avenue Shopping Centre","parentId":"490G00006762","stationId":"490G00006762","stopLetter":"->W","topMostParentId":"490G00006762","towards":"Noak Hill Or Gallows Corner"},{"icsId":"1004992","id":"490004992W","lat":51.60535,"lon":0.2122,"name":"Chatteris Avenue","parentId":"490G00004992","stationId":"490G00004992","stopLetter":"->W","topMostParentId":"490G00004992","towards":"Noak Hill Or Gallows Corner"},{"icsId":"1012895","id":"490012895W","lat":51.60488,"lon":0.21008,"name":"Charlbury Crescent","parentId":"490G00012895","stationId":"490G00012895","stopLetter":"->W","topMostParentId":"490G00012895","towards":"Gallows Corner Or Noak Hill"},{"icsId":"1020317","id":"490020317W","lat":51.60325,"lon":0.20719,"name":"Hilldene Primary School","parentId":"490G00020317","stationId":"490G00020317","stopLetter":"->W","topMostParentId":"490G00020317"},{"icsId":"1020316","id":"490020316N","lat":51.60095,"lon":0.20419,"name":"Grange Road / Archway","parentId":"490G00020316","stationId":"490G00020316","stopLetter":"->N","topMostParentId":"490G00020316"},{"icsId":"1015788","id":"490015788S","lat":51.59897,"lon":0.21033,"name":"Heaton Avenue / Heaton Way","parentId":"490G00015788","stationId":"490G00015788","stopLetter":"->S","topMostParentId":"490G00015788"},{"icsId":"1008036","id":"490008036S","lat":51.5986,"lon":0.21164,"name":"Heaton Avenue","parentId":"490G00008036","stationId":"490G00008036","stopLetter":"->S","topMostParentId":"490G00008036","towards":"Romford"},{"icsId":"1006742","id":"490006738S","lat":51.59575,"lon":0.21266,"name":"Masefield Crescent","parentId":"490G00006742","stationId":"490G00006742","stopLetter":"GF","topMostParentId":"490G00006742","towards":"Romford Or Gidea Park"},{"icsId":"1007095","id":"490007095S1","lat":51.59373,"lon":0.21328,"name":"Gallows Corner","parentId":"490G00007095","stationId":"490G00007095","stopLetter":"GE","topMostParentId":"490G00007095","towards":"Romford Or Gidea Park"},{"icsId":"1007097","id":"490007095N2","lat":51.59339,"lon":0.21518,"name":"Gallows Corner Retail Park","parentId":"490G00007097","stationId":"490G00007097","stopLetter":"GG","topMostParentId":"490G00007097","towards":"Brentwood Or Upminster"},{"icsId":"1007096","id":"490007096N","lat":51.59263,"lon":0.21981,"name":"Gallows Corner / Tesco","parentId":"490G00007096","stationId":"490G00007096","stopLetter":"GA","topMostParentId":"490G00007096","towards":"Harold Hill, Harold Wood Or Romford"}]}]}