{"direction":"inbound","lineId":"602","lineName":"602","mode":"bus","stopPointSequences":[{"stopPoint":[{"icsId":"1013754","id":"490013754N","lat":51.45124,"lon":0.14037,"name":"Townley Grammar School","parentId":"490G00013754","stationId":"490G00013754","stopLetter":"W","topMostParentId":"490G00013754","towards":"Bexleyheath"},{"icsId":"1008989","id":"490008989N","lat":51.4532,"lon":0.14283,"name":"Latham Road","parentId":"490G00008989","stationId":"490G00008989","stopLetter":"->N","topMostParentId":"490G00008989","towards":"Bexleyheath"},{"icsId":"1003974","id":"490003974N2","lat":51.46015,"lon":0.15273,"name":"Bexleyheath Bus Garage","parentId":"490G00003974","stationId":"490G00003974","stopLetter":"NS","topMostParentId":"490G00003974","towards":"Erith Or Slade Green"},{"icsId":"1009470","id":"490009470N","lat":51.46363,"lon":0.15453,"name":"Lyndhurst Road","parentId":"490G00009470","stationId":"490G00009470","stopLetter":"NT","topMostParentId":"490G00009470","towards":"Erith Or Slade Green"},{"icsId":"1001013","id":"490001013A","lat":51.46581,"lon":0.15725,"name":"Barnehurst Station","parentId":"910GBRNHRST","stationId":"910GBRNHRST","stopLetter":"B","topMostParentId":"910GBRNHRST","towards":"Erith Or Slade Green"},{"icsId":"1011833","id":"490011832N","lat":51.46846,"lon":0.15843,"name":"Rydal Drive","parentId":"490G00011833","stationId":"490G00011833","stopLetter":"E","topMostParentId":"490G00011833","towards":"Erith Or Slade Green"},{"icsId":"1019145","id":"490004477N1","lat":51.47024,"lon":0.16015,"name":"Brook Street","parentId":"490G00019145","stationId":"490G00019145","stopLetter":"F","topMostParentId":"490G00019145","towards":"Erith Or Slade Green"},{"icsId":"1019146","id":"490004477N","lat":51.47273,"lon":0.16219,"name":"Mill Road","parentId":"490G00019146","stationId":"490G00019146","stopLetter":"H","topMostParentId":"490G00019146","towards":"Abbey Wood"},{"icsId":"1010413","id":"490010413N","lat":51.47456,"lon":0.16272,"name":"Northumberland Park","parentId":"490G00010413","stationId":"490G00010413","stopLetter":"P","topMostParentId":"490G00010413","towards":"Abbey Wood"},{"icsId":"1004804","id":"490004804N","lat":51.47872,"lon":0.16446,"name":"Carlton Road","parentId":"490G00004804","stationId":"490G00004804","stopLetter":"Q","topMostParentId":"490G00004804","towards":"Abbey Wood"},{"icsId":"1009094","id":"490009094N","lat":51.48022,"lon":0.16799,"name":"Lesney Park","parentId":"490G00009094","stationId":"490G00009094","stopLetter":"R","topMostParentId":"490G00009094","towards":"Abbey Wood"},{"icsId":"1006999","id":"490006999C","lat":51.48067,"lon":0.17486,"name":"Fraser Road","parentId":"490G000523","stationId":"490G000523","stopLetter":"C","topMostParentId":"490G000523","towards":"Abbey Wood"},{"icsId":"1006617","id":"490006617M","lat":51.47948,"lon":0.18104,"name":"Erith Health Centre","parentId":"490G00006617","stationId":"490G00006617","stopLetter":"M","topMostParentId":"490G00006617","towards":"Belvedere Or Upper Belvedere"},{"icsId":"1016787","id":"490016787N","lat":51.48061,"lon":0.18177,"name":"Colebrooke Street","parentId":"490G00016787","stationId":"490G00016787","stopLetter":"P","topMostParentId":"490G00016787","towards":"Belvedere Or Upper Belvedere"},{"icsId":"1005817","id":"490006622J","lat":51.48086,"lon":0.1798,"name":"Erith Town Centre / Riverside","parentId":"490G00005817","stationId":"490G00005817","stopLetter":"J","topMostParentId":"490G00005817","towards":"Belvedere Or Upper Belvedere"},{"icsId":"1006623","id":"490006623E","lat":51.48128,"lon":0.17741,"name":"Walnut Tree Road","parentId":"490G00006623","stationId":"490G00006623","stopLetter":"E","topMostParentId":"490G00006623","towards":"Belvedere"},{"icsId":"1006621","id":"490006621F","lat":51.4831,"lon":0.1772,"name":"Erith High Street","parentId":"490G000507","stationId":"490G000507","stopLetter":"F","topMostParentId":"490G000507","towards":"Abbey Wood Or Belvedere"},{"icsId":"1009725","id":"490009725W","lat":51.48529,"lon":0.17289,"name":"Maxim Road / the Ship","parentId":"490G00009725","stationId":"490G00009725","stopLetter":"->W","topMostParentId":"490G00009725","towards":"Abbey Wood Or Belvedere"},{"icsId":"1012687","id":"490012687W","lat":51.48669,"lon":0.17076,"name":"St Francis Road","parentId":"490G00012687","stationId":"490G00012687","stopLetter":"->W","topMostParentId":"490G00012687","towards":"Abbey Wood Or Belvedere"},{"icsId":"1005279","id":"490005279W","lat":51.48805,"lon":0.16882,"name":"Lower Road / Church Manorway","parentId":"490G00005279","stationId":"490G00005279","stopLetter":"->W","topMostParentId":"490G00005279","towards":"Abbey Wood"},{"icsId":"1009739","id":"490009739W","lat":51.49022,"lon":0.16178,"name":"Mayfield Road","parentId":"490G00009739","stationId":"490G00009739","stopLetter":"->W","topMostParentId":"490G00009739","towards":"Abbey Wood"},{"icsId":"1011112","id":"490011112W","lat":51.49019,"lon":0.15876,"name":"Poplar Mount","parentId":"490G00011112","stationId":"490G00011112","stopLetter":"->W","topMostParentId":"490G00011112","towards":"Abbey Wood"},{"icsId":"1007688","id":"490007688W","lat":51.49004,"lon":0.15658,"name":"Halt Robin Lane","parentId":"490G00007688","stationId":"490G00007688","stopLetter":"G","topMostParentId":"490G00007688","towards":"Abbey Wood"},{"icsId":"1003880","id":"490003880A","lat":51.49061,"lon":0.15229,"name":"Lower Road / Belvedere Station","parentId":"490G00003880","stationId":"490G00003880","stopLetter":"H","topMostParentId":"490G00003880","towards":"Abbey Wood Or Bexleyheath"},{"icsId":"1007175","id":"490007175W","lat":51.49128,"lon":0.1481,"name":"Gilbert Road","parentId":"490G00007175","stationId":"490G00007175","stopLetter":"J","topMostParentId":"490G00007175","towards":"Abbey Wood"},{"icsId":"1012627","id":"490012627W","lat":51.49116,"lon":0.14364,"name":"St Augustine's Road","parentId":"490G00012627","stationId":"490G00012627","stopLetter":"K","topMostParentId":"490G00012627","towards":"Abbey Wood"},{"icsId":"1008837","id":"490008837W","lat":51.49046,"lon":0.13936,"name":"Kingswood Avenue","parentId":"490G00008837","stationId":"490G00008837","stopLetter":"Y","topMostParentId":"490G00008837","towards":"Thamesmead"},{"icsId":"1013841","id":"490013841W","lat":51.49021,"lon":0.13638,"name":"Tunstock Way","parentId":"490G00013841","stationId":"490G00013841","stopLetter":"->W","topMostParentId":"490G00013841","towards":"Thamesmead"},{"icsId":"1006959","id":"490009093W","lat":51.4903,"lon":0.13128,"name":"Lesnes Abbey","parentId":"490G00006959","stationId":"490G00006959","stopLetter":"->W","topMostParentId":"490G00006959","towards":"Thamesmead"},{"icsId":"1006958","id":"490006958W","lat":51.4899,"lon":0.12668,"name":"Fossington Road","parentId":"490G00006958","stationId":"490G00006958","stopLetter":"->W","topMostParentId":"490G00006958","towards":"Thamesmead"},{"icsId":"1006877","id":"490006877L","lat":51.48969,"lon":0.1227,"name":"Abbey Wood / Florence Road","parentId":"490G000518","stationId":"490G000518","stopLetter":"L","topMostParentId":"490G000518","towards":"Plumstead Or Thamesmead"},{"icsId":"1003039","id":"490003039G","lat":51.48936,"lon":0.12143,"name":"Abbey Wood Road","parentId":"490G000378","stationId":"490G000378","stopLetter":"G","topMostParentId":"490G000378","towards":"Plumstead Or Thamesmead"},{"icsId":"1001001","id":"490001001Y","lat":51.49163,"lon":0.12143,"name":"Abbey Wood Station","stopLetter":"C","topMostParentId":"490001001Y","towards":"Plumstead Or Thamesmead"},{"icsId":"1019881","id":"490013257A","lat":51.49449,"lon":0.12108,"name":"Harrow Manorway / Lensbury Way","parentId":"490G00019881","stationId":"490G00019881","stopLetter":"A","topMostParentId":"490G00019881","towards":"Plumstead Or Thamesmead"},{"icsId":"1010190","id":"490010190N","lat":51.49783,"lon":0.12103,"name":"Southmere Lake","parentId":"490G00010190","stationId":"490G00010190","stopLetter":"->N","topMostParentId":"490G00010190","towards":"Thamesmead Town Centre"},{"icsId":"1004130","id":"490004130N","lat":51.50343,"lon":0.11899,"name":"Thamesmead / Carlyle Road","parentId":"490G00004130","stationId":"490G00004130","stopLetter":"SK","topMostParentId":"490G00004130","towards":"Thamesmead Town Centre"},{"icsId":"1011113","id":"490011113E","lat":51.50545,"lon":0.12009,"name":"Poplar Place","parentId":"490G00011113","stationId":"490G00011113","stopLetter":"SD","topMostParentId":"490G00011113","towards":"Thamesmead Town Centre"},{"icsId":"1005908","id":"490005908E","lat":51.50658,"lon":0.12444,"name":"Curlew Close","parentId":"490G00005908","stationId":"490G00005908","stopLetter":"NA","topMostParentId":"490G00005908","towards":"Thamesmead Town Centre"},{"icsId":"1009206","id":"490009206E","lat":51.5067,"lon":0.12644,"name":"Lister Walk","parentId":"490G00009206","stationId":"490G00009206","stopLetter":"NB","topMostParentId":"490G00009206","towards":"Thamesmead Town Centre"},{"icsId":"1009550","id":"490009550N","lat":51.50951,"lon":0.12451,"name":"Manordene Road","parentId":"490G00009550","stationId":"490G00009550","stopLetter":"NC","topMostParentId":"490G00009550","towards":"Thamesmead Town Centre"},{"icsId":"1010268","id":"490010268W","lat":51.50923,"lon":0.12019,"name":"Nickelby Close","parentId":"490G00010268","stationId":"490G00010268","stopLetter":"ND","topMostParentId":"490G00010268","towards":"Thamesmead Town Centre"},{"icsId":"1008405","id":"490008405W","lat":51.50896,"lon":0.11639,"name":"Hoveton Road","parentId":"490G00008405","stationId":"490G00008405","topMostParentId":"490G00008405","towards":"Thamesmead Town Centre"},{"icsId":"1009198","id":"490013216E","lat":51.50739,"lon":0.11325,"name":"Linton Mead Primary School","parentId":"490G00009198","stationId":"490G00009198","stopLetter":"E","topMostParentId":"490G00009198","towards":"Thamesmead Town Centre"},{"icsId":"1013214","id":"490013214C","lat":51.50746,"lon":0.10858,"name":"Thamesmead Town Centre","parentId":"490G00013214","stationId":"490G00013214","stopLetter":"C","topMostParentId":"490G00013214"}]}]}