{"direction":"inbound","lineId":"613","lineName":"613","mode":"bus","stopPointSequences":[{"stopPoint":[{"icsId":"1013065","id":"490013065S","lat":51.37932,"lon":-0.20114,"name":"Glenthorne High School","parentId":"490G00013065","stationId":"490G00013065","stopLetter":"SB","topMostParentId":"490G00013065","towards":"Sutton"},{"icsId":"1012631","id":"490012631S","lat":51.37538,"lon":-0.20364,"name":"Stayton Road","parentId":"490G00012631","stationId":"490G00012631","stopLetter":"SC","topMostParentId":"490G00012631","towards":"Sutton"},{"icsId":"1005503","id":"490005503S","lat":51.37284,"lon":-0.20593,"name":"Collingwood Road / Oldfields Road","parentId":"490G00005503","stationId":"490G00005503","stopLetter":"->S","topMostParentId":"490G00005503","towards":"Sutton"},{"icsId":"1003202","id":"490003202N1","lat":51.37015,"lon":-0.20308,"name":"Alexandra Avenue","parentId":"490G00003202","stationId":"490G00003202","stopLetter":"->S","topMostParentId":"490G00003202","towards":"Belmont"},{"icsId":"1004646","id":"490004646S","lat":51.36872,"lon":-0.19996,"name":"Bushey Road / Collingwood Road","parentId":"490G00004646","stationId":"490G00004646","stopLetter":"K","topMostParentId":"490G00004646","towards":"Belmont"},{"icsId":"1013063","id":"490013063E2","lat":51.36977,"lon":-0.19825,"name":"Sutton Bus Garage","parentId":"490G00013063","stationId":"490G00013063","stopLetter":"->E","topMostParentId":"490G00013063","towards":"Belmont, Cheam Or West Sutton"},{"icsId":"1013072","id":"490013072B","lat":51.3698,"lon":-0.19493,"name":"Sutton Green","parentId":"490G00013072","stationId":"490G00013072","stopLetter":"B","topMostParentId":"490G00013072","towards":"Belmont, Carshalton Beeches Or Cheam"},{"icsId":"1013062","id":"490013062C","lat":51.36787,"lon":-0.19497,"name":"High Street / Marshalls Road","parentId":"490G00013062","stationId":"490G00013062","stopLetter":"C","topMostParentId":"490G00013062","towards":"Belmont, Cheam Or West Sutton"},{"icsId":"1003892","id":"490003892E","lat":51.36717,"lon":-0.19331,"name":"Benhill Avenue","parentId":"490G00003892","stationId":"490G00003892","stopLetter":"E","topMostParentId":"490G00003892","towards":"Belmont Or North Cheam"},{"icsId":"1009575","id":"490009575I","lat":51.36548,"lon":-0.19268,"name":"Manor Place","parentId":"490G00009575","stationId":"490G00009575","stopLetter":"I","topMostParentId":"490G00009575","towards":"Belmont, Carshalton Or North Cheam"},{"icsId":"1013679","id":"490013679J","lat":51.36374,"lon":-0.1919,"name":"Times Square","parentId":"490G00013679","stationId":"490G00013679","stopLetter":"J","topMostParentId":"490G00013679","towards":"Belmont, Carshalton Or North Cheam"},{"icsId":"1013081","id":"490013081K","lat":51.36165,"lon":-0.19069,"name":"Sutton Police Station","parentId":"490G00013081","stationId":"490G00013081","stopLetter":"K","topMostParentId":"490G00013081","towards":"Belmont, Carshalton Or North Cheam"},{"icsId":"1013082","id":"490013082S","lat":51.35996,"lon":-0.19308,"name":"Sutton / Grove Road","parentId":"490G00013082","stationId":"490G00013082","stopLetter":"S","topMostParentId":"490G00013082","towards":"Cheam Or West Sutton"},{"icsId":"1013080","id":"490013080T","lat":51.36074,"lon":-0.19539,"name":"Sutton Park Road","parentId":"490G00013080","stationId":"490G00013080","stopLetter":"T","topMostParentId":"490G00013080","towards":"Cheam Or West Sutton"},{"icsId":"1012085","id":"490012085W","lat":51.36097,"lon":-0.19923,"name":"Sherwood Park Road","parentId":"490G00012085","stationId":"490G00012085","stopLetter":"F","topMostParentId":"490G00012085","towards":"Cheam Or West Sutton"},{"icsId":"1007103","id":"490005060W","lat":51.36004,"lon":-0.20441,"name":"Cheam Road / Gander Green Lane","parentId":"490G00007103","stationId":"490G00007103","stopLetter":"E","topMostParentId":"490G00007103","towards":"Cheam Or West Sutton"},{"icsId":"1012437","id":"490012437J","lat":51.35898,"lon":-0.21158,"name":"St Dunstan's Hill","parentId":"490G00012437","stationId":"490G00012437","stopLetter":"J","topMostParentId":"490G00012437","towards":"North Cheam"},{"icsId":"1005056","id":"490005056D","lat":51.35844,"lon":-0.21661,"name":"Cheam Broadway","parentId":"490G00005056","stationId":"490G00005056","stopLetter":"D","topMostParentId":"490G00005056","towards":"Worcester Park"},{"icsId":"1009451","id":"490009451N","lat":51.36121,"lon":-0.21838,"name":"Lumley Road","parentId":"490G00009451","stationId":"490G00009451","stopLetter":"N","topMostParentId":"490G00009451","towards":"Worcester Park"},{"icsId":"1013668","id":"490013668N","lat":51.36324,"lon":-0.2202,"name":"Tilehurst Road","parentId":"490G00013668","stationId":"490G00013668","stopLetter":"->N","topMostParentId":"490G00013668","towards":"Worcester Park"},{"icsId":"1009524","id":"490009524S","lat":51.36644,"lon":-0.22416,"name":"Malden Road / Priory Road","parentId":"490G00009524","stationId":"490G00009524","stopLetter":"S","topMostParentId":"490G00009524","towards":"Morden Or Worcester Park"},{"icsId":"1010323","id":"490010323G","lat":51.37056,"lon":-0.22773,"name":"North Cheam / London Road","parentId":"490G00010323","stationId":"490G00010323","stopLetter":"G","topMostParentId":"490G00010323","towards":"Worcester Park"},{"icsId":"1009283","id":"490009283A","lat":51.37158,"lon":-0.22909,"name":"Wellington Avenue","parentId":"490G00009283","stationId":"490G00009283","stopLetter":"A","topMostParentId":"490G00009283","towards":"Worcester Park"},{"icsId":"1014815","id":"490014815N","lat":51.37373,"lon":-0.2333,"name":"Woodbine Lane","parentId":"490G00014815","stationId":"490G00014815","stopLetter":"->N","topMostParentId":"490G00014815","towards":"New Malden"},{"icsId":"1009181","id":"490009181N","lat":51.37564,"lon":-0.23574,"name":"Lindsay Road","parentId":"490G00009181","stationId":"490G00009181","stopLetter":"->N","topMostParentId":"490G00009181","towards":"New Malden"},{"icsId":"1000283","id":"490000283N","lat":51.377481,"lon":-0.239506,"name":"Brabham Court","topMostParentId":"490000283N","towards":"New Malden"},{"icsId":"1009304","id":"490009304D","lat":51.3789,"lon":-0.24244,"name":"Longfellow Road","parentId":"490G00009304","stationId":"490G00009304","stopLetter":"D","topMostParentId":"490G00009304","towards":"New Malden"},{"icsId":"1001346","id":"490001346C","lat":51.38148,"lon":-0.24668,"name":"Worcester Park Station","stopLetter":"C","topMostParentId":"490001346C","towards":"Malden Manor Or New Malden"},{"icsId":"1009521","id":"490009521N","lat":51.38364,"lon":-0.25016,"name":"Malden Green Avenue","parentId":"490G00009521","stationId":"490G00009521","stopLetter":"MH","topMostParentId":"490G00009521","towards":"New Malden"},{"icsId":"1013501","id":"490013501N","lat":51.38506,"lon":-0.25238,"name":"Plough Green","parentId":"490G00013501","stationId":"490G00013501","stopLetter":"MJ","topMostParentId":"490G00013501","towards":"New Malden"},{"icsId":"1009467","id":"490012310N","lat":51.38716,"lon":-0.25384,"name":"Lyndhurst Drive","parentId":"490G00009467","stationId":"490G00009467","stopLetter":"MK","topMostParentId":"490G00009467","towards":"Norbiton"},{"icsId":"1010058","id":"490010058N","lat":51.39118,"lon":-0.25292,"name":"Motspur Park","parentId":"490G00010058","stationId":"490G00010058","stopLetter":"ML","topMostParentId":"490G00010058","towards":"New Malden Or Norbiton"},{"icsId":"1004091","id":"490004091N","lat":51.39346,"lon":-0.25325,"name":"Blakes Lane","parentId":"490G00004091","stationId":"490G00004091","stopLetter":"MM","topMostParentId":"490G00004091","towards":"New Malden Or Norbiton"},{"icsId":"1009523","id":"490009523S","lat":51.3941,"lon":-0.25534,"name":"Malden Way / Malden Road","parentId":"490G00009523","stationId":"490G00009523","stopLetter":"MP","topMostParentId":"490G00009523","towards":"Tolworth"},{"icsId":"1012311","id":"490012311S","lat":51.39071,"lon":-0.26412,"name":"South Lane","parentId":"490G00012311","stationId":"490G00012311","stopLetter":"MQ","topMostParentId":"490G00012311","towards":"Tolworth"},{"icsId":"1009526","id":"490015370S","lat":51.38912,"lon":-0.26785,"name":"Manor Drive North","parentId":"490G00009526","stationId":"490G00009526","stopLetter":"MR","topMostParentId":"490G00009526","towards":"Tolworth"},{"icsId":"1012360","id":"490012360S","lat":51.38743,"lon":-0.27132,"name":"Southwood Drive / Elmbridge Avenue","parentId":"490G00012360","stationId":"490G00012360","stopLetter":"->S","topMostParentId":"490G00012360","towards":"Tolworth"},{"icsId":"1008173","id":"490008155S","lat":51.38503,"lon":-0.27435,"name":"Oakdene Drive / Highfield Road","parentId":"490G00008173","stationId":"490G00008173","stopLetter":"->S","topMostParentId":"490G00008173","towards":"Tolworth"},{"icsId":"1019477","id":"490014237S","lat":51.38298,"lon":-0.27642,"name":"Warren Drive South","parentId":"490G00019477","stationId":"490G00019477","topMostParentId":"490G00019477","towards":"Surbiton"},{"icsId":"1013701","id":"490013701C","lat":51.37975,"lon":-0.2795,"name":"Tolworth Tower / Tolworth Station","parentId":"490G00013701","stationId":"490G00013701","stopLetter":"C","topMostParentId":"490G00013701","towards":"Surbiton"},{"icsId":"1001295","id":"490001295B","lat":51.37815,"lon":-0.27948,"name":"Tolworth Station","stopLetter":"B","topMostParentId":"490001295B","towards":"Ewell Or Hook"}]}]}