{"direction":"inbound","lineId":"627","lineName":"627","mode":"bus","stopPointSequences":[{"stopPoint":[{"icsId":"1014138","id":"490014138N","lat":51.34847,"lon":-0.1483,"name":"Woodcote Green","parentId":"490G00014138","stationId":"490G00014138","stopLetter":"X","topMostParentId":"490G00014138","towards":"Beddington, Belmont Or Carshalton"},{"icsId":"1007680","id":"490007680N","lat":51.35103,"lon":-0.14795,"name":"Hall Road","parentId":"490G00007680","stationId":"490G00007680","stopLetter":"Y","topMostParentId":"490G00007680","towards":"Beddington, Belmont Or Carshalton"},{"icsId":"1004100","id":"490004100N","lat":51.35352,"lon":-0.14837,"name":"Blenheim Gardens","parentId":"490G00004100","stationId":"490G00004100","stopLetter":"Z","topMostParentId":"490G00004100","towards":"Beddington, Belmont Or Carshalton"},{"icsId":"1012466","id":"490012466G","lat":51.35651,"lon":-0.14919,"name":"Woodcote Road / Stafford Road","parentId":"490G00012466","stationId":"490G00012466","stopLetter":"G","topMostParentId":"490G00012466","towards":"Beddington, Belmont Or Carshalton"},{"icsId":"1003775","id":"490003775K","lat":51.35896,"lon":-0.1498,"name":"Wallington Town Centre","parentId":"490G000407","stationId":"490G000407","stopLetter":"K","topMostParentId":"490G000407","towards":"Beddington, Carshalton Or Hackbridge"},{"icsId":"1001306","id":"490001306D","lat":51.3605,"lon":-0.15076,"name":"Wallington Station","stopLetter":"D","topMostParentId":"490001306D","towards":"Coulsdon, Sutton, Beddington Or Roundshaw"},{"icsId":"1010770","id":"490010770W","lat":51.36362,"lon":-0.15283,"name":"Parkgate Road","parentId":"490G00010770","stationId":"490G00010770","stopLetter":"GE","topMostParentId":"490G00010770","towards":"Carshalton"},{"icsId":"1010783","id":"490010783N","lat":51.36539,"lon":-0.15744,"name":"Park Lane","parentId":"490G00010783","stationId":"490G00010783","stopLetter":"GF","topMostParentId":"490G00010783","towards":"Hackbridge Or Rosehill"},{"icsId":"1004821","id":"490004821E","lat":51.36558,"lon":-0.15957,"name":"Carshalton High Street","parentId":"490G00004821","stationId":"490G00004821","stopLetter":"E","topMostParentId":"490G00004821","towards":"Hackbridge, Rosehill Or Sutton"},{"icsId":"1011153","id":"490011153W","lat":51.36411,"lon":-0.16637,"name":"Pound Street","parentId":"490G00011153","stationId":"490G00011153","stopLetter":"->W","topMostParentId":"490G00011153","towards":"Belmont Or Sutton"},{"icsId":"1001646","id":"490004708W","lat":51.36306,"lon":-0.17355,"name":"Oxford Road","parentId":"490G000280","stationId":"490G000280","stopLetter":"->W","topMostParentId":"490G000280","towards":"Sutton"},{"icsId":"1011585","id":"490011585W","lat":51.36285,"lon":-0.17749,"name":"Carshalton Road / Ringstead Road","parentId":"490G00011585","stationId":"490G00011585","stopLetter":"->W","topMostParentId":"490G00011585","towards":"Sutton"},{"icsId":"1009180","id":"490009180W1","lat":51.3624,"lon":-0.18628,"name":"Lind Road","parentId":"490G00009180","stationId":"490G00009180","stopLetter":"->W","topMostParentId":"490G00009180","towards":"Sutton"},{"icsId":"1015833","id":"490015833S","lat":51.36127,"lon":-0.18954,"name":"Chalk Pit Way","parentId":"490G00015833","stationId":"490G00015833","stopLetter":"AA","topMostParentId":"490G00015833","towards":"Marshall's Road, Sutton"},{"icsId":"1013082","id":"490013082S","lat":51.35996,"lon":-0.19308,"name":"Sutton / Grove Road","parentId":"490G00013082","stationId":"490G00013082","stopLetter":"S","topMostParentId":"490G00013082","towards":"Cheam Or West Sutton"},{"icsId":"1013080","id":"490013080T","lat":51.36074,"lon":-0.19539,"name":"Sutton Park Road","parentId":"490G00013080","stationId":"490G00013080","stopLetter":"T","topMostParentId":"490G00013080","towards":"Cheam Or West Sutton"},{"icsId":"1012085","id":"490012085W","lat":51.36097,"lon":-0.19923,"name":"Sherwood Park Road","parentId":"490G00012085","stationId":"490G00012085","stopLetter":"F","topMostParentId":"490G00012085","towards":"Cheam Or West Sutton"},{"icsId":"1007103","id":"490005060W","lat":51.36004,"lon":-0.20441,"name":"Cheam Road / Gander Green Lane","parentId":"490G00007103","stationId":"490G00007103","stopLetter":"E","topMostParentId":"490G00007103","towards":"Cheam Or West Sutton"},{"icsId":"1012437","id":"490012437J","lat":51.35898,"lon":-0.21158,"name":"St Dunstan's Hill","parentId":"490G00012437","stationId":"490G00012437","stopLetter":"J","topMostParentId":"490G00012437","towards":"North Cheam"},{"icsId":"1005056","id":"490005056D","lat":51.35844,"lon":-0.21661,"name":"Cheam Broadway","parentId":"490G00005056","stationId":"490G00005056","stopLetter":"D","topMostParentId":"490G00005056","towards":"Worcester Park"},{"icsId":"1009451","id":"490009451N","lat":51.36121,"lon":-0.21838,"name":"Lumley Road","parentId":"490G00009451","stationId":"490G00009451","stopLetter":"N","topMostParentId":"490G00009451","towards":"Worcester Park"},{"icsId":"1013668","id":"490013668N","lat":51.36324,"lon":-0.2202,"name":"Tilehurst Road","parentId":"490G00013668","stationId":"490G00013668","stopLetter":"->N","topMostParentId":"490G00013668","towards":"Worcester Park"},{"icsId":"1009524","id":"490009524S","lat":51.36644,"lon":-0.22416,"name":"Malden Road / Priory Road","parentId":"490G00009524","stationId":"490G00009524","stopLetter":"S","topMostParentId":"490G00009524","towards":"Morden Or Worcester Park"},{"icsId":"1010323","id":"490010323G","lat":51.37056,"lon":-0.22773,"name":"North Cheam / London Road","parentId":"490G00010323","stationId":"490G00010323","stopLetter":"G","topMostParentId":"490G00010323","towards":"Worcester Park"},{"icsId":"1009283","id":"490009283A","lat":51.37158,"lon":-0.22909,"name":"Wellington Avenue","parentId":"490G00009283","stationId":"490G00009283","stopLetter":"A","topMostParentId":"490G00009283","towards":"Worcester Park"},{"icsId":"1014815","id":"490014815N","lat":51.37373,"lon":-0.2333,"name":"Woodbine Lane","parentId":"490G00014815","stationId":"490G00014815","stopLetter":"->N","topMostParentId":"490G00014815","towards":"New Malden"},{"icsId":"1009181","id":"490009181N","lat":51.37564,"lon":-0.23574,"name":"Lindsay Road","parentId":"490G00009181","stationId":"490G00009181","stopLetter":"->N","topMostParentId":"490G00009181","towards":"New Malden"},{"icsId":"1000283","id":"490000283N","lat":51.377481,"lon":-0.239506,"name":"Brabham Court","topMostParentId":"490000283N","towards":"New Malden"},{"icsId":"1009304","id":"490009304D","lat":51.3789,"lon":-0.24244,"name":"Longfellow Road","parentId":"490G00009304","stationId":"490G00009304","stopLetter":"D","topMostParentId":"490G00009304","towards":"New Malden"},{"icsId":"1001346","id":"490001346C","lat":51.38148,"lon":-0.24668,"name":"Worcester Park Station","stopLetter":"C","topMostParentId":"490001346C","towards":"Malden Manor Or New Malden"}]}]}