{"direction":"inbound","lineId":"63","lineName":"63","mode":"bus","stopPointSequences":[{"stopPoint":[{"icsId":"1001276","id":"490001276S","lat":51.5316,"lon":-0.12718,"name":"St Pancras International Station","stopLetter":"S","topMostParentId":"490001276S","towards":"Farringdon, Holborn Circus Or Angel"},{"icsId":"1000129","id":"490000129D","lat":51.5304,"lon":-0.12308,"name":"King's Cross Station","stopLetter":"D","topMostParentId":"490000129D","towards":"Farringdon Or Holborn Circus","zone":"1"},{"icsId":"1010929","id":"490010929L","lat":51.53052,"lon":-0.11768,"name":"King's Cross Road / Pentonville Road","parentId":"490G000700","stationId":"490G000700","stopLetter":"L","topMostParentId":"490G000700","towards":"Chancery Lane Or Farringdon Station"},{"icsId":"1003087","id":"490008771S","lat":51.52858,"lon":-0.11564,"name":"Acton Street","parentId":"490G00003087","stationId":"490G00003087","stopLetter":"PO","topMostParentId":"490G00003087","towards":"Farringdon Station"},{"icsId":"1007613","id":"490007613S","lat":51.52733,"lon":-0.1148,"name":"Gwynne Place","parentId":"490G00007613","stationId":"490G00007613","stopLetter":"PP","topMostParentId":"490G00007613","towards":"Farringdon Station"},{"icsId":"1010089","id":"490010089S","lat":51.52549,"lon":-0.11123,"name":"Rosebery Avenue / Mount Pleasant","parentId":"490G00010089","stationId":"490G00010089","stopLetter":"CG","topMostParentId":"490G00010089","towards":"Blackfriars"},{"icsId":"1004217","id":"490004217S","lat":51.52405,"lon":-0.10922,"name":"Bowling Green Lane","parentId":"490G00004217","stationId":"490G00004217","stopLetter":"CL","topMostParentId":"490G00004217","towards":"Blackfriars"},{"icsId":"1015104","id":"490015104S","lat":51.52176,"lon":-0.10658,"name":"Clerkenwell Road","parentId":"490G00015104","stationId":"490G00015104","stopLetter":"H","topMostParentId":"490G00015104","towards":"Blackfriars Or Waterloo"},{"icsId":"1000080","id":"490000080B","lat":51.52024,"lon":-0.10582,"name":"Farringdon Station","stopLetter":"B","topMostParentId":"490000080B","towards":"Blackfriars Or Waterloo","zone":"1"},{"icsId":"1012217","id":"490012217S","lat":51.51809,"lon":-0.10513,"name":"Charterhouse Street","parentId":"490G000448","stationId":"490G000448","stopLetter":"HT","topMostParentId":"490G000448","towards":"Blackfriars, London Bridge Or Waterloo"},{"icsId":"1012640","id":"490012640L","lat":51.51491,"lon":-0.10441,"name":"Fleet Street / City Thameslink","parentId":"490G00012640","stationId":"490G00012640","stopLetter":"L","topMostParentId":"490G00012640","towards":"Blackfriars, London Bridge Or Waterloo"},{"icsId":"1020084","id":"490000023T","lat":51.51035,"lon":-0.10424,"name":"Blackfriars Station  / North Entrance","parentId":"490G00020084","stationId":"490G00020084","stopLetter":"L","topMostParentId":"490G00020084","towards":"Elephant & Castle"},{"icsId":"1013934","id":"490013934S","lat":51.50821,"lon":-0.1043,"name":"Blackfriars Station / South Entrance","parentId":"490G00013934","stationId":"490G00013934","stopLetter":"D","topMostParentId":"HUBBFR","towards":"Elephant & Castle"},{"icsId":"1012526","id":"490012526SC","lat":51.50572,"lon":-0.10442,"name":"Stamford Street","parentId":"490G00012526","stationId":"490G00012526","stopLetter":"SC","topMostParentId":"490G00012526","towards":"Elephant & Castle"},{"icsId":"1000215","id":"490013323SB","lat":51.50326,"lon":-0.10445,"name":"Southwark Station","stopLetter":"SB","topMostParentId":"490013323SB","towards":"Elephant & Castle","zone":"1"},{"icsId":"1011082","id":"490011082S","lat":51.50235,"lon":-0.10447,"name":"Pocock Street","parentId":"490G00011082","stationId":"490G00011082","stopLetter":"W","topMostParentId":"490G00011082","towards":"Bricklayers Arms Or Camberwell Green"},{"icsId":"1012693","id":"490015140S","lat":51.49941,"lon":-0.10468,"name":"St George's Circus","parentId":"490G00012693","stationId":"490G00012693","stopLetter":"Y","topMostParentId":"490G00012693","towards":"Bricklayers Arms Or Camberwell Green"},{"icsId":"1009281","id":"490009281E","lat":51.4961,"lon":-0.10133,"name":"Elephant & Castle / London Road","parentId":"490G000642","stationId":"490G000642","stopLetter":"E","topMostParentId":"490G000642","towards":"New Cross, Peckham Or Surrey Quays"},{"icsId":"1009298","id":"490000073J","lat":51.49486,"lon":-0.09781,"name":"Elephant & Castle / New Kent Road","parentId":"490G000645","stationId":"490G000645","stopLetter":"J","topMostParentId":"HUBEPH","towards":"New Cross Or Peckham"},{"icsId":"1011632","id":"490011632BA","lat":51.49422,"lon":-0.09444,"name":"Rodney Place","parentId":"490G00011632","stationId":"490G00011632","stopLetter":"BA","topMostParentId":"490G00011632","towards":"New Cross, Peckham Or Surrey Quays"},{"icsId":"1003658","id":"490003658BB","lat":51.49431,"lon":-0.08874,"name":"Bricklayer's Arms / New Kent Road","parentId":"490G00003658","stationId":"490G00003658","stopLetter":"BB","topMostParentId":"490G00003658","towards":"New Cross Or Peckham"},{"icsId":"1004315","id":"490004315S2","lat":51.49337,"lon":-0.08402,"name":"Bricklayer's Arms","parentId":"490G00004315","stationId":"490G00004315","stopLetter":"BF","topMostParentId":"490G00004315","towards":"Camberwell Or Peckham"},{"icsId":"1006379","id":"490006379BL","lat":51.49146,"lon":-0.08186,"name":"Old Kent Road / East Street","parentId":"490G00006379","stationId":"490G00006379","stopLetter":"G","topMostParentId":"490G00006379","towards":"New Cross Or Peckham"},{"icsId":"1006266","id":"490006266EB","lat":51.48881,"lon":-0.07744,"name":"Dunton Road","parentId":"490G00006266","stationId":"490G00006266","stopLetter":"EB","topMostParentId":"490G00006266","towards":"Peckham"},{"icsId":"1010282","id":"490010282SK","lat":51.48601,"lon":-0.07401,"name":"Nile Terrace","parentId":"490G00010282","stationId":"490G00010282","stopLetter":"SK","topMostParentId":"490G00010282","towards":"Honor Oak"},{"icsId":"1014117","id":"490014117S","lat":51.48394,"lon":-0.07403,"name":"Waite Street","parentId":"490G00014117","stationId":"490G00014117","stopLetter":"Y","topMostParentId":"490G00014117","towards":"Honor Oak"},{"icsId":"1012709","id":"490012709S","lat":51.48155,"lon":-0.07398,"name":"St George's Way","parentId":"490G00012709","stationId":"490G00012709","stopLetter":"Z","topMostParentId":"490G00012709","towards":"Honor Oak"},{"icsId":"1015073","id":"490015073S","lat":51.47936,"lon":-0.07117,"name":"Bird In Bush Road","parentId":"490G00015073","stationId":"490G00015073","stopLetter":"L","topMostParentId":"490G00015073","towards":"Honor Oak"},{"icsId":"1005525","id":"490005525S1","lat":51.47799,"lon":-0.0704,"name":"Commercial Way","parentId":"490G00005525","stationId":"490G00005525","stopLetter":"M","topMostParentId":"490G00005525","towards":"Honor Oak"},{"icsId":"1004140","id":"490004140S","lat":51.47644,"lon":-0.06958,"name":"Bonar Road","parentId":"490G00004140","stationId":"490G00004140","stopLetter":"N","topMostParentId":"490G00004140","towards":"Honor Oak Or Nunhead"},{"icsId":"1010878","id":"490010878D","lat":51.47478,"lon":-0.0689,"name":"Peckham Library","parentId":"490G00010878","stationId":"490G00010878","stopLetter":"D","topMostParentId":"490G00010878","towards":"Honor Oak Or Nunhead"},{"icsId":"1010882","id":"490010882F","lat":51.47402,"lon":-0.06722,"name":"Peckham Post Office","parentId":"490G00010882","stationId":"490G00010882","stopLetter":"F","topMostParentId":"490G00010882","towards":"Honor Oak"},{"icsId":"1007758","id":"490007758N","lat":51.47145,"lon":-0.06953,"name":"The Aylesham Centre","parentId":"490G00007758","stationId":"490G00007758","stopLetter":"N","topMostParentId":"490G00007758","towards":"Brockley, East Dulwich Or Honor Oak"},{"icsId":"1001223","id":"490001223V","lat":51.46932,"lon":-0.06799,"name":"Peckham Rye Station","stopLetter":"V","topMostParentId":"490001223V","towards":"Honor Oak, Dulwich Or East Dulwich"},{"icsId":"1010269","id":"490010269S1","lat":51.46614,"lon":-0.06595,"name":"Nigel Road","parentId":"490G00010269","stationId":"490G00010269","stopLetter":"EA","topMostParentId":"490G00010269","towards":"Dulwich, East Dulwich Or Honor Oak"},{"icsId":"1008807","id":"490008807S2","lat":51.46262,"lon":-0.06647,"name":"Peckham Rye / East Dulwich Road","parentId":"490G00008807","stationId":"490G00008807","stopLetter":"WN","topMostParentId":"490G00008807","towards":"Dulwich Or Honor Oak"},{"icsId":"1013366","id":"490013366S","lat":51.46031,"lon":-0.06608,"name":"The Gardens","parentId":"490G00013366","stationId":"490G00013366","stopLetter":"WQ","topMostParentId":"490G00013366","towards":"Dulwich Or Honor Oak"},{"icsId":"1007032","id":"490007032S","lat":51.45739,"lon":-0.06467,"name":"Friern Road","parentId":"490G00007032","stationId":"490G00007032","stopLetter":"WP","topMostParentId":"490G00007032","towards":"Crystal Palace"},{"icsId":"1006264","id":"490006264S","lat":51.45363,"lon":-0.06189,"name":"Dunstans Road","parentId":"490G00006264","stationId":"490G00006264","stopLetter":"WR","topMostParentId":"490G00006264","towards":"Crystal Palace"},{"icsId":"1006921","id":"490006921S","lat":51.45183,"lon":-0.05952,"name":"Therapia Road","parentId":"490G00006921","stationId":"490G00006921","stopLetter":"J","topMostParentId":"490G00006921","towards":"Crystal Palace"}]}]}