{"direction":"inbound","lineId":"640","lineName":"640","mode":"bus","stopPointSequences":[{"stopPoint":[{"icsId":"1003911","id":"490003911S","lat":51.616,"lon":-0.33633,"name":"Bentley Wood High School","parentId":"490G00003911","stationId":"490G00003911","stopLetter":"->S","topMostParentId":"490G00003911","towards":"Wealdstone"},{"icsId":"1004387","id":"490004387W","lat":51.61288,"lon":-0.3324,"name":"Brockhurst Corner","parentId":"490G00004387","stationId":"490G00004387","stopLetter":"->W","topMostParentId":"490G00004387","towards":"Hatch End Or Wealdstone"},{"icsId":"1003251","id":"490003251W","lat":51.61175,"lon":-0.33485,"name":"All Saints Mews","parentId":"490G00003251","stationId":"490G00003251","stopLetter":"WG","topMostParentId":"490G00003251","towards":"Hatch End Or Wealdstone"},{"icsId":"1013971","id":"490013971S","lat":51.60994,"lon":-0.33939,"name":"Uxbridge Road","parentId":"490G00013971","stationId":"490G00013971","stopLetter":"WH","topMostParentId":"490G00013971","towards":"Wealdstone Or Pinner"},{"icsId":"1007870","id":"490007870S2","lat":51.60582,"lon":-0.34018,"name":"Harrow Weald Bus Garage","parentId":"490G00007870","stationId":"490G00007870","stopLetter":"WK","topMostParentId":"490G00007870","towards":"Wealdstone"},{"icsId":"1014327","id":"490014327S","lat":51.6032,"lon":-0.33869,"name":"Weald Lane","parentId":"490G00014327","stationId":"490G00014327","stopLetter":"WL","topMostParentId":"490G00014327","towards":"Harrow"},{"icsId":"1011882","id":"490011882S","lat":51.60017,"lon":-0.33766,"name":"Salvatorian College / St Joseph's Church","parentId":"490G00011882","stationId":"490G00011882","stopLetter":"WN","topMostParentId":"490G00011882","towards":"Harrow"},{"icsId":"1007844","id":"490007844D","lat":51.59699,"lon":-0.33572,"name":"Wealdstone Baptist Church","parentId":"490G00007844","stationId":"490G00007844","stopLetter":"D","topMostParentId":"490G00007844","towards":"Harrow"},{"icsId":"1015250","id":"490015250F","lat":51.59446,"lon":-0.33495,"name":"The Wealdstone Centre","parentId":"490G00015250","stationId":"490G00015250","stopLetter":"F","topMostParentId":"490G00015250"},{"icsId":"1000101","id":"490015249M","lat":51.59231,"lon":-0.33392,"name":"Harrow & Wealdstone Station","stopLetter":"M","topMostParentId":"490015249M","towards":"Northwick Park Hospital Or South Harrow","zone":"5"},{"icsId":"1007846","id":"490007846L","lat":51.58849,"lon":-0.33238,"name":"Harrow Civic Centre / Harrow Mosque","parentId":"490G00007846","stationId":"490G00007846","stopLetter":"L","topMostParentId":"490G00007846","towards":"Northwick Park Hospital Or South Harrow"},{"icsId":"1008255","id":"490008255V","lat":51.58453,"lon":-0.33209,"name":"Hindes Road","parentId":"490G00008255","stationId":"490G00008255","stopLetter":"V","topMostParentId":"490G00008255","towards":"Northwick Park Hospital Or South Harrow"},{"icsId":"1019800","id":"490015347H","lat":51.58228,"lon":-0.33235,"name":"Harrow Town Centre / St John's Road","parentId":"490G00019800","stationId":"490G00019800","stopLetter":"H","topMostParentId":"490G00019800","towards":"South Harrow Or Northwick Park Hospital"},{"icsId":"1015347","id":"490015347S","lat":51.58071,"lon":-0.33391,"name":"Harrow Town Centre","parentId":"490G00015347","stationId":"490G00015347","stopLetter":"J","topMostParentId":"490G00015347","towards":"South Harrow Or Northwick Park Hospital"},{"icsId":"1007845","id":"490007845B","lat":51.58004,"lon":-0.33758,"name":"Harrow Bus Station","parentId":"490G000574","stationId":"490G000574","stopLetter":"B","topMostParentId":"HUBHOH","towards":"South Harrow"},{"icsId":"1008984","id":"490008984W","lat":51.57672,"lon":-0.3453,"name":"Lascelles Avenue","parentId":"490G00008984","stationId":"490G00008984","stopLetter":"WX","topMostParentId":"490G00008984","towards":"Pinner Or South Harrow"},{"icsId":"1013792","id":"490013792S","lat":51.57458,"lon":-0.35028,"name":"Whitmore Road","parentId":"490G000805","stationId":"490G000805","stopLetter":"WY","topMostParentId":"490G000805","towards":"South Harrow"},{"icsId":"1011122","id":"490011122E","lat":51.57187,"lon":-0.35313,"name":"Porlock Avenue","parentId":"490G00011122","stationId":"490G00011122","stopLetter":"WZ","topMostParentId":"490G00011122","towards":"South Harrow"},{"icsId":"1006218","id":"490006218E","lat":51.57007,"lon":-0.34979,"name":"Dudley Road","parentId":"490G00006218","stationId":"490G00006218","stopLetter":"RS","topMostParentId":"490G00006218","towards":"South Harrow"},{"icsId":"1012026","id":"490012026S","lat":51.56824,"lon":-0.34822,"name":"Grange Road","parentId":"490G00012026","stationId":"490G00012026","stopLetter":"RC","topMostParentId":"490G00012026","towards":"Northolt, Rayners Lane Or Ruislip"},{"icsId":"1012306","id":"490012306W","lat":51.56501,"lon":-0.35175,"name":"South Harrow Bus Station","parentId":"490G000752","stationId":"490G000752","stopLetter":"Z1","topMostParentId":"490G000752"}]}]}