{"direction":"inbound","lineId":"65","lineName":"65","mode":"bus","stopPointSequences":[{"stopPoint":[{"icsId":"1000062","id":"490000062C","lat":51.51519,"lon":-0.30227,"name":"Ealing Broadway Station","stopLetter":"C","topMostParentId":"490000062C","towards":"South Ealing","zone":"3"},{"icsId":"1006291","id":"490006291L","lat":51.51218,"lon":-0.30472,"name":"Ealing Broadway Centre","parentId":"490G00006291","stationId":"490G00006291","stopLetter":"L","topMostParentId":"490G00006291","towards":"Brentford"},{"icsId":"1007353","id":"490007353S","lat":51.50909,"lon":-0.30528,"name":"Grange Road","parentId":"490G00007353","stationId":"490G00007353","stopLetter":"A","topMostParentId":"490G00007353","towards":"Brentford"},{"icsId":"1014254","id":"490014254S","lat":51.50687,"lon":-0.30502,"name":"Warwick Road / University of West London","parentId":"490G00014254","stationId":"490G00014254","stopLetter":"B","topMostParentId":"490G00014254","towards":"Brentford"},{"icsId":"1012789","id":"490012789S","lat":51.50445,"lon":-0.30604,"name":"St Mary's Church","parentId":"490G00012789","stationId":"490G00012789","stopLetter":"C","topMostParentId":"490G00012789","towards":"Brentford"},{"icsId":"1000208","id":"490000208B","lat":51.5011,"lon":-0.30661,"name":"South Ealing Station","stopLetter":"D","topMostParentId":"490000208B","towards":"Brentford","zone":"3"},{"icsId":"1020072","id":"490011106S","lat":51.49765,"lon":-0.3056,"name":"Chandos Avenue","parentId":"490G00020072","stationId":"490G00020072","stopLetter":"E","topMostParentId":"490G00020072","towards":"Brentford"},{"icsId":"1005978","id":"490005978S","lat":51.49462,"lon":-0.30533,"name":"Darwin Road","parentId":"490G00005978","stationId":"490G00005978","stopLetter":"F","topMostParentId":"490G00005978","towards":"Brentford"},{"icsId":"1019193","id":"490006300T","lat":51.49204,"lon":-0.30423,"name":"Great West Road","parentId":"490G00019193","stationId":"490G00019193","stopLetter":"BA","topMostParentId":"490G00019193","towards":"Kew"},{"icsId":"1010259","id":"490010259U","lat":51.48891,"lon":-0.30139,"name":"New Road","parentId":"490G00010259","stationId":"490G00010259","stopLetter":"BC","topMostParentId":"490G00010259","towards":"Kew Or Isleworth"},{"icsId":"1003137","id":"490003137V","lat":51.48658,"lon":-0.29989,"name":"Albany Road","parentId":"490G00003137","stationId":"490G00003137","stopLetter":"BD","topMostParentId":"490G00003137","towards":"Kew Bridge Or Isleworth"},{"icsId":"1006297","id":"490006297W","lat":51.48616,"lon":-0.29851,"name":"Watermans Centre","parentId":"490G00006297","stationId":"490G00006297","stopLetter":"BE","topMostParentId":"490G00006297","towards":"Chiswick Or Kew"},{"icsId":"1004293","id":"490004293E","lat":51.48749,"lon":-0.2939,"name":"The Musical Museum","parentId":"490G00004293","stationId":"490G00004293","stopLetter":"BF","topMostParentId":"490G00004293","towards":"Chiswick Or Richmond"},{"icsId":"1008690","id":"490008690E","lat":51.48855,"lon":-0.29033,"name":"London Museum of Water and Steam","parentId":"490G00008690","stationId":"490G00008690","stopLetter":"Y","topMostParentId":"490G00008690","towards":"Chiswick Or Richmond"},{"icsId":"1008688","id":"490008688P","lat":51.48823,"lon":-0.28739,"name":"Kew Bridge","parentId":"490G000617","stationId":"490G000617","stopLetter":"H","topMostParentId":"490G000617","towards":"Richmond"},{"icsId":"1008696","id":"490008696M","lat":51.48486,"lon":-0.28728,"name":"Kew Green","parentId":"490G000619","stationId":"490G000619","stopLetter":"A","topMostParentId":"490G000619","towards":"Richmond"},{"icsId":"1010048","id":"490010048K","lat":51.48238,"lon":-0.28703,"name":"Mortlake Road","parentId":"490G00010048","stationId":"490G00010048","stopLetter":"B","topMostParentId":"490G00010048","towards":"Richmond"},{"icsId":"1008695","id":"490008695H","lat":51.48001,"lon":-0.28918,"name":"Kew Gardens Road","parentId":"490G00008695","stationId":"490G00008695","stopLetter":"C","topMostParentId":"490G00008695","towards":"Richmond"},{"icsId":"1008693","id":"490008693E","lat":51.47758,"lon":-0.29062,"name":"Kew Road / Victoria Gate","parentId":"490G000618","stationId":"490G000618","stopLetter":"D","topMostParentId":"490G000618","towards":"Ham"},{"icsId":"1013238","id":"490013238S","lat":51.47381,"lon":-0.29233,"name":"The Avenue","parentId":"490G00013238","stationId":"490G00013238","stopLetter":"E","topMostParentId":"490G00013238","towards":"Ham"},{"icsId":"1008692","id":"490008692S","lat":51.47127,"lon":-0.29328,"name":"Kew Gardens / Lion Gate","parentId":"490G00008692","stationId":"490G00008692","stopLetter":"F","topMostParentId":"490G00008692","towards":"Ham"},{"icsId":"1010725","id":"490010725S","lat":51.46833,"lon":-0.29501,"name":"Pagoda Avenue","parentId":"490G00010725","stationId":"490G00010725","stopLetter":"RF","topMostParentId":"490G00010725","towards":"Ham"},{"icsId":"1006660","id":"490006660S","lat":51.4664,"lon":-0.29785,"name":"Evelyn Road","parentId":"490G00006660","stationId":"490G00006660","stopLetter":"RG","topMostParentId":"490G00006660","towards":"Ham"},{"icsId":"1000192","id":"490000192D","lat":51.46333,"lon":-0.30205,"name":"Richmond Station","stopLetter":"D","topMostParentId":"490000192D","towards":"Ham","zone":"4"},{"icsId":"1013511","id":"490013511F","lat":51.46193,"lon":-0.30294,"name":"The Quadrant","parentId":"490G00013511","stationId":"490G00013511","stopLetter":"F","topMostParentId":"490G00013511","towards":"Ham, St Margarets Or Twickenham"},{"icsId":"1011556","id":"490011556J","lat":51.4591,"lon":-0.30458,"name":"Richmond Bus Station","parentId":"490G00011556","stationId":"490G00011556","stopLetter":"J","topMostParentId":"490G00011556","towards":"Ham, St Margarets Or Twickenham"},{"icsId":"1005531","id":"490005531S","lat":51.45589,"lon":-0.30338,"name":"Compass Hill","parentId":"490G00005531","stationId":"490G00005531","stopLetter":"P","topMostParentId":"490G00005531","towards":"Ham"},{"icsId":"1013571","id":"490013571S","lat":51.45424,"lon":-0.30269,"name":"Robins Court","parentId":"490G00013571","stationId":"490G00013571","stopLetter":"R","topMostParentId":"490G00013571","towards":"Ham"},{"icsId":"1010271","id":"490010271S","lat":51.45129,"lon":-0.30087,"name":"Nightingale Lane","parentId":"490G00010271","stationId":"490G00010271","stopLetter":"->S","topMostParentId":"490G00010271","towards":"Ham"},{"icsId":"1013340","id":"490013340W","lat":51.44634,"lon":-0.29927,"name":"The Dysart","parentId":"490G00013340","stationId":"490G00013340","stopLetter":"->W","topMostParentId":"490G00013340","towards":"Kingston"},{"icsId":"1011911","id":"490011911S","lat":51.44407,"lon":-0.30265,"name":"Sudbrook Lane","parentId":"490G00011911","stationId":"490G00011911","stopLetter":"->S","topMostParentId":"490G00011911","towards":"Kingston"},{"icsId":"1011927","id":"490011927S","lat":51.43996,"lon":-0.3038,"name":"Sandy Lane","parentId":"490G00011927","stationId":"490G00011927","stopLetter":"->S","topMostParentId":"490G00011927","towards":"Kingston"},{"icsId":"1007692","id":"490007692S","lat":51.43504,"lon":-0.30552,"name":"Ham Gate Avenue","parentId":"490G00007692","stationId":"490G00007692","stopLetter":"A","topMostParentId":"490G00007692","towards":"Kingston"},{"icsId":"1006225","id":"490007691S","lat":51.43071,"lon":-0.30703,"name":"Ham Parade","parentId":"490G00006225","stationId":"490G00006225","stopLetter":"B","topMostParentId":"490G00006225","towards":"Kingston"},{"icsId":"1006227","id":"490013828S","lat":51.42963,"lon":-0.30696,"name":"Tudor Drive","parentId":"490G00006227","stationId":"490G00006227","stopLetter":"C","topMostParentId":"490G00006227","towards":"Kingston"},{"icsId":"1013663","id":"490013663S","lat":51.42504,"lon":-0.30444,"name":"Tiffin Girls School","parentId":"490G00013663","stationId":"490G00013663","stopLetter":"D","topMostParentId":"490G00013663","towards":"Kingston"},{"icsId":"1006276","id":"490006276S","lat":51.42203,"lon":-0.30276,"name":"Durlston Road","parentId":"490G00006276","stationId":"490G00006276","stopLetter":"E","topMostParentId":"490G00006276","towards":"Kingston"},{"icsId":"1014895","id":"490008988S","lat":51.42067,"lon":-0.30221,"name":"Latchmere Road","parentId":"490G00014895","stationId":"490G00014895","stopLetter":"->S","topMostParentId":"490G00014895","towards":"Kingston"},{"icsId":"1018665","id":"490018665S","lat":51.41825,"lon":-0.30154,"name":"Windsor Road","parentId":"490G00018665","stationId":"490G00018665","stopLetter":"->S","topMostParentId":"490G00018665","towards":"Kingston"},{"icsId":"1008813","id":"490008813S","lat":51.41621,"lon":-0.30122,"name":"Kings Road","parentId":"490G00008813","stationId":"490G00008813","stopLetter":"->S","topMostParentId":"490G00008813","towards":"Kingston"},{"icsId":"1001173","id":"490001173V","lat":51.41342,"lon":-0.30035,"name":"Kingston Station","stopLetter":"V","topMostParentId":"490001173V","towards":"New Malden Or Surbiton"},{"icsId":"1005800","id":"490005800A3","lat":51.41235,"lon":-0.29842,"name":"Cromwell Road Bus Station","parentId":"490G000476","stationId":"490G000476","stopLetter":"A3","topMostParentId":"490G000476","towards":"Surbiton"},{"icsId":"1006412","id":"490006412D2","lat":51.41003,"lon":-0.30245,"name":"Eden Street","parentId":"490G00006412","stationId":"490G00006412","stopLetter":"D2","topMostParentId":"490G00006412","towards":"Surbiton"},{"icsId":"1004478","id":"490004478F","lat":51.40833,"lon":-0.30367,"name":"Brook Street","parentId":"490G00004478","stationId":"490G00004478","stopLetter":"F","topMostParentId":"490G00004478","towards":"Surbiton"}]}]}