{"direction":"inbound","lineId":"651","lineName":"651","mode":"bus","stopPointSequences":[{"stopPoint":[{"icsId":"1005032","id":"490005032E","lat":51.60391,"lon":0.17925,"name":"Chase Cross","parentId":"490G00005032","stationId":"490G00005032","stopLetter":"CE","topMostParentId":"490G00005032","towards":"Romford"},{"icsId":"1004726","id":"490004726S","lat":51.60244,"lon":0.18027,"name":"Campbell Close","parentId":"490G00004726","stationId":"490G00004726","stopLetter":"CP","topMostParentId":"490G00004726","towards":"Romford"},{"icsId":"1007128","id":"490007128S","lat":51.60104,"lon":0.17928,"name":"Garry Way","parentId":"490G00007128","stationId":"490G00007128","stopLetter":"CQ","topMostParentId":"490G00007128","towards":"Romford"},{"icsId":"1007262","id":"490007262N","lat":51.60145,"lon":0.174,"name":"Gobions Avenue","parentId":"490G00007262","stationId":"490G00007262","stopLetter":"CN","topMostParentId":"490G00007262","towards":"Chase Cross"},{"icsId":"1003843","id":"490003843W","lat":51.60101,"lon":0.17184,"name":"Belle Vue Road","parentId":"490G00003843","stationId":"490G00003843","stopLetter":"EQ","topMostParentId":"490G00003843","towards":"Romford"},{"icsId":"1009018","id":"490006777W","lat":51.60033,"lon":0.16861,"name":"Felstead Road","parentId":"490G00009018","stationId":"490G00009018","stopLetter":"ES","topMostParentId":"490G00009018","towards":"Romford"},{"icsId":"1005033","id":"490005033E","lat":51.60046,"lon":0.16396,"name":"Collier Row / Nth Romford Community Ctr","parentId":"490G00005033","stationId":"490G00005033","stopLetter":"EM","topMostParentId":"490G00005033","towards":"Havering Park"},{"icsId":"1004594","id":"490004594E","lat":51.60271,"lon":0.16518,"name":"Burland Road","parentId":"490G00004594","stationId":"490G00004594","stopLetter":"EN","topMostParentId":"490G00004594","towards":"Havering Park"},{"icsId":"1008974","id":"490008974E","lat":51.60531,"lon":0.16569,"name":"Larchwood Avenue","parentId":"490G00008974","stationId":"490G00008974","stopLetter":"->E","topMostParentId":"490G00008974","towards":"Havering Park"},{"icsId":"1008423","id":"490008423W","lat":51.60778,"lon":0.1656,"name":"Hunters Grove","parentId":"490G00008423","stationId":"490G00008423","topMostParentId":"490G00008423","towards":"Havering Park"},{"icsId":"1007917","id":"490007917W","lat":51.60897,"lon":0.16444,"name":"Havering Park","parentId":"490G00007917","stationId":"490G00007917","stopLetter":"->W","topMostParentId":"490G00007917","towards":"Romford"},{"icsId":"1005004","id":"490005004E1","lat":51.60877,"lon":0.16106,"name":"Charlotte Gardens","parentId":"490G00005004","stationId":"490G00005004","stopLetter":"->W","topMostParentId":"490G00005004","towards":"Romford"},{"icsId":"1011134","id":"490011134S","lat":51.60744,"lon":0.15638,"name":"Portmore Gardens","parentId":"490G00011134","stationId":"490G00011134","stopLetter":"->S","topMostParentId":"490G00011134","towards":"Romford"},{"icsId":"1012587","id":"490012587S","lat":51.60534,"lon":0.15566,"name":"Stapleford Gardens","parentId":"490G00012587","stationId":"490G00012587","stopLetter":"WA","topMostParentId":"490G00012587","towards":"Romford"},{"icsId":"1007035","id":"490007035S","lat":51.60041,"lon":0.15303,"name":"Frinton Road","parentId":"490G00007035","stationId":"490G00007035","stopLetter":"WB","topMostParentId":"490G00007035","towards":"Romford"},{"icsId":"1007260","id":"490007260E","lat":51.59779,"lon":0.15391,"name":"Gobions Farm","parentId":"490G00007260","stationId":"490G00007260","stopLetter":"WD","topMostParentId":"490G00007260","towards":"Romford"},{"icsId":"1014595","id":"490014594S","lat":51.59633,"lon":0.15591,"name":"Collier Row Road","parentId":"490G00014595","stationId":"490G00014595","stopLetter":"WJ","topMostParentId":"490G00014595","towards":"Romford"},{"icsId":"1008411","id":"490008411S","lat":51.59426,"lon":0.15599,"name":"Howe Close","parentId":"490G00008411","stationId":"490G00008411","stopLetter":"WK","topMostParentId":"490G00008411","towards":"Romford"},{"icsId":"1013995","id":"490013995S","lat":51.59271,"lon":0.15669,"name":"Valiant Close","parentId":"490G00013995","stationId":"490G00013995","stopLetter":"WL","topMostParentId":"490G00013995","towards":"Romford"},{"icsId":"1005814","id":"490005814E","lat":51.59042,"lon":0.15986,"name":"Cross Road","parentId":"490G00005814","stationId":"490G00005814","stopLetter":"A","topMostParentId":"490G00005814","towards":"Romford"},{"icsId":"1010936","id":"490010936S","lat":51.58878,"lon":0.16139,"name":"Percy Road","parentId":"490G00010936","stationId":"490G00010936","stopLetter":"B","topMostParentId":"490G00010936","towards":"Romford"},{"icsId":"1004010","id":"490004010S","lat":51.5866,"lon":0.16252,"name":"Birch Road","parentId":"490G00004010","stationId":"490G00004010","stopLetter":"C","topMostParentId":"490G00004010","towards":"Romford"},{"icsId":"1013045","id":"490013045S","lat":51.58471,"lon":0.1635,"name":"Susan Close","parentId":"490G00013045","stationId":"490G00013045","stopLetter":"D","topMostParentId":"490G00013045","towards":"Romford"},{"icsId":"1009720","id":"490006340S","lat":51.58233,"lon":0.16472,"name":"Eastern Avenue","parentId":"490G00009720","stationId":"490G00009720","stopLetter":"E","topMostParentId":"490G00009720","towards":"Romford"},{"icsId":"1010507","id":"490010507S","lat":51.57997,"lon":0.16859,"name":"Oak Street","parentId":"490G00010507","stationId":"490G00010507","stopLetter":"F","topMostParentId":"490G00010507","towards":"Romford Station"},{"icsId":"1005096","id":"490005529S","lat":51.57871,"lon":0.17296,"name":"Como Street","parentId":"490G00005096","stationId":"490G00005096","stopLetter":"G","topMostParentId":"490G00005096","towards":"Romford Station"},{"icsId":"1010407","id":"490010407C","lat":51.57948,"lon":0.17753,"name":"North Street","parentId":"490G00010407","stationId":"490G00010407","stopLetter":"C","topMostParentId":"490G00010407","towards":"Hornchurch, Elm Park Or Gidea Park"},{"icsId":"1011659","id":"490011659G","lat":51.58059,"lon":0.1831,"name":"Romford Market","parentId":"490G00011659","stationId":"490G00011659","stopLetter":"G","topMostParentId":"490G00011659","towards":"Queen's Hospital, Hornchurch Or Gidea Park"},{"icsId":"1014452","id":"490014448S","lat":51.5775,"lon":0.1851,"name":"Western Road","parentId":"490G00014452","stationId":"490G00014452","stopLetter":"QQ","topMostParentId":"490G00014452","towards":"Elm Park, Gidea Park Or Hornchurch"},{"icsId":"1001243","id":"490001243Y","lat":51.5736,"lon":0.18393,"name":"Romford Station","stopLetter":"Y","topMostParentId":"490001243Y","towards":"Elm Park, Gidea Park Or Hornchurch"}]}]}