{"direction":"inbound","lineId":"653","lineName":"653","mode":"bus","stopPointSequences":[{"stopPoint":[{"icsId":"1019179","id":"490015769","lat":51.58139,"lon":-0.28517,"name":"Jewish Free School","parentId":"490G00019179","stationId":"490G00019179","stopLetter":"->E","topMostParentId":"490G00019179"},{"icsId":"1015769","id":"490015769H","lat":51.58221,"lon":-0.28536,"name":"Lyndsey Park","parentId":"490G00015769","stationId":"490G00015769","stopLetter":"H","topMostParentId":"490G00015769","towards":"Edgware"},{"icsId":"1008760","id":"490008760F","lat":51.58438,"lon":-0.2826,"name":"Kingsbury Circle / the Mall","parentId":"490G000623","stationId":"490G000623","stopLetter":"F","topMostParentId":"490G000623","towards":"Edgware"},{"icsId":"1000128","id":"490000128A","lat":51.58493,"lon":-0.27977,"name":"Kingsbury Station","stopLetter":"A","topMostParentId":"490000128A","towards":"Colindale Or West Hendon","zone":"4"},{"icsId":"1013997","id":"490013997L","lat":51.58603,"lon":-0.27421,"name":"Valley Drive","parentId":"490G00013997","stationId":"490G00013997","stopLetter":"L","topMostParentId":"490G00013997","towards":"Colindale Or West Hendon"},{"icsId":"1020227","id":"490013441E","lat":51.58497,"lon":-0.26906,"name":"Roe Green Park","parentId":"490G00020227","stationId":"490G00020227","stopLetter":"A","topMostParentId":"490G00020227","towards":"Colindale Or West Hendon"},{"icsId":"1011635","id":"490011635E","lat":51.58404,"lon":-0.26507,"name":"Kingsbury Road / Roe Green","parentId":"490G00011635","stationId":"490G00011635","stopLetter":"B","topMostParentId":"490G00011635","towards":"Hendon Or Neasden"},{"icsId":"1005271","id":"490005271E","lat":51.58287,"lon":-0.26097,"name":"Church Lane","parentId":"490G00005271","stationId":"490G00005271","stopLetter":"C","topMostParentId":"490G00005271","towards":"Hendon"},{"icsId":"1013758","id":"490013758E","lat":51.58241,"lon":-0.25618,"name":"Townsend Lane","parentId":"490G00013758","stationId":"490G00013758","stopLetter":"D","topMostParentId":"490G00013758","towards":"Hendon"},{"icsId":"1014469","id":"490014469E","lat":51.58405,"lon":-0.24948,"name":"Edgware Road / the Hyde","parentId":"490G00014469","stationId":"490G00014469","stopLetter":"HT","topMostParentId":"490G00014469","towards":"Golders Green"},{"icsId":"1014471","id":"490014471S","lat":51.58148,"lon":-0.24439,"name":"Hendon Magistrates Court","parentId":"490G00014471","stationId":"490G00014471","stopLetter":"HB","topMostParentId":"490G00014471","towards":"Brent Cross, Cricklewood Or Golders Green"},{"icsId":"1014561","id":"490014561S","lat":51.57919,"lon":-0.24133,"name":"West Hendon Broadway / Herbert Road","parentId":"490G00014561","stationId":"490G00014561","stopLetter":"HC","topMostParentId":"490G00014561","towards":"Brent Cross, Cricklewood Or Golders Green"},{"icsId":"1001148","id":"490001148A","lat":51.57932,"lon":-0.23895,"name":"Hendon Station","stopLetter":"HD","topMostParentId":"490001148A","towards":"Golders Green"},{"icsId":"1003476","id":"490003476E2","lat":51.58264,"lon":-0.23436,"name":"Audley Road","parentId":"490G00003476","stationId":"490G00003476","topMostParentId":"490G00003476","towards":"Golders Green"},{"icsId":"1005485","id":"490005485L","lat":51.5854,"lon":-0.23186,"name":"Edgeworth Avenue","parentId":"490G00005485","stationId":"490G00005485","stopLetter":"L","topMostParentId":"490G00005485","towards":"Golders Green"},{"icsId":"1008056","id":"490008056O","lat":51.58751,"lon":-0.22957,"name":"Hendon Town Hall","parentId":"490G00008056","stationId":"490G00008056","stopLetter":"O","topMostParentId":"490G00008056","towards":"Finchley Central Or Golders Green"},{"icsId":"1005257","id":"490005253Q","lat":51.58937,"lon":-0.22809,"name":"Middlesex University","parentId":"490G00005257","stationId":"490G00005257","stopLetter":"Q","topMostParentId":"490G00005257","towards":"Finchley Central Or Golders Green"},{"icsId":"1005253","id":"490005253Z","lat":51.59001,"lon":-0.22556,"name":"Church End","parentId":"490G00005253","stationId":"490G00005253","stopLetter":"->E","topMostParentId":"490G00005253","towards":"Finchley Central Or Golders Green"},{"icsId":"1013512","id":"490013512E","lat":51.58962,"lon":-0.22065,"name":"The Quadrant","parentId":"490G00013512","stationId":"490G00013512","stopLetter":"S","topMostParentId":"490G00013512","towards":"Finchley Central"},{"icsId":"1003218","id":"490003218E","lat":51.59008,"lon":-0.21503,"name":"Alexandra Road","parentId":"490G00003218","stationId":"490G00003218","stopLetter":"->E","topMostParentId":"490G00003218","towards":"Finchley Central"},{"icsId":"1007411","id":"490007411E1","lat":51.59092,"lon":-0.21274,"name":"Great North Way","parentId":"490G00007411","stationId":"490G00007411","stopLetter":"->E","topMostParentId":"490G00007411","towards":"Finchley Central"},{"icsId":"1007422","id":"490007422E","lat":51.59214,"lon":-0.21023,"name":"Broughton Avenue","parentId":"490G00007422","stationId":"490G00007422","stopLetter":"->E","topMostParentId":"490G00007422","towards":"East Finchley, North Finchley Or Woodside Park"},{"icsId":"1005803","id":"490005803N","lat":51.59357,"lon":-0.20789,"name":"Crooked Usage","parentId":"490G00005803","stationId":"490G00005803","stopLetter":"->N","topMostParentId":"490G00005803","towards":"East Finchley Or Woodside Park"},{"icsId":"1003366","id":"490003366N","lat":51.5957,"lon":-0.2046,"name":"Arden Road","parentId":"490G00003366","stationId":"490G00003366","stopLetter":"P","topMostParentId":"490G00003366","towards":"East Finchley, North Finchley Or Woodside Park"},{"icsId":"1012787","id":"490012787E","lat":51.59777,"lon":-0.20103,"name":"St Mary's Avenue","parentId":"490G00012787","stationId":"490G00012787","stopLetter":"Q","topMostParentId":"490G00012787","towards":"East Finchley, North Finchley Or Woodside Park"},{"icsId":"1007385","id":"490007385W","lat":51.59779,"lon":-0.19827,"name":"Gravel Hill","parentId":"490G00007385","stationId":"490G00007385","stopLetter":"R","topMostParentId":"490G00007385","towards":"East Finchley Or Woodside Park"},{"icsId":"1008311","id":"490008311E","lat":51.59642,"lon":-0.19143,"name":"Holmwood Gardens","parentId":"490G00008311","stationId":"490G00008311","stopLetter":"T","topMostParentId":"490G00008311","towards":"East Finchley"},{"icsId":"1009594","id":"490009594E1","lat":51.59581,"lon":-0.18916,"name":"Manor View","parentId":"490G00009594","stationId":"490G00009594","stopLetter":"V","topMostParentId":"490G00009594","towards":"East Finchley"},{"icsId":"1003670","id":"490003670E","lat":51.59454,"lon":-0.18631,"name":"Basing Way","parentId":"490G00003670","stationId":"490G00003670","stopLetter":"W","topMostParentId":"490G00003670","towards":"Highgate"},{"icsId":"1006353","id":"490006353E2","lat":51.59316,"lon":-0.18212,"name":"East Finchley Cemetery","parentId":"490G00006353","stationId":"490G00006353","stopLetter":"J","topMostParentId":"490G00006353","towards":"Highgate"},{"icsId":"1010656","id":"490010656W1","lat":51.59179,"lon":-0.1787,"name":"Ossulton Way","parentId":"490G00010656","stationId":"490G00010656","stopLetter":"K","topMostParentId":"490G00010656","towards":"Highgate"},{"icsId":"1013799","id":"490013799E","lat":51.591,"lon":-0.17397,"name":"Trinity Avenue","parentId":"490G00013799","stationId":"490G00013799","topMostParentId":"490G00013799","towards":"Highgate"},{"icsId":"1012556","id":"490012556N","lat":51.58983,"lon":-0.17102,"name":"Stanley Road","parentId":"490G00012556","stationId":"490G00012556","topMostParentId":"490G00012556","towards":"Highgate"},{"icsId":"1001028","id":"490001028E","lat":51.58964,"lon":-0.16469,"name":"High Road East Finchley","parentId":"490G00001028","stationId":"490G00001028","stopLetter":"R","topMostParentId":"490G00001028","towards":"Highgate Or Golders Green"},{"icsId":"1013254","id":"490013880K","lat":51.58971,"lon":-0.16316,"name":"Fairlawn Avenue","parentId":"490G00013254","stationId":"490G00013254","stopLetter":"K","topMostParentId":"490G00013254","towards":"Muswell Hill"},{"icsId":"1012392","id":"490012392E","lat":51.59025,"lon":-0.1593,"name":"Twyford Avenue","parentId":"490G00012392","stationId":"490G00012392","stopLetter":"N","topMostParentId":"490G00012392","towards":"Muswell Hill"},{"icsId":"1006947","id":"490006947E","lat":51.59105,"lon":-0.15303,"name":"Midhurst Avenue","parentId":"490G00006947","stationId":"490G00006947","stopLetter":"->E","topMostParentId":"490G00006947","towards":"Muswell Hill Broadway and Bounds Green"},{"icsId":"1006949","id":"490006949E","lat":51.59114,"lon":-0.14998,"name":"Fortismere Avenue","parentId":"490G00006949","stationId":"490G00006949","stopLetter":"->E","topMostParentId":"490G00006949","towards":"Bounds Green Or Friern Barnet"},{"icsId":"1010135","id":"490010135K","lat":51.58994,"lon":-0.14589,"name":"Muswell Hill Road","parentId":"490G00010135","stationId":"490G00010135","stopLetter":"K","topMostParentId":"490G00010135","towards":"Bounds Green Or Friern Barnet"},{"icsId":"1015187","id":"490015187F","lat":51.59081,"lon":-0.14292,"name":"Muswell Hill","parentId":"490G00015187","stationId":"490G00015187","stopLetter":"F","topMostParentId":"490G00015187","towards":"Bounds Green Or Friern Barnet"}]}]}