{"direction":"inbound","lineId":"654","lineName":"654","mode":"bus","stopPointSequences":[{"stopPoint":[{"icsId":"1011378","id":"490011378S","lat":51.37581,"lon":0.11596,"name":"Quilter Road","parentId":"490G00011378","stationId":"490G00011378","stopLetter":"L","topMostParentId":"490G00011378","towards":"Orpington"},{"icsId":"1013680","id":"490013680W","lat":51.37728,"lon":0.11478,"name":"Ramsden Road / Tintagel Road","parentId":"490G00013680","stationId":"490G00013680","stopLetter":"R","topMostParentId":"490G00013680","towards":"Orpington"},{"icsId":"1006281","id":"490006281W","lat":51.37759,"lon":0.11228,"name":"Dyke Drive","parentId":"490G00006281","stationId":"490G00006281","stopLetter":"S","topMostParentId":"490G00006281","towards":"Orpington"},{"icsId":"1000454","id":"490007184W","lat":51.37808,"lon":0.10954,"name":"Ramsden Road / Court Road","parentId":"490G00000454","stationId":"490G00000454","stopLetter":"T","topMostParentId":"490G00000454","towards":"Orpington"},{"icsId":"1005675","id":"490005675S","lat":51.36962,"lon":0.1096,"name":"Court Road / Spur Road","parentId":"490G00005675","stationId":"490G00005675","stopLetter":"->S","topMostParentId":"490G00005675","towards":"Chelsfield Station"},{"icsId":"1007264","id":"490007264S","lat":51.36578,"lon":0.1102,"name":"Goddington Lane","parentId":"490G00007264","stationId":"490G00007264","stopLetter":"->S","topMostParentId":"490G00007264","towards":"Chelsfield Station"},{"icsId":"1006654","id":"490006654S","lat":51.36246,"lon":0.11388,"name":"The Highway / Court Road","parentId":"490G00006654","stationId":"490G00006654","stopLetter":"->S","topMostParentId":"490G00006654","towards":"Chelsfield"},{"icsId":"1013419","id":"490013419S","lat":51.36035,"lon":0.11236,"name":"The Highway School","parentId":"490G00013419","stationId":"490G00013419","stopLetter":"L","topMostParentId":"490G00013419","towards":"Green Street Green"},{"icsId":"1015896","id":"490015896W","lat":51.35784,"lon":0.10936,"name":"Stirling Drive","parentId":"490G00015896","stationId":"490G00015896","stopLetter":"M","topMostParentId":"490G00015896","towards":"Green Street Green"},{"icsId":"1001060","id":"490001060B","lat":51.35714,"lon":0.10579,"name":"Chelsfield Station","stopLetter":"B","topMostParentId":"490001060B","towards":"Green Street Green"},{"icsId":"1014893","id":"490014893W","lat":51.35818,"lon":0.10236,"name":"Woodside","parentId":"490G00014893","stationId":"490G00014893","stopLetter":"->W","topMostParentId":"490G00014893","towards":"Orpington"},{"icsId":"1005446","id":"490005446W","lat":51.35951,"lon":0.0984,"name":"Cloonmore Avenue","parentId":"490G00005446","stationId":"490G00005446","stopLetter":"->W","topMostParentId":"490G00005446","towards":"Orpington"},{"icsId":"1005748","id":"490005748N","lat":51.36076,"lon":0.08892,"name":"Crescent Way","parentId":"490G00005748","stationId":"490G00005748","stopLetter":"J","topMostParentId":"490G00005748","towards":"Orpington"},{"icsId":"1010639","id":"490010639N","lat":51.36325,"lon":0.09151,"name":"Sevenoaks Road / Cloonmore Avenue","parentId":"490G00010639","stationId":"490G00010639","stopLetter":"K","topMostParentId":"490G00010639","towards":"Orpington"},{"icsId":"1012592","id":"490012592N","lat":51.3657,"lon":0.09402,"name":"Sevenoaks Road / Orpington Hospital","parentId":"490G00012592","stationId":"490G00012592","stopLetter":"L","topMostParentId":"490G00012592","towards":"Orpington"},{"icsId":"1013749","id":"490013749N","lat":51.36738,"lon":0.09532,"name":"Sevenoaks Road / Tower Road","parentId":"490G00013749","stationId":"490G00013749","stopLetter":"N","topMostParentId":"490G00013749","towards":"Orpington Station Or St Mary Cray"},{"icsId":"1008209","id":"490008209K","lat":51.37121,"lon":0.09681,"name":"Hillcrest Road","parentId":"490G00008209","stationId":"490G00008209","stopLetter":"K","topMostParentId":"490G00008209","towards":"Orpington Station Or St Mary Cray"},{"icsId":"1019893","id":"490015411L","lat":51.37248,"lon":0.09723,"name":"Sevenoaks Road / Orpington War Memorial","parentId":"490G00019893","stationId":"490G00019893","stopLetter":"L","topMostParentId":"490G00019893","towards":"Orpington Station Or St Mary Cray"},{"icsId":"1015411","id":"490015411P","lat":51.37329,"lon":0.09846,"name":"Spur Road / Orpington War Memorial","parentId":"490G00015411","stationId":"490G00015411","stopLetter":"P","topMostParentId":"490G00015411","towards":"Ramsden Estate"},{"icsId":"1019892","id":"490015411S","lat":51.37428,"lon":0.09832,"name":"High Street / Orpington War Memorial","parentId":"490G00019892","stationId":"490G00019892","stopLetter":"S","topMostParentId":"490G00019892","towards":"Green Street Green, Locksbottom Or Petts Wood"},{"icsId":"1013818","id":"490013818J","lat":51.37176,"lon":0.09145,"name":"Tubbenden Lane","parentId":"490G00013818","stationId":"490G00013818","stopLetter":"J","topMostParentId":"490G00013818","towards":"Locksbottom Or Petts Wood"},{"icsId":"1001220","id":"490001220A","lat":51.37271,"lon":0.0871,"name":"Orpington Station","stopLetter":"A","topMostParentId":"490001220A","towards":"Locksbottom Or Petts Wood"},{"icsId":"1011150","id":"490011150W","lat":51.37312,"lon":0.07881,"name":"Pound Court Drive","parentId":"490G00011150","stationId":"490G00011150","stopLetter":"CA","topMostParentId":"490G00011150","towards":"Locksbottom Or Petts Wood"},{"icsId":"1005790","id":"490005788W","lat":51.37331,"lon":0.07393,"name":"Crofton Road / Crofton Lane","parentId":"490G00005790","stationId":"490G00005790","stopLetter":"CB","topMostParentId":"490G00005790","towards":"Biggin Hill, Bromley Common Or Hayes"},{"icsId":"1010512","id":"490010512W1","lat":51.37339,"lon":0.07149,"name":"Oakwood Road / St Paul's Church","parentId":"490G00010512","stationId":"490G00010512","stopLetter":"CC","topMostParentId":"490G00010512","towards":"Biggin Hill, Bromley Common Or Hayes"},{"icsId":"1007255","id":"490007255W","lat":51.37116,"lon":0.06382,"name":"Glyndebourne Park","parentId":"490G00007255","stationId":"490G00007255","stopLetter":"CD","topMostParentId":"490G00007255","towards":"Biggin Hill, Bromley Common Or Hayes"},{"icsId":"1012600","id":"490012600W","lat":51.36857,"lon":0.05789,"name":"Crofton Road / Starts Hill Road","parentId":"490G00012600","stationId":"490G00012600","stopLetter":"HL","topMostParentId":"490G00012600","towards":"Biggin Hill, Bromley Common Or Hayes"},{"icsId":"1009243","id":"490009243W","lat":51.36679,"lon":0.05439,"name":"Locksbottom / St Michael's Church","parentId":"490G00009243","stationId":"490G00009243","stopLetter":"HK","topMostParentId":"490G00009243","towards":"Biggin Hill, Bromley Common Or Hayes"},{"icsId":"1008683","id":"490008683W","lat":51.36719,"lon":0.04635,"name":"Keston Park Close","parentId":"490G00008683","stationId":"490G00008683","stopLetter":"KS","topMostParentId":"490G00008683","towards":"Biggin Hill Or Hayes"},{"icsId":"1013438","id":"490013438W","lat":51.36718,"lon":0.04043,"name":"Croydon Road / the Keston Mark","parentId":"490G00013438","stationId":"490G00013438","stopLetter":"KT","topMostParentId":"490G00013438","towards":"Biggin Hill Or Hayes"},{"icsId":"1008681","id":"490008681W","lat":51.36727,"lon":0.03746,"name":"Al-Emaan Centre / Keston Mosque","parentId":"490G00008681","stationId":"490G00008681","stopLetter":"KU","topMostParentId":"490G00008681","towards":"Hayes"},{"icsId":"1003675","id":"490003675W","lat":51.36775,"lon":0.02762,"name":"Baston Road","parentId":"490G00003675","stationId":"490G00003675","stopLetter":"KV","topMostParentId":"490G00003675","towards":"Hayes"},{"icsId":"1007871","id":"490007871W","lat":51.3686,"lon":0.01273,"name":"Hartfield Crescent","parentId":"490G00007871","stationId":"490G00007871","stopLetter":"->W","topMostParentId":"490G00007871","towards":"Hayes"},{"icsId":"1005544","id":"490005544W","lat":51.3701,"lon":0.00293,"name":"Coney Hall","parentId":"490G00005544","stationId":"490G00005544","stopLetter":"R","topMostParentId":"490G00005544","towards":"Hayes"},{"icsId":"1003099","id":"490003099W","lat":51.37052,"lon":-0.0022,"name":"Addington Road / Glebe Way","parentId":"490G00003099","stationId":"490G00003099","stopLetter":"L","topMostParentId":"490G00003099","towards":"Addington Village Or Shirley"},{"icsId":"1009032","id":"490009032W","lat":51.36889,"lon":-0.0048,"name":"Layhams Road","parentId":"490G00009032","stationId":"490G00009032","stopLetter":"M","topMostParentId":"490G00009032","towards":"Addington Village Or Shirley"},{"icsId":"1003095","id":"490003095W","lat":51.36391,"lon":-0.01843,"name":"Addington Road / Pumping Station","parentId":"490G00003095","stationId":"490G00003095","stopLetter":"->W","topMostParentId":"490G00003095","towards":"Forestdale Or New Addington"},{"icsId":"1003101","id":"490003101E","lat":51.35639,"lon":-0.03257,"name":"Addington Village Interchange","parentId":"490G000380","stationId":"490G000380","stopLetter":"E","topMostParentId":"490G000380"}]}]}