{"direction":"inbound","lineId":"66","lineName":"66","mode":"bus","stopPointSequences":[{"stopPoint":[{"icsId":"1000137","id":"490000137T","lat":51.56875,"lon":0.00905,"name":"Leytonstone Station","stopLetter":"T","topMostParentId":"490000137T","towards":"Wanstead","zone":"3+4"},{"icsId":"1008852","id":"490008852M","lat":51.56913,"lon":0.01178,"name":"Kirkdale Road","parentId":"490G00008852","stationId":"490G00008852","stopLetter":"M","topMostParentId":"490G00008852","towards":"Wanstead Or Whipps Cross"},{"icsId":"1007490","id":"490007490N","lat":51.57055,"lon":0.01448,"name":"Green Man Roundabout","parentId":"490G00007490","stationId":"490G00007490","stopLetter":"N","topMostParentId":"490G00007490","towards":"Wanstead Or Whipps Cross"},{"icsId":"1018837","id":"490018837N","lat":51.57686,"lon":0.01981,"name":"Gordon Road","parentId":"490G00018837","stationId":"490G00018837","stopLetter":"->N","topMostParentId":"490G00018837","towards":"Gants Hill"},{"icsId":"1001970","id":"490001970Y","lat":51.57933,"lon":0.02184,"name":"Homesdale Close","parentId":"490G000294","stationId":"490G000294","stopLetter":"->N","topMostParentId":"490G000294","towards":"Gants Hill"},{"icsId":"1008092","id":"490008092S","lat":51.57998,"lon":0.02366,"name":"High Street / Hermon Hill","parentId":"490G00008092","stationId":"490G00008092","stopLetter":"SD","topMostParentId":"490G00008092","towards":"Wanstead Station Or Gants Hill"},{"icsId":"1014206","id":"490014206S","lat":51.57799,"lon":0.02617,"name":"Wanstead Place","parentId":"490G00014206","stationId":"490G00014206","stopLetter":"SE","topMostParentId":"490G00014206","towards":"Gants Hill Or Leytonstone"},{"icsId":"1014821","id":"490000250D","lat":51.57675,"lon":0.02739,"name":"Wanstead High St / Wanstead Station","parentId":"490G00014821","stationId":"490G00014821","stopLetter":"D","topMostParentId":"490G00014821","towards":"Leytonstone, Forest Gate Or Manor Park"},{"icsId":"1010467","id":"490010467E","lat":51.57699,"lon":0.03389,"name":"Nutter Lane","parentId":"490G00010467","stationId":"490G00010467","stopLetter":"R","topMostParentId":"490G00010467","towards":"Gants Hill Or Ilford"},{"icsId":"1006659","id":"490006659E","lat":51.57618,"lon":0.04745,"name":"Redbridge Station","parentId":"490G00006659","stationId":"490G00006659","stopLetter":"RH","topMostParentId":"490G00006659","towards":"Gants Hill Or Ilford"},{"icsId":"1013332","id":"490013332E","lat":51.57642,"lon":0.05393,"name":"The Drive","parentId":"490G00013332","stationId":"490G00013332","stopLetter":"RJ","topMostParentId":"490G00013332","towards":"Newbury Park"},{"icsId":"1003829","id":"490003829E","lat":51.57663,"lon":0.05883,"name":"Beehive Lane","parentId":"490G00003829","stationId":"490G00003829","stopLetter":"EA","topMostParentId":"490G00003829","towards":"Newbury Park"},{"icsId":"1000085","id":"490000085G","lat":51.57666,"lon":0.06463,"name":"Gants Hill Station","stopLetter":"EB","topMostParentId":"490000085G","towards":"Barkingside Or Newbury Park","zone":"4"},{"icsId":"1015201","id":"490015201K","lat":51.57632,"lon":0.06818,"name":"Parham Drive","parentId":"490G000877","stationId":"490G000877","stopLetter":"EC","topMostParentId":"490G000877","towards":"Romford Or Goodmayes"},{"icsId":"1003452","id":"490003452E","lat":51.57528,"lon":0.07399,"name":"Ashurst Drive","parentId":"490G00003452","stationId":"490G00003452","stopLetter":"ED","topMostParentId":"490G00003452","towards":"Romford Or Goodmayes"},{"icsId":"1019805","id":"490009930E","lat":51.57467,"lon":0.07765,"name":"Denham Drive","parentId":"490G00019805","stationId":"490G00019805","stopLetter":"EE","topMostParentId":"490G00019805","towards":"Romford Or Goodmayes"},{"icsId":"1008371","id":"490008371E","lat":51.57374,"lon":0.08303,"name":"Horns Road","parentId":"490G00008371","stationId":"490G00008371","stopLetter":"NL","topMostParentId":"490G00008371","towards":"Romford Or Goodmayes"},{"icsId":"1008752","id":"490008752E","lat":51.57467,"lon":0.08815,"name":"King George Avenue","parentId":"490G000622","stationId":"490G000622","stopLetter":"ND","topMostParentId":"490G000622","towards":"Romford Or Goodmayes"},{"icsId":"1000154","id":"490000154A","lat":51.5756,"lon":0.09043,"name":"Newbury Park Station","stopLetter":"NA","topMostParentId":"490000154A","towards":"Romford Or Goodmayes","zone":"4"},{"icsId":"1010504","id":"490010504E","lat":51.57602,"lon":0.09471,"name":"Oaks Lane","parentId":"490G00010504","stationId":"490G00010504","stopLetter":"NC","topMostParentId":"490G00010504","towards":"Romford Or Goodmayes"},{"icsId":"1003171","id":"490003171E","lat":51.57756,"lon":0.09832,"name":"Aldborough Road North","parentId":"490G000383","stationId":"490G000383","stopLetter":"NG","topMostParentId":"490G000383","towards":"Romford Or Goodmayes"},{"icsId":"1011412","id":"490011412E","lat":51.58035,"lon":0.10384,"name":"Ramsgill Drive","parentId":"490G00011412","stationId":"490G00011412","stopLetter":"->E","topMostParentId":"490G00011412","towards":"Romford Or Goodmayes"},{"icsId":"1003696","id":"490003696E","lat":51.58192,"lon":0.10806,"name":"Bawdsey Avenue","parentId":"490G00003696","stationId":"490G00003696","stopLetter":"->E","topMostParentId":"490G00003696","towards":"Romford Or Goodmayes"},{"icsId":"1003620","id":"490003620D","lat":51.58262,"lon":0.11561,"name":"Barley Lane","parentId":"490G00003620","stationId":"490G00003620","stopLetter":"D","topMostParentId":"490G00003620","towards":"Romford"},{"icsId":"1012232","id":"490012232E","lat":51.58172,"lon":0.1282,"name":"Somerville Road","parentId":"490G00012232","stationId":"490G00012232","stopLetter":"EA","topMostParentId":"490G00012232","towards":"Romford"},{"icsId":"1006391","id":"490006375E","lat":51.58132,"lon":0.13567,"name":"Padnall Road","parentId":"490G00006391","stationId":"490G00006391","stopLetter":"EB","topMostParentId":"490G00006391","towards":"Romford"},{"icsId":"1014551","id":"490014551E","lat":51.58124,"lon":0.13938,"name":"Whalebone Lane North","parentId":"490G00014551","stationId":"490G00014551","stopLetter":"EC","topMostParentId":"490G00014551","towards":"Romford"},{"icsId":"1009722","id":"490009720E","lat":51.5828,"lon":0.16634,"name":"Mawney Road","parentId":"490G00009722","stationId":"490G00009722","stopLetter":"M","topMostParentId":"490G00009722","towards":"Romford"},{"icsId":"1008747","id":"490008747E","lat":51.58487,"lon":0.16977,"name":"King George Close","parentId":"490G00008747","stationId":"490G00008747","stopLetter":"NH","topMostParentId":"490G00008747","towards":"Romford"},{"icsId":"1011658","id":"490011658S","lat":51.58372,"lon":0.17483,"name":"Romford Bus Garage","parentId":"490G00011658","stationId":"490G00011658","stopLetter":"NS","topMostParentId":"490G00011658","towards":"Romford Town Centre"},{"icsId":"1004467","id":"490013240S","lat":51.58186,"lon":0.17678,"name":"The Avenue","parentId":"490G00004467","stationId":"490G00004467","stopLetter":"J","topMostParentId":"490G00004467","towards":"Romford Town Centre"},{"icsId":"1011659","id":"490011659E","lat":51.58066,"lon":0.18215,"name":"Romford Market","parentId":"490G00011659","stationId":"490G00011659","stopLetter":"E","topMostParentId":"490G00011659","towards":"Becontree Heath, Queen's Hosp. Or Gidea Pk"},{"icsId":"1014452","id":"490014448S","lat":51.5775,"lon":0.1851,"name":"Western Road","parentId":"490G00014452","stationId":"490G00014452","stopLetter":"QQ","topMostParentId":"490G00014452","towards":"Elm Park, Gidea Park Or Hornchurch"},{"icsId":"1001243","id":"490001243W","lat":51.57396,"lon":0.18304,"name":"Romford Station","stopLetter":"->W","topMostParentId":"490001243W"}]}]}