{"direction":"inbound","lineId":"661","lineName":"661","mode":"bus","stopPointSequences":[{"stopPoint":[{"icsId":"1005205","id":"490005205P","lat":51.41302,"lon":0.07351,"name":"Centre Common Road / War Memorial","parentId":"490G00005205","stationId":"490G00005205","stopLetter":"P","topMostParentId":"490G00005205","towards":"Bromley, Petts Wood Or Sidcup"},{"icsId":"1005197","id":"490005197S","lat":51.412,"lon":0.07515,"name":"Royal Parade","parentId":"490G00005197","stationId":"490G00005197","stopLetter":"Q","topMostParentId":"490G00005197","towards":"Orpington Or Petts Wood"},{"icsId":"1009572","id":"490009572S","lat":51.4085,"lon":0.08118,"name":"Manor Park Road","parentId":"490G00009572","stationId":"490G00009572","stopLetter":"->S","topMostParentId":"490G00009572","towards":"Orpington Or Petts Wood"},{"icsId":"1009067","id":"490009067S","lat":51.4018,"lon":0.08704,"name":"St Pauls Cray Road / Leesons Hill","parentId":"490G00009067","stationId":"490G00009067","stopLetter":"DB","topMostParentId":"490G00009067","towards":"Orpington Or Petts Wood"},{"icsId":"1004333","id":"490004333E","lat":51.40084,"lon":0.08882,"name":"Bridgewater Close","parentId":"490G00004333","stationId":"490G00004333","stopLetter":"DH","topMostParentId":"490G00004333","towards":"Petts Wood Or Orpington"},{"icsId":"1009679","id":"490009679E","lat":51.39979,"lon":0.09319,"name":"Marlings Park Avenue","parentId":"490G00009679","stationId":"490G00009679","stopLetter":"DJ","topMostParentId":"490G00009679","towards":"Petts Wood Or Orpington"},{"icsId":"1005361","id":"490005361E","lat":51.39732,"lon":0.10246,"name":"Clarendon Way","parentId":"490G00005361","stationId":"490G00005361","stopLetter":"W","topMostParentId":"490G00005361","towards":"Petts Wood Or Orpington"},{"icsId":"1009068","id":"490009068E","lat":51.39748,"lon":0.10388,"name":"Leesons Primary School","parentId":"490G00009068","stationId":"490G00009068","stopLetter":"X","topMostParentId":"490G00009068","towards":"Petts Wood Or Orpington"},{"icsId":"1001271","id":"490001271SB","lat":51.39571,"lon":0.10741,"name":"St Mary Cray Station","stopLetter":"SB","topMostParentId":"490001271SB","towards":"Orpington Or Petts Wood"},{"icsId":"1010455","id":"490010455SG","lat":51.39304,"lon":0.11154,"name":"Nugent Retail Park","parentId":"490G00010455","stationId":"490G00010455","stopLetter":"SG","topMostParentId":"490G00010455","towards":"Petts Wood Or Orpington"},{"icsId":"1012563","id":"490012563SH","lat":51.39041,"lon":0.11041,"name":"Stanley Way","parentId":"490G00012563","stationId":"490G00012563","stopLetter":"SH","topMostParentId":"490G00012563","towards":"Petts Wood Or Orpington"},{"icsId":"1008673","id":"490011155ST","lat":51.38878,"lon":0.10975,"name":"Kent Road","parentId":"490G00008673","stationId":"490G00008673","stopLetter":"ST","topMostParentId":"490G00008673","towards":"Petts Wood Or Orpington"},{"icsId":"1009653","id":"490009653W","lat":51.3892,"lon":0.10458,"name":"Marion Crescent","parentId":"490G00009653","stationId":"490G00009653","stopLetter":"SX","topMostParentId":"490G00009653","towards":"Petts Wood"},{"icsId":"1003486","id":"490003486W","lat":51.38944,"lon":0.10308,"name":"Austin Road","parentId":"490G00003486","stationId":"490G00003486","stopLetter":"->W","topMostParentId":"490G00003486","towards":"Petts Wood"},{"icsId":"1005729","id":"490005729W","lat":51.38995,"lon":0.10053,"name":"Cray Valley Road","parentId":"490G00005729","stationId":"490G00005729","stopLetter":"->W","topMostParentId":"490G00005729","towards":"Petts Wood"},{"icsId":"1005268","id":"490005268W","lat":51.3907,"lon":0.09529,"name":"Poverest Road / Church Hill Wood","parentId":"490G00005268","stationId":"490G00005268","stopLetter":"W","topMostParentId":"490G00005268","towards":"Petts Wood"},{"icsId":"1005202","id":"490005202W","lat":51.39088,"lon":0.09249,"name":"Poverest Road / Chislehurst Road","parentId":"490G00005202","stationId":"490G00005202","stopLetter":"X","topMostParentId":"490G00005202","towards":"Petts Wood"},{"icsId":"1008906","id":"490008906W","lat":51.39091,"lon":0.08955,"name":"Ladywood Avenue","parentId":"490G00008906","stationId":"490G00008906","stopLetter":"Y","topMostParentId":"490G00008906","towards":"Petts Wood Station"},{"icsId":"1010978","id":"490010978W","lat":51.39074,"lon":0.08468,"name":"Petts Wood Road","parentId":"490G00010978","stationId":"490G00010978","stopLetter":"Z","topMostParentId":"490G00010978","towards":"Petts Wood Station"},{"icsId":"1005819","id":"490005819W","lat":51.39047,"lon":0.07947,"name":"Cross Way","parentId":"490G00005819","stationId":"490G00005819","stopLetter":"->W","topMostParentId":"490G00005819","towards":"Petts Wood Station"},{"icsId":"1014868","id":"490014868G","lat":51.39027,"lon":0.0753,"name":"Woodland Way","parentId":"490G00014868","stationId":"490G00014868","stopLetter":"G","topMostParentId":"490G00014868","towards":"Petts Wood Station"},{"icsId":"1015388","id":"490015388D","lat":51.38923,"lon":0.07424,"name":"Station Square / Petts Wood Station","parentId":"490G000891","stationId":"490G000891","stopLetter":"D","topMostParentId":"490G000891","towards":"Chislehurst Or Orpington"}]}]}