{"direction":"inbound","lineId":"679","lineName":"679","mode":"bus","stopPointSequences":[{"stopPoint":[{"icsId":"1007291","id":"490007289H","lat":51.56307,"lon":0.11147,"name":"Goodmayes Lane","parentId":"490G00007291","stationId":"490G00007291","stopLetter":"H","topMostParentId":"490G00007291","towards":"Ilford"},{"icsId":"1009475","id":"490009475W","lat":51.56191,"lon":0.10396,"name":"Lynford Gardens","parentId":"490G00009475","stationId":"490G00009475","stopLetter":"S","topMostParentId":"490G00009475","towards":"Ilford"},{"icsId":"1012000","id":"490012000W","lat":51.56085,"lon":0.09877,"name":"Seven Kings Road","parentId":"490G00012000","stationId":"490G00012000","stopLetter":"C","topMostParentId":"490G00012000","towards":"Ilford"},{"icsId":"1012330","id":"490012330W","lat":51.55928,"lon":0.09198,"name":"South Park Drive","parentId":"490G00012330","stationId":"490G00012330","stopLetter":"D","topMostParentId":"490G00012330","towards":"Gants Hill Or Redbridge"},{"icsId":"1007312","id":"490007312W","lat":51.55895,"lon":0.08599,"name":"Gordon Road","parentId":"490G00007312","stationId":"490G00007312","stopLetter":"Q","topMostParentId":"490G00007312","towards":"Gants Hill Or Redbridge"},{"icsId":"1008469","id":"490008469Z","lat":51.55966,"lon":0.08107,"name":"Winston Way Primary School","parentId":"490G00008469","stationId":"490G00008469","stopLetter":"Z","topMostParentId":"490G00008469","towards":"Gants Hill Or Redbridge"},{"icsId":"1007657","id":"490007657W","lat":51.55967,"lon":0.07696,"name":"Hainault Street","parentId":"490G00007657","stationId":"490G00007657","stopLetter":"W","topMostParentId":"490G00007657","towards":"Gants Hill Or Redbridge"},{"icsId":"1008466","id":"490008466Q1","lat":51.55785,"lon":0.07405,"name":"Redbridge Central Library","parentId":"490G00008466","stationId":"490G00008466","stopLetter":"Q","topMostParentId":"490G00008466","towards":"Barking, Gants Hill, Manor Park Or Redbridge"},{"icsId":"1008470","id":"490008470M","lat":51.55814,"lon":0.07174,"name":"High Road Ilford","parentId":"490G000606","stationId":"490G000606","stopLetter":"M","topMostParentId":"490G000606","towards":"Gants Hill Or Redbridge"},{"icsId":"1001157","id":"490001157G","lat":51.5588,"lon":0.06998,"name":"Ilford Station","stopLetter":"G","topMostParentId":"490001157G","towards":"Gants Hill Or Redbridge"},{"icsId":"1013966","id":"490013311U","lat":51.56325,"lon":0.06746,"name":"Beal Road","parentId":"490G00013966","stationId":"490G00013966","stopLetter":"VL","topMostParentId":"490G00013966","towards":"Gants Hill Or Redbridge"},{"icsId":"1013331","id":"490013331W","lat":51.56448,"lon":0.06624,"name":"Northbrook Road","parentId":"490G00013331","stationId":"490G00013331","stopLetter":"VM","topMostParentId":"490G00013331","towards":"Gants Hill Or Redbridge"},{"icsId":"1013988","id":"490013988N","lat":51.56767,"lon":0.06525,"name":"Valentines Park","parentId":"490G00013988","stationId":"490G00013988","stopLetter":"VP","topMostParentId":"490G00013988","towards":"Gants Hill"},{"icsId":"1003947","id":"490003947N","lat":51.57024,"lon":0.06389,"name":"Bethell Avenue","parentId":"490G00003947","stationId":"490G00003947","stopLetter":"VR","topMostParentId":"490G00003947","towards":"Barkingside, Newbury Park Or South Woodford"},{"icsId":"1003828","id":"490003828N","lat":51.57283,"lon":0.06511,"name":"Beehive Lane","parentId":"490G00003828","stationId":"490G00003828","stopLetter":"CM","topMostParentId":"490G00003828","towards":"Barkingside, Newbury Park Or South Woodford"},{"icsId":"1015202","id":"490015202M","lat":51.5759,"lon":0.06604,"name":"Gants Hill Station / Cranbrook Road","parentId":"490G000878","stationId":"490G000878","stopLetter":"CN","topMostParentId":"490G000878","towards":"Barkingside, Newbury Park Or South Woodford"},{"icsId":"1015199","id":"490015199B","lat":51.57739,"lon":0.06526,"name":"Gants Hill Station  / Woodford Avenue","parentId":"490G000876","stationId":"490G000876","stopLetter":"WS","topMostParentId":"490G000876","towards":"Barkingside Or South Woodford"},{"icsId":"1014972","id":"490014972W","lat":51.5794,"lon":0.06217,"name":"Wycombe Road","parentId":"490G00014972","stationId":"490G00014972","stopLetter":"WT","topMostParentId":"490G00014972","towards":"Barkingside Or South Woodford"},{"icsId":"1007388","id":"490008200W","lat":51.58098,"lon":0.05902,"name":"Beehive Lane","parentId":"490G00007388","stationId":"490G00007388","stopLetter":"WJ","topMostParentId":"490G00007388","towards":"Barkingside Or South Woodford"},{"icsId":"1007380","id":"490007380N","lat":51.58266,"lon":0.05683,"name":"Grasmere Gardens","parentId":"490G00007380","stationId":"490G00007380","stopLetter":"WK","topMostParentId":"490G00007380","towards":"South Woodford"},{"icsId":"1014846","id":"490014846N","lat":51.58509,"lon":0.05465,"name":"Woodford Bridge Road","parentId":"490G00014846","stationId":"490G00014846","stopLetter":"WL","topMostParentId":"490G00014846","towards":"South Woodford"},{"icsId":"1011631","id":"490011628W","lat":51.59089,"lon":0.04684,"name":"Woodford / Roding Lane South","parentId":"490G00011631","stationId":"490G00011631","stopLetter":"WN","topMostParentId":"490G00011631","towards":"Walthamstow Or Woodford Green"},{"icsId":"1010419","id":"490010418W","lat":51.59225,"lon":0.04302,"name":"Woodford Trading Estate","parentId":"490G00010419","stationId":"490G00010419","stopLetter":"Q","topMostParentId":"490G00010419","towards":"Walthamstow Or Woodford Green"},{"icsId":"1005002","id":"490005157W","lat":51.59317,"lon":0.03918,"name":"Charlie Browns Roundabout","parentId":"490G00005002","stationId":"490G00005002","stopLetter":"R","topMostParentId":"490G00005002","towards":"Walthamstow Or Woodford Green"},{"icsId":"1005157","id":"490005002W","lat":51.59385,"lon":0.03477,"name":"Chigwell Road","parentId":"490G00005157","stationId":"490G00005157","stopLetter":"S","topMostParentId":"490G00005157","towards":"Walthamstow"},{"icsId":"1020015","id":"490010116W","lat":51.59523,"lon":0.03078,"name":"Mulberry Way","parentId":"490G00020015","stationId":"490G00020015","stopLetter":"T","topMostParentId":"490G00020015","towards":"Walthamstow"},{"icsId":"1007137","id":"490007137P","lat":51.59532,"lon":0.01966,"name":"High Road South Woodford","parentId":"490G00007137","stationId":"490G00007137","stopLetter":"P","topMostParentId":"490G00007137","towards":"Walthamstow"},{"icsId":"1014288","id":"490015469W","lat":51.59508,"lon":0.01262,"name":"Waterworks Corner","parentId":"490G00014288","stationId":"490G00014288","stopLetter":"Q","topMostParentId":"490G00014288","towards":"Walthamstow"},{"icsId":"1014288","id":"490014288N","lat":51.5975,"lon":0.01175,"name":"Waterworks Corner","parentId":"490G00014288","stationId":"490G00014288","stopLetter":"K","topMostParentId":"490G00014288","towards":"Woodford Wells"},{"icsId":"1005061","id":"490005061N","lat":51.5994,"lon":0.01277,"name":"Chelmsford Road","parentId":"490G00005061","stationId":"490G00005061","stopLetter":"P","topMostParentId":"490G00005061","towards":"Woodford Wells"},{"icsId":"1013467","id":"490013467N","lat":51.60099,"lon":0.0141,"name":"Oak Hill","parentId":"490G00013467","stationId":"490G00013467","stopLetter":"Q","topMostParentId":"490G00013467","towards":"Woodford Wells"},{"icsId":"1012623","id":"490012623N","lat":51.60292,"lon":0.01586,"name":"St Aubyn's School","parentId":"490G00012623","stationId":"490G00012623","stopLetter":"R","topMostParentId":"490G00012623","towards":"Buckhurst Hill"},{"icsId":"1005177","id":"490005269N","lat":51.60636,"lon":0.01885,"name":"Chingford Lane","parentId":"490G00005177","stationId":"490G00005177","stopLetter":"S","topMostParentId":"490G00005177","towards":"Chingford Or Buckhurst Hill"},{"icsId":"1014847","id":"490014847N","lat":51.60908,"lon":0.02106,"name":"Woodford Green / Broadmead Road","parentId":"490G000842","stationId":"490G000842","stopLetter":"U","topMostParentId":"490G000842","towards":"Buckhurst Hill Or Chingford"},{"icsId":"1009973","id":"490009973N","lat":51.61325,"lon":0.02411,"name":"Monkhams Lane","parentId":"490G00009973","stationId":"490G00009973","stopLetter":"V","topMostParentId":"490G00009973","towards":"Buckhurst Hill Or Chingford"},{"icsId":"1015121","id":"490015121N","lat":51.61589,"lon":0.02519,"name":"St Thomas of Canterbury Church","parentId":"490G00015121","stationId":"490G00015121","stopLetter":"FH","topMostParentId":"490G00015121","towards":"Buckhurst Hill Or Chingford"}]}]}