{"direction":"inbound","lineId":"690","lineName":"690","mode":"bus","stopPointSequences":[{"stopPoint":[{"icsId":"1004622","id":"490004622W","lat":51.43818,"lon":-0.18053,"name":"Burntwood School","parentId":"490G00004622","stationId":"490G00004622","stopLetter":"SX","topMostParentId":"490G00004622","towards":"Tooting Broadway"},{"icsId":"1010604","id":"490010604E","lat":51.4396,"lon":-0.17802,"name":"Openview","parentId":"490G00010604","stationId":"490G00010604","stopLetter":"->E","topMostParentId":"490G00010604","towards":"Clapham Junction"},{"icsId":"1013669","id":"490013669E","lat":51.44083,"lon":-0.17458,"name":"Tilehurst Road","parentId":"490G00013669","stationId":"490G00013669","stopLetter":"->E","topMostParentId":"490G00013669","towards":"Clapham Junction"},{"icsId":"1009649","id":"490009649E","lat":51.44185,"lon":-0.17152,"name":"Marham Gardens","parentId":"490G00009649","stationId":"490G00009649","stopLetter":"M","topMostParentId":"490G00009649","towards":"Clapham Junction"},{"icsId":"1019728","id":"490013044G","lat":51.44354,"lon":-0.1687,"name":"Trinity Road","parentId":"490G00019728","stationId":"490G00019728","stopLetter":"G","topMostParentId":"490G00019728","towards":"Clapham Junction"},{"icsId":"1001309","id":"490001309A","lat":51.44593,"lon":-0.16604,"name":"Wandsworth Common Station","stopLetter":"A","topMostParentId":"490001309A","towards":"Clapham Junction"},{"icsId":"1004132","id":"490004132E","lat":51.44861,"lon":-0.1629,"name":"Bolingbroke Grove","parentId":"490G00004132","stationId":"490G00004132","stopLetter":"K","topMostParentId":"490G00004132","towards":"Clapham Junction"},{"icsId":"1011792","id":"490011792E","lat":51.45016,"lon":-0.15833,"name":"Oak Lodge School","parentId":"490G00011792","stationId":"490G00011792","stopLetter":"->E","topMostParentId":"490G00011792","towards":"Clapham Junction"},{"icsId":"1011411","id":"490011411E","lat":51.45096,"lon":-0.15539,"name":"Ramsden Road","parentId":"490G00011411","stationId":"490G00011411","stopLetter":"->E","topMostParentId":"490G00011411","towards":"Clapham Junction"},{"icsId":"1013652","id":"490013652E","lat":51.45272,"lon":-0.15216,"name":"Thurleigh Avenue","parentId":"490G00013652","stationId":"490G00013652","stopLetter":"SU","topMostParentId":"490G00013652","towards":"Clapham Junction"},{"icsId":"1000052","id":"490000052SB","lat":51.45301,"lon":-0.14843,"name":"Clapham South Station","stopLetter":"SB","topMostParentId":"490000052SB","towards":"Clapham Junction","zone":"2+3"},{"icsId":"1009474","id":"490009474SF","lat":51.45469,"lon":-0.14589,"name":"Lynette Avenue","parentId":"490G00009474","stationId":"490G00009474","stopLetter":"SF","topMostParentId":"490G00009474","towards":"Stockwell"},{"icsId":"1006520","id":"490006520N","lat":51.45713,"lon":-0.14357,"name":"Elms Road / Windmill on the Common","parentId":"490G00006520","stationId":"490G00006520","stopLetter":"C","topMostParentId":"490G00006520","towards":"Stockwell"},{"icsId":"1000050","id":"490000050E","lat":51.46141,"lon":-0.13876,"name":"Clapham Common Station","stopLetter":"E","topMostParentId":"490000050E","towards":"Brixton Or Clapham North","zone":"2"},{"icsId":"1010776","id":"490010776E","lat":51.4595,"lon":-0.13356,"name":"Park Hill","parentId":"490G00010776","stationId":"490G00010776","stopLetter":"H","topMostParentId":"490G00010776","towards":"Brixton Or Streatham Hill"},{"icsId":"1003796","id":"490003796E","lat":51.45972,"lon":-0.13044,"name":"Bedford Road","parentId":"490G00003796","stationId":"490G00003796","stopLetter":"E","topMostParentId":"490G00003796","towards":"Brixton Or Streatham Hill"},{"icsId":"1012222","id":"490012222E","lat":51.45965,"lon":-0.12435,"name":"Solon Road","parentId":"490G00012222","stationId":"490G00012222","stopLetter":"F","topMostParentId":"490G00012222","towards":"Camberwell Or Herne Hill"},{"icsId":"1003071","id":"490003071E","lat":51.46023,"lon":-0.11982,"name":"Belvedere Place","parentId":"490G00003071","stationId":"490G00003071","stopLetter":"G","topMostParentId":"490G00003071","towards":"Camberwell Or Herne Hill"},{"icsId":"1008919","id":"490008919A","lat":51.46093,"lon":-0.11742,"name":"Lambeth Town Hall","parentId":"490G000627","stationId":"490G000627","stopLetter":"A","topMostParentId":"490G000627","towards":"Camberwell Or Herne Hill"},{"icsId":"1012808","id":"4900019343S","lat":51.46024,"lon":-0.11553,"name":"St Matthew's Church","parentId":"490G00012808","stationId":"490G00012808","stopLetter":"ZA","topMostParentId":"490G00012808","towards":"Herne Hill"},{"icsId":"1012810","id":"490012810S","lat":51.45815,"lon":-0.11478,"name":"St Matthews Estate","parentId":"490G00012810","stationId":"490G00012810","stopLetter":"A","topMostParentId":"490G00012810","towards":"Herne Hill Or Tulse Hill"},{"icsId":"1005847","id":"490010053S","lat":51.4564,"lon":-0.11415,"name":"Morval Road","parentId":"490G00005847","stationId":"490G00005847","stopLetter":"B","topMostParentId":"490G00005847","towards":"Herne Hill Or Tulse Hill"},{"icsId":"1005933","id":"490005933S","lat":51.45595,"lon":-0.11092,"name":"Dalberg Road / Effra Parade","parentId":"490G00005933","stationId":"490G00005933","stopLetter":"Q","topMostParentId":"490G00005933","towards":"Crystal Palace, East Dulwich Or Tulse Hill"},{"icsId":"1009933","id":"490009933W","lat":51.45412,"lon":-0.1077,"name":"Milton Road","parentId":"490G00009933","stationId":"490G00009933","stopLetter":"R","topMostParentId":"490G00009933","towards":"Crystal Palace, East Dulwich Or Tulse Hill"},{"icsId":"1004402","id":"490004402P","lat":51.45334,"lon":-0.1054,"name":"Brockwell Lido","parentId":"490G00004402","stationId":"490G00004402","stopLetter":"Z","topMostParentId":"490G00004402","towards":"Crystal Palace, East Dulwich Or Tulse Hill"},{"icsId":"1001149","id":"490001149N","lat":51.45262,"lon":-0.10265,"name":"Herne Hill Station","stopLetter":"N","topMostParentId":"490001149N","towards":"Crystal Palace, East Dulwich Or Tulse Hill"},{"icsId":"1004403","id":"490004403F","lat":51.45188,"lon":-0.10124,"name":"Brockwell Park","parentId":"490G000428","stationId":"490G000428","stopLetter":"F","topMostParentId":"490G000428","towards":"West Norwood"},{"icsId":"1011701","id":"490011701S","lat":51.44812,"lon":-0.10256,"name":"Rosendale Road","parentId":"490G00011701","stationId":"490G00011701","stopLetter":"P","topMostParentId":"490G00011701","towards":"West Norwood"},{"icsId":"1004404","id":"490004404S","lat":51.44624,"lon":-0.10488,"name":"Brockwell Park Gardens","parentId":"490G00004404","stationId":"490G00004404","stopLetter":"R","topMostParentId":"490G00004404","towards":"West Norwood"},{"icsId":"1006058","id":"490006058S","lat":51.44388,"lon":-0.10487,"name":"Deronda Road","parentId":"490G00006058","stationId":"490G00006058","stopLetter":"->S","topMostParentId":"490G00006058","towards":"West Norwood"},{"icsId":"1013656","id":"490013656C","lat":51.4415,"lon":-0.10604,"name":"Thurlow Park Road","parentId":"490G00013656","stationId":"490G00013656","stopLetter":"C","topMostParentId":"490G00013656","towards":"West Norwood"},{"icsId":"1001298","id":"490001298G","lat":51.43943,"lon":-0.10612,"name":"Tulse Hill Station","stopLetter":"G","topMostParentId":"490001298G","towards":"Crown Point Or Crystal Palace"},{"icsId":"1014508","id":"490014508H","lat":51.43779,"lon":-0.10554,"name":"Elmcourt Road","parentId":"490G00014508","stationId":"490G00014508","stopLetter":"H","topMostParentId":"490G00014508","towards":"Crown Point Or Crystal Palace"},{"icsId":"1008927","id":"490008927L","lat":51.43574,"lon":-0.10411,"name":"Lancaster Avenue","parentId":"490G00008927","stationId":"490G00008927","stopLetter":"L","topMostParentId":"490G00008927","towards":"Crown Point Or Crystal Palace"},{"icsId":"1013670","id":"490013655P","lat":51.43402,"lon":-0.10364,"name":"Norwood Road / Robson Road","parentId":"490G00013670","stationId":"490G00013670","stopLetter":"P","topMostParentId":"490G00013670","towards":"Crown Point Or Crystal Palace"},{"icsId":"1001331","id":"490001331T","lat":51.43166,"lon":-0.10254,"name":"West Norwood Station","stopLetter":"T","topMostParentId":"490001331T","towards":"Crown Point Or Crystal Palace"},{"icsId":"1010444","id":"490010444W","lat":51.42952,"lon":-0.10355,"name":"Norwood Bus Garage","parentId":"490G00010444","stationId":"490G00010444","stopLetter":"U","topMostParentId":"490G00010444","towards":"Upper Norwood"}]}]}