{"direction":"inbound","lineId":"696","lineName":"696","mode":"bus","stopPointSequences":[{"stopPoint":[{"icsId":"1008164","id":"490008164E","lat":51.58012,"lon":-0.4097,"name":"Hume Way","parentId":"490G00008164","stationId":"490G00008164","stopLetter":"->E","topMostParentId":"490G00008164","towards":"Hayes"},{"icsId":"1014761","id":"490014761S","lat":51.57744,"lon":-0.41576,"name":"West Hatch Manor","parentId":"490G00014761","stationId":"490G00014761","stopLetter":"->S","topMostParentId":"490G00014761","towards":"Ruislip"},{"icsId":"1000199","id":"490000199D","lat":51.57437,"lon":-0.4137,"name":"Ruislip Manor Station","stopLetter":"D","topMostParentId":"490000199D","towards":"Ruislip Lido","zone":"6"},{"icsId":"1007555","id":"490007555S","lat":51.56789,"lon":-0.41943,"name":"Grosvenor Vale","parentId":"490G00007555","stationId":"490G00007555","stopLetter":"->S","topMostParentId":"490G00007555","towards":"Yeading"},{"icsId":"1010348","id":"490010348S","lat":51.56565,"lon":-0.41686,"name":"Northdown Close","parentId":"490G00010348","stationId":"490G00010348","stopLetter":"F","topMostParentId":"490G00010348","towards":"Yeading"},{"icsId":"1003920","id":"490003920S","lat":51.56312,"lon":-0.41389,"name":"Berkeley Close","parentId":"490G00003920","stationId":"490G00003920","stopLetter":"D","topMostParentId":"490G00003920","towards":"Yeading"},{"icsId":"1000198","id":"490000198A","lat":51.56027,"lon":-0.41081,"name":"Ruislip Gardens Station","stopLetter":"A","topMostParentId":"490000198A","towards":"Yeading","zone":"5"},{"icsId":"1011380","id":"490011380S","lat":51.55739,"lon":-0.40751,"name":"R A F Northolt","parentId":"490G00011380","stationId":"490G00011380","stopLetter":"H","topMostParentId":"490G00011380","towards":"Yeading"},{"icsId":"1012605","id":"490012605C","lat":51.55455,"lon":-0.40448,"name":"Station Approach / South Ruislip Stn","parentId":"490G00012605","stationId":"490G00012605","stopLetter":"C","topMostParentId":"490G00012605","towards":"Yeading"},{"icsId":"1011084","id":"490011084S","lat":51.55008,"lon":-0.40052,"name":"Polish War Memorial","parentId":"490G00011084","stationId":"490G00011084","stopLetter":"F","topMostParentId":"490G00011084","towards":"Greenford"},{"icsId":"1007881","id":"490007881S","lat":51.54407,"lon":-0.39772,"name":"Harvey Road","parentId":"490G00007881","stationId":"490G00007881","stopLetter":"->S","topMostParentId":"490G00007881","towards":"Greenford"},{"icsId":"1010582","id":"490010582S","lat":51.54063,"lon":-0.39712,"name":"Henson Place","parentId":"490G00010582","stationId":"490G00010582","stopLetter":"->S","topMostParentId":"490G00010582","towards":"Greenford"},{"icsId":"1015409","id":"490015409E","lat":51.53747,"lon":-0.39309,"name":"Old Ruislip Road","parentId":"490G00015409","stationId":"490G00015409","stopLetter":"T","topMostParentId":"490G00015409","towards":"Greenford"},{"icsId":"1015479","id":"490015479E","lat":51.53502,"lon":-0.38904,"name":"Church Road","parentId":"490G00015479","stationId":"490G00015479","stopLetter":"Y","topMostParentId":"490G00015479","towards":"Ealing Or Southall"},{"icsId":"1008596","id":"490008596E","lat":51.53324,"lon":-0.38484,"name":"Wayfarer Road","parentId":"490G00008596","stationId":"490G00008596","stopLetter":"->E","topMostParentId":"490G00008596","towards":"Greenford, Ealing Or Southall"},{"icsId":"1019131","id":"490004373S","lat":51.53195,"lon":-0.3792,"name":"Brick Lane","parentId":"490G00019131","stationId":"490G00019131","stopLetter":"WP","topMostParentId":"490G00019131","towards":"Hayes"},{"icsId":"1011995","id":"490011995S","lat":51.52952,"lon":-0.3808,"name":"Sentinel Close","parentId":"490G00011995","stationId":"490G00011995","stopLetter":"WR","topMostParentId":"490G00011995","towards":"Hayes"},{"icsId":"1003930","id":"490003930S","lat":51.5279,"lon":-0.38316,"name":"Berrydale Road","parentId":"490G00003930","stationId":"490G00003930","stopLetter":"->S","topMostParentId":"490G00003930","towards":"Hayes Town"},{"icsId":"1008754","id":"490008754E1","lat":51.5276,"lon":-0.3864,"name":"Kingsash Drive","parentId":"490G00008754","stationId":"490G00008754","stopLetter":"->W","topMostParentId":"490G00008754","towards":"Hayes Town"},{"icsId":"1010903","id":"490010903S","lat":51.5267,"lon":-0.38913,"name":"Pendula Drive","parentId":"490G00010903","stationId":"490G00010903","stopLetter":"->S","topMostParentId":"490G00010903","towards":"Hayes Town"},{"icsId":"1008576","id":"490008576S","lat":51.52489,"lon":-0.38915,"name":"Jollys Lane","parentId":"490G00008576","stationId":"490G00008576","stopLetter":"->E","topMostParentId":"490G00008576","towards":"Greenford Or Hayes Town"},{"icsId":"1013587","id":"490013587W","lat":51.52646,"lon":-0.39383,"name":"Homefield Close","parentId":"490G00013587","stationId":"490G00013587","stopLetter":"->W","topMostParentId":"490G00013587","towards":"Hayes Town"},{"icsId":"1014711","id":"490014711N","lat":51.52818,"lon":-0.39926,"name":"Yeading Lane / Willow Tree Lane","parentId":"490G00014711","stationId":"490G00014711","stopLetter":"E","topMostParentId":"490G00014711","towards":"Northolt"},{"icsId":"1003647","id":"490003647N","lat":51.52984,"lon":-0.39825,"name":"Barnhill Community High School","parentId":"490G00003647","stationId":"490G00003647","stopLetter":"F","topMostParentId":"490G00003647","towards":"Northolt"},{"icsId":"1008417","id":"490008417W","lat":51.53323,"lon":-0.3981,"name":"Hughenden Gardens","parentId":"490G00008417","stationId":"490G00008417","stopLetter":"H","topMostParentId":"490G00008417","towards":"Hayes"},{"icsId":"1007610","id":"490007610W","lat":51.53338,"lon":-0.40406,"name":"Gurney Road","parentId":"490G00007610","stationId":"490G00007610","stopLetter":"->W","topMostParentId":"490G00007610","towards":"Hayes"},{"icsId":"1013757","id":"490013757W","lat":51.53417,"lon":-0.40851,"name":"Townson Avenue","parentId":"490G00013757","stationId":"490G00013757","stopLetter":"R","topMostParentId":"490G00013757","towards":"Hayes"},{"icsId":"1016772","id":"490016772W","lat":51.5336,"lon":-0.41268,"name":"Kingshill Close","parentId":"490G00016772","stationId":"490G00016772","stopLetter":"S","topMostParentId":"490G00016772","towards":"Hayes Town"},{"icsId":"1007536","id":"490007536W","lat":51.53263,"lon":-0.41653,"name":"Grosvenor Avenue","parentId":"490G00007536","stationId":"490G00007536","stopLetter":"T","topMostParentId":"490G00007536","towards":"Hayes Town"},{"icsId":"1008963","id":"490008783S","lat":51.53136,"lon":-0.41873,"name":"The Brook House","parentId":"490G00008963","stationId":"490G00008963","stopLetter":"K","topMostParentId":"490G00008963","towards":"Hayes End Or Hayes Town"},{"icsId":"1006715","id":"490006715S","lat":51.52998,"lon":-0.41742,"name":"Fairholme Crescent","parentId":"490G00006715","stationId":"490G00006715","stopLetter":"L","topMostParentId":"490G00006715","towards":"Hayes End Or Hayes Town"},{"icsId":"1007002","id":"490007003S","lat":51.52824,"lon":-0.41713,"name":"Fredora Avenue","parentId":"490G00007002","stationId":"490G00007002","stopLetter":"M","topMostParentId":"490G00007002","towards":"Hayes End Or Hayes Town"},{"icsId":"1003572","id":"490003572D","lat":51.52573,"lon":-0.41974,"name":"Balmoral Drive","parentId":"490G00003572","stationId":"490G00003572","stopLetter":"D","topMostParentId":"490G00003572","towards":"Hayes End Or Hayes Town"},{"icsId":"1008962","id":"490008962E","lat":51.52237,"lon":-0.42012,"name":"Uxbridge County Court","parentId":"490G00008962","stationId":"490G00008962","stopLetter":"E","topMostParentId":"490G00008962","towards":"Hayes Or Southall"},{"icsId":"1005294","id":"490005294J","lat":51.52088,"lon":-0.41587,"name":"Church Road","parentId":"490G00005294","stationId":"490G00005294","stopLetter":"J","topMostParentId":"490G00005294","towards":"Hayes Or Southall"},{"icsId":"1003873","id":"490003873L","lat":51.5197,"lon":-0.41339,"name":"Belmore Parade","parentId":"490G00003873","stationId":"490G00003873","stopLetter":"L","topMostParentId":"490G00003873","towards":"Hayes Or Southall"},{"icsId":"1014994","id":"490014994N","lat":51.51844,"lon":-0.40941,"name":"Craven Close","parentId":"490G00014994","stationId":"490G00014994","stopLetter":"N","topMostParentId":"490G00014994","towards":"Southall"},{"icsId":"1008109","id":"490008109U","lat":51.51526,"lon":-0.40921,"name":"Hesa Road","parentId":"490G00008109","stationId":"490G00008109","stopLetter":"U","topMostParentId":"490G00008109","towards":"Harlington"},{"icsId":"1011170","id":"490011170S","lat":51.51413,"lon":-0.41049,"name":"Precinct Road","parentId":"490G00011170","stationId":"490G00011170","stopLetter":"SU","topMostParentId":"490G00011170","towards":"Harlington"},{"icsId":"1003512","id":"490003512S","lat":51.51181,"lon":-0.41227,"name":"Avondale Drive","parentId":"490G00003512","stationId":"490G00003512","stopLetter":"SV","topMostParentId":"490G00003512","towards":"Harlington"},{"icsId":"1006384","id":"490006384S","lat":51.51053,"lon":-0.41384,"name":"East Way","parentId":"490G00006384","stationId":"490G00006384","stopLetter":"SW","topMostParentId":"490G00006384","towards":"Harlington"},{"icsId":"1006701","id":"490006701B","lat":51.50862,"lon":-0.41581,"name":"Fairdale Gardens","parentId":"490G00006701","stationId":"490G00006701","stopLetter":"SX","topMostParentId":"490G00006701","towards":"Harlington"},{"icsId":"1000828","id":"490000828Y","lat":51.50654,"lon":-0.41886,"name":"Hayes Town Centre","parentId":"490G000162","stationId":"490G000162","stopLetter":"D","topMostParentId":"490G000162","towards":"Harlington, Prologis Park Or Southall"},{"icsId":"1001144","id":"490001144M","lat":51.50306,"lon":-0.42079,"name":"Hayes & Harlington Station","stopLetter":"E","topMostParentId":"490001144M","towards":"Harlington, Southall Or Stockley Park"},{"icsId":"1006702","id":"490006702S1","lat":51.50095,"lon":-0.42422,"name":"Fairey Corner","parentId":"490G00006702","stationId":"490G00006702","stopLetter":"F","topMostParentId":"490G00006702","towards":"Harlington Or Prologis Park"},{"icsId":"1011489","id":"490011489S1","lat":51.49789,"lon":-0.42641,"name":"Redmead Road","parentId":"490G00011489","stationId":"490G00011489","stopLetter":"R","topMostParentId":"490G00011489","towards":"Harlington Or Prologis Park"},{"icsId":"1005989","id":"490005989W","lat":51.49705,"lon":-0.42831,"name":"Clement Gardens","parentId":"490G00005989","stationId":"490G00005989","stopLetter":"W","topMostParentId":"490G00005989","towards":"Prologis Park"},{"icsId":"1012608","id":"490005989N","lat":51.49776,"lon":-0.43003,"name":"Pinkwell Avenue","parentId":"490G00012608","stationId":"490G00012608","stopLetter":"->N","topMostParentId":"490G00012608","towards":"Prologis Park"},{"icsId":"1004200","id":"490004200W","lat":51.5024,"lon":-0.43228,"name":"Guinness Close","parentId":"490G00004200","stationId":"490G00004200","stopLetter":"->W","topMostParentId":"490G00004200","towards":"Prologis Park"},{"icsId":"1005458","id":"490005458S","lat":51.50121,"lon":-0.43506,"name":"Colbrook Avenue","parentId":"490G00005458","stationId":"490G00005458","stopLetter":"->S","topMostParentId":"490G00005458","towards":"Prologis Park"},{"icsId":"1006469","id":"490006469S","lat":51.49874,"lon":-0.43526,"name":"Elers Road","parentId":"490G00006469","stationId":"490G00006469","stopLetter":"->S","topMostParentId":"490G00006469","towards":"Prologis Park"},{"icsId":"1007810","id":"490007810W","lat":51.49777,"lon":-0.43651,"name":"Harlington School","parentId":"490G00007810","stationId":"490G00007810","stopLetter":"->W","topMostParentId":"490G00007810","towards":"Prologis Park"},{"icsId":"1011013","id":"490011013W","lat":51.49872,"lon":-0.43961,"name":"Pinkwell Junior School","parentId":"490G00011013","stationId":"490G00011013","stopLetter":"->W","topMostParentId":"490G00011013","towards":"Prologis Park"},{"icsId":"1011015","id":"490011015N","lat":51.50043,"lon":-0.44172,"name":"Pinkwell Park","parentId":"490G00011015","stationId":"490G00011015","stopLetter":"->N","topMostParentId":"490G00011015","towards":"Prologis Park"},{"icsId":"1013465","id":"490013465E","lat":51.50308,"lon":-0.44171,"name":"Conway Drive","parentId":"490G00013465","stationId":"490G00013465","stopLetter":"->E","topMostParentId":"490G00013465","towards":"Hayes Town"}]}]}