{"direction":"inbound","lineId":"698","lineName":"698","mode":"bus","stopPointSequences":[{"stopPoint":[{"icsId":"1006136","id":"490006136S","lat":51.55911,"lon":-0.44566,"name":"Douay Martyrs School","parentId":"490G00006136","stationId":"490G00006136","stopLetter":"EE","topMostParentId":"490G00006136","towards":"Hayes End"},{"icsId":"1013089","id":"490013089S","lat":51.55683,"lon":-0.44664,"name":"Swakeleys Drive","parentId":"490G00013089","stationId":"490G00013089","stopLetter":"->S","topMostParentId":"490G00013089","towards":"Hayes End"},{"icsId":"1000111","id":"490000111N","lat":51.55367,"lon":-0.44831,"name":"Hillingdon Station","stopLetter":"A","topMostParentId":"490000111N","towards":"Ickenham Or Uxbridge","zone":"6"},{"icsId":"1003928","id":"490008222S","lat":51.55086,"lon":-0.44892,"name":"Hillingdon Circus","parentId":"490G000413","stationId":"490G000413","stopLetter":"F","topMostParentId":"490G000413","towards":"Hayes End Or Hillingdon Hospital"},{"icsId":"1007540","id":"490007540S","lat":51.54553,"lon":-0.44959,"name":"Grosvenor Crescent","parentId":"490G00007540","stationId":"490G00007540","stopLetter":"->S","topMostParentId":"490G00007540","towards":"Hayes End"},{"icsId":"1010483","id":"490010483S","lat":51.54146,"lon":-0.45039,"name":"Oak Farm Library","parentId":"490G00010483","stationId":"490G00010483","stopLetter":"->S","topMostParentId":"490G00010483","towards":"Hayes End Or Hillingdon Hospital"},{"icsId":"1005422","id":"490005422S","lat":51.53869,"lon":-0.45201,"name":"Clifton Gardens","parentId":"490G00005422","stationId":"490G00005422","stopLetter":"UU","topMostParentId":"490G00005422","towards":"Hayes End Or Hillingdon Hospital"},{"icsId":"1013974","id":"490013974S","lat":51.53316,"lon":-0.45249,"name":"Crescent Parade","parentId":"490G00013974","stationId":"490G00013974","stopLetter":"UV","topMostParentId":"490G00013974","towards":"Hayes End Or Hillingdon Hospital"},{"icsId":"1008227","id":"490008227E","lat":51.53208,"lon":-0.4504,"name":"Hillingdon Primary School","parentId":"490G00008227","stationId":"490G00008227","stopLetter":"UE","topMostParentId":"490G00008227","towards":"Hillingdon Hospital Or Hayes End"},{"icsId":"1009069","id":"490009069E","lat":51.52992,"lon":-0.44676,"name":"Hillingdon Heath / Lees Road","parentId":"490G00009069","stationId":"490G00009069","stopLetter":"UF","topMostParentId":"490G00009069","towards":"Hayes End"},{"icsId":"1008006","id":"490008006E","lat":51.52827,"lon":-0.44302,"name":"Heath Road","parentId":"490G00008006","stationId":"490G00008006","stopLetter":"UG","topMostParentId":"490G00008006","towards":"Hayes Or Southall"},{"icsId":"1008117","id":"490008117E","lat":51.52704,"lon":-0.43911,"name":"Hewens Road","parentId":"490G00008117","stationId":"490G00008117","stopLetter":"XA","topMostParentId":"490G00008117","towards":"Hayes Or Southall"},{"icsId":"1007952","id":"490007952E","lat":51.52536,"lon":-0.43408,"name":"Hayes Police Station","parentId":"490G00007952","stationId":"490G00007952","stopLetter":"XB","topMostParentId":"490G00007952","towards":"Hayes Or Southall"},{"icsId":"1007946","id":"490007946E","lat":51.52468,"lon":-0.4307,"name":"Hayes End","parentId":"490G00007946","stationId":"490G00007946","stopLetter":"XC","topMostParentId":"490G00007946","towards":"Hayes Or Southall"},{"icsId":"1010802","id":"490010802E","lat":51.52408,"lon":-0.42696,"name":"Park Road","parentId":"490G00010802","stationId":"490G00010802","stopLetter":"XD","topMostParentId":"490G00010802","towards":"Hayes Or Southall"},{"icsId":"1011690","id":"490011690A","lat":51.52368,"lon":-0.42448,"name":"Rosedale Park","parentId":"490G00011690","stationId":"490G00011690","stopLetter":"A","topMostParentId":"490G00011690","towards":"Southall Or Hayes"},{"icsId":"1008962","id":"490008962E","lat":51.52237,"lon":-0.42012,"name":"Uxbridge County Court","parentId":"490G00008962","stationId":"490G00008962","stopLetter":"E","topMostParentId":"490G00008962","towards":"Hayes Or Southall"},{"icsId":"1013977","id":"490013977H","lat":51.52076,"lon":-0.41741,"name":"Church Road / Swift Close","parentId":"490G00013977","stationId":"490G00013977","stopLetter":"H","topMostParentId":"490G00013977","towards":"Hayes Town"},{"icsId":"1005262","id":"490005262S","lat":51.51786,"lon":-0.41885,"name":"Church Green","parentId":"490G00005262","stationId":"490G00005262","stopLetter":"SK","topMostParentId":"490G00005262","towards":"Harlington Or Southall"},{"icsId":"1009334","id":"490009334S","lat":51.51539,"lon":-0.41994,"name":"Longmead Road","parentId":"490G00009334","stationId":"490G00009334","stopLetter":"SL","topMostParentId":"490G00009334","towards":"Harlington Or Southall"},{"icsId":"1013751","id":"490013751S","lat":51.51295,"lon":-0.41998,"name":"Townfield Road","parentId":"490G00013751","stationId":"490G00013751","stopLetter":"SM","topMostParentId":"490G00013751","towards":"Harlington Or Southall"},{"icsId":"1004178","id":"490004178S","lat":51.5093,"lon":-0.42086,"name":"Botwell Lane","parentId":"490G00004178","stationId":"490G00004178","stopLetter":"SN","topMostParentId":"490G00004178","towards":"Harlington Or Southall"},{"icsId":"1004177","id":"490004177E","lat":51.50762,"lon":-0.41933,"name":"Botwell Green","parentId":"490G00004177","stationId":"490G00004177","stopLetter":"SP","topMostParentId":"490G00004177","towards":"Harlington, Prologis Park Or Southall"},{"icsId":"1000828","id":"490000828Y","lat":51.50654,"lon":-0.41886,"name":"Hayes Town Centre","parentId":"490G000162","stationId":"490G000162","stopLetter":"D","topMostParentId":"490G000162","towards":"Harlington, Prologis Park Or Southall"},{"icsId":"1001144","id":"490001144M","lat":51.50306,"lon":-0.42079,"name":"Hayes & Harlington Station","stopLetter":"E","topMostParentId":"490001144M","towards":"Harlington, Southall Or Stockley Park"},{"icsId":"1006702","id":"490006702S1","lat":51.50095,"lon":-0.42422,"name":"Fairey Corner","parentId":"490G00006702","stationId":"490G00006702","stopLetter":"F","topMostParentId":"490G00006702","towards":"Harlington Or Prologis Park"},{"icsId":"1011489","id":"490011489S1","lat":51.49789,"lon":-0.42641,"name":"Redmead Road","parentId":"490G00011489","stationId":"490G00011489","stopLetter":"R","topMostParentId":"490G00011489","towards":"Harlington Or Prologis Park"},{"icsId":"1005989","id":"490005989W","lat":51.49705,"lon":-0.42831,"name":"Clement Gardens","parentId":"490G00005989","stationId":"490G00005989","stopLetter":"W","topMostParentId":"490G00005989","towards":"Prologis Park"},{"icsId":"1005995","id":"490005989S","lat":51.49696,"lon":-0.43017,"name":"Dawley Road","parentId":"490G00005995","stationId":"490G00005995","stopLetter":"->S","topMostParentId":"490G00005995","towards":"West Drayton"},{"icsId":"1011885","id":"490011885S","lat":51.49571,"lon":-0.43095,"name":"Sam Philip Recreation Ground","parentId":"490G00011885","stationId":"490G00011885","stopLetter":"->S","topMostParentId":"490G00011885","towards":"West Drayton"},{"icsId":"1005095","id":"490005095W","lat":51.49836,"lon":-0.4599,"name":"Cherry Lane School","parentId":"490G00005095","stationId":"490G00005095","stopLetter":"->W","topMostParentId":"490G00005095","towards":"Cowley"},{"icsId":"1009727","id":"490009727N","lat":51.50063,"lon":-0.46501,"name":"Maxwell Road","parentId":"490G00009727","stationId":"490G00009727","stopLetter":"->N","topMostParentId":"490G00009727","towards":"Cowley"},{"icsId":"1014424","id":"490014424N","lat":51.50359,"lon":-0.46709,"name":"Porters Way","parentId":"490G00014424","stationId":"490G00014424","stopLetter":"->N","topMostParentId":"490G00014424","towards":"Cowley Or Stockley Park"},{"icsId":"1005291","id":"490005291K","lat":51.50585,"lon":-0.47001,"name":"Church Road","parentId":"490G00005291","stationId":"490G00005291","stopLetter":"K","topMostParentId":"490G00005291","towards":"Hillingdon Hospital Or Uxbridge"},{"icsId":"1006815","id":"490006815G","lat":51.50853,"lon":-0.47363,"name":"Ferrers Avenue","parentId":"490G00006815","stationId":"490G00006815","stopLetter":"G","topMostParentId":"490G00006815","towards":"Hillingdon Hospital Or Uxbridge"}]}]}