{"direction":"inbound","lineId":"7","lineName":"7","mode":"bus","stopPointSequences":[{"stopPoint":[{"icsId":"1015200","id":"490015196R","lat":51.51479,"lon":-0.14532,"name":"Oxford Street / John Lewis","parentId":"490G00015200","stationId":"490G00015200","stopLetter":"OR","topMostParentId":"490G00015200","towards":"Baker Street, Bayswater Or Victoria"},{"icsId":"1011985","id":"490011985BX","lat":51.51399,"lon":-0.15234,"name":"Selfridges","parentId":"490G000738","stationId":"490G000738","stopLetter":"BX","topMostParentId":"490G000738","towards":"Baker Street, Bayswater Or Victoria"},{"icsId":"1000144","id":"490000144O","lat":51.51356,"lon":-0.15686,"name":"Marble Arch Station","stopLetter":"O","topMostParentId":"490000144O","towards":"Maida Vale Or Paddington","zone":"1"},{"icsId":"1008450","id":"490000144E","lat":51.51387,"lon":-0.1613,"name":"Marble Arch / Edgware Road","parentId":"490G00008450","stationId":"490G00008450","stopLetter":"E","topMostParentId":"490G00008450","towards":"Maida Vale Or Paddington"},{"icsId":"1007169","id":"490007167N1","lat":51.51715,"lon":-0.16625,"name":"Burwood Place","parentId":"490G00007169","stationId":"490G00007169","stopLetter":"EK","topMostParentId":"490G00007169","towards":"Paddington"},{"icsId":"1015044","id":"490015044Z","lat":51.51712,"lon":-0.1691,"name":"Sussex Gardens","parentId":"490G00015044","stationId":"490G00015044","stopLetter":"ES","topMostParentId":"490G00015044","towards":"Ladbroke Grove, Kensington Or Royal Oak"},{"icsId":"1012797","id":"490012797N","lat":51.5167,"lon":-0.17246,"name":"St Mary's Hospital","parentId":"490G00012797","stationId":"490G00012797","stopLetter":"G","topMostParentId":"490G00012797","towards":"Ladbroke Grove, Kensington Or Royal Oak"},{"icsId":"1001221","id":"490001221F","lat":51.51549,"lon":-0.1757,"name":"Paddington Station","stopLetter":"F","topMostParentId":"490001221F","towards":"Ladbroke Grove, Kensington Or Royal Oak"},{"icsId":"1005166","id":"490006321D","lat":51.51695,"lon":-0.17903,"name":"Paddington Stn / Eastbourne Terrace","parentId":"490G000450","stationId":"490G000450","stopLetter":"D","topMostParentId":"HUBPAD","towards":"Ladbroke Grove, Kensington Or Royal Oak"},{"icsId":"1014406","id":"490014406W","lat":51.51768,"lon":-0.18114,"name":"Westbourne Terrace","parentId":"490G00014406","stationId":"490G00014406","stopLetter":"R","topMostParentId":"490G00014406","towards":"Ladbroke Grove, Kensington Or Queens Park"},{"icsId":"1007252","id":"490007252W","lat":51.51687,"lon":-0.18443,"name":"Gloucester Terrace","parentId":"490G00007252","stationId":"490G00007252","stopLetter":"RQ","topMostParentId":"490G00007252","towards":"Ladbroke Grove, Kensington Or Queens Park"},{"icsId":"1011365","id":"490011365G","lat":51.51566,"lon":-0.18916,"name":"Westbourne Grove / Queensway","parentId":"490G00011365","stationId":"490G00011365","stopLetter":"G","topMostParentId":"490G00011365","towards":"Ladbroke Grove"},{"icsId":"1019713","id":"490014402A","lat":51.51583,"lon":-0.19542,"name":"Artesian Road","parentId":"490G00019713","stationId":"490G00019713","stopLetter":"PC","topMostParentId":"490G00019713","towards":"Kilburn Or Ladbroke Grove"},{"icsId":"1012948","id":"490012948N","lat":51.51857,"lon":-0.19629,"name":"St Stephens Gardens","parentId":"490G00012948","stationId":"490G00012948","stopLetter":"->N","topMostParentId":"490G00012948","towards":"Kilburn Or Ladbroke Grove"},{"icsId":"1007429","id":"490007420M","lat":51.51837,"lon":-0.19905,"name":"Great Western Road","parentId":"490G00007429","stationId":"490G00007429","stopLetter":"M","topMostParentId":"490G00007429","towards":"Ladbroke Grove"},{"icsId":"1011158","id":"490011158W","lat":51.51755,"lon":-0.2023,"name":"Powis Gardens","parentId":"490G00011158","stationId":"490G00011158","stopLetter":"PD","topMostParentId":"490G00011158","towards":"East Acton"},{"icsId":"1011137","id":"490011137W","lat":51.51687,"lon":-0.20502,"name":"Portobello Road","parentId":"490G00011137","stationId":"490G00011137","stopLetter":"PE","topMostParentId":"490G00011137","towards":"East Acton"},{"icsId":"1000131","id":"490000131A","lat":51.51727,"lon":-0.21007,"name":"Ladbroke Grove Station","stopLetter":"A","topMostParentId":"490000131A","towards":"Westbourne Park, East Acton Or Kensal Rise","zone":"2"},{"icsId":"1004702","id":"490004702L","lat":51.51787,"lon":-0.212,"name":"Cambridge Gardens / Ladbroke Grove","parentId":"490G000436","stationId":"490G000436","stopLetter":"L","topMostParentId":"490G000436","towards":"East Acton Or Shepherd's Bush"},{"icsId":"1019158","id":"490004699N","lat":51.5177,"lon":-0.21534,"name":"Oxford Gardens","parentId":"490G00019158","stationId":"490G00019158","stopLetter":"F","topMostParentId":"490G00019158","towards":"East Acton"},{"icsId":"1012646","id":"490012646N","lat":51.51987,"lon":-0.21789,"name":"St Charles Square","parentId":"490G00012646","stationId":"490G00012646","stopLetter":"G","topMostParentId":"490G00012646","towards":"East Acton Or Queens Park"},{"icsId":"1015456","id":"490015456N","lat":51.521,"lon":-0.21855,"name":"Oakworth Road","parentId":"490G00015456","stationId":"490G00015456","stopLetter":"H","topMostParentId":"490G00015456","towards":"East Acton Or Queens Park"},{"icsId":"1012645","id":"490012645N1","lat":51.52259,"lon":-0.21949,"name":"St Charles Health & Wellbeing Centre","parentId":"490G00012645","stationId":"490G00012645","stopLetter":"J","topMostParentId":"490G00012645","towards":"East Acton Or Queens Park"},{"icsId":"1005936","id":"490005936W","lat":51.52211,"lon":-0.22207,"name":"Dalgarno Gardens","parentId":"490G00005936","stationId":"490G00005936","stopLetter":"K","topMostParentId":"490G00005936","towards":"East Acton"},{"icsId":"1008175","id":"490008175W","lat":51.52081,"lon":-0.22402,"name":"Highlever Road","parentId":"490G00008175","stationId":"490G00008175","stopLetter":"L","topMostParentId":"490G00008175","towards":"East Acton"},{"icsId":"1010398","id":"490011962W","lat":51.51987,"lon":-0.22576,"name":"North Pole Road","parentId":"490G00010398","stationId":"490G00010398","stopLetter":"S","topMostParentId":"490G00010398","towards":"East Acton"},{"icsId":"1004895","id":"490004895S","lat":51.51791,"lon":-0.22751,"name":"Caverswall Street","parentId":"490G00004895","stationId":"490G00004895","stopLetter":"K","topMostParentId":"490G00004895","towards":"East Acton Or Shepherd's Bush"},{"icsId":"1014869","id":"490014869W","lat":51.51666,"lon":-0.22888,"name":"Latymer Upper School / Playing Fields","parentId":"490G00014869","stationId":"490G00014869","stopLetter":"D","topMostParentId":"490G00014869","towards":"Acton Or East Acton"},{"icsId":"1007707","id":"490007707F","lat":51.51615,"lon":-0.2346,"name":"Hammersmith Hospital","parentId":"490G00007707","stationId":"490G00007707","stopLetter":"E","topMostParentId":"490G00007707","towards":"East Acton"},{"icsId":"1014971","id":"490014971G","lat":51.5155,"lon":-0.24359,"name":"Wulfstan Street","parentId":"490G00014971","stationId":"490G00014971","stopLetter":"G","topMostParentId":"490G00014971","towards":"Acton Or Chiswick"},{"icsId":"1000065","id":"490000065H","lat":51.51518,"lon":-0.24859,"name":"East Acton Station","stopLetter":"H","topMostParentId":"490000065H","towards":"Acton, Chiswick Or Brunel Road","zone":"2"},{"icsId":"1013349","id":"490013349M","lat":51.51696,"lon":-0.25015,"name":"The Fairway","parentId":"490G00013349","stationId":"490G00013349","stopLetter":"M","topMostParentId":"490G00013349","towards":"Brunel Road Or Willesden Junction"},{"icsId":"1009299","id":"490009299N","lat":51.51896,"lon":-0.25076,"name":"Long Drive","parentId":"490G00009299","stationId":"490G00009299","stopLetter":"N","topMostParentId":"490G00009299","towards":"Brunel Road Or Willesden Junction"},{"icsId":"1004524","id":"490004524W","lat":51.5197,"lon":-0.25382,"name":"Brunel Road","parentId":"490G00004524","stationId":"490G00004524","stopLetter":"X1","topMostParentId":"490G00004524"}]}]}