{"direction":"inbound","lineId":"75","lineName":"75","mode":"bus","stopPointSequences":[{"stopPoint":[{"icsId":"1001550","id":"490006706ZZ","lat":51.37269,"lon":-0.0964,"name":"Park Lane / Fairfield Halls","parentId":"490G00001550","stationId":"490G00001550","stopLetter":"KA","topMostParentId":"490G00001550","towards":"Selhurst, South Croydon Or Waddon"},{"icsId":"1006706","id":"490006706C9","lat":51.37322,"lon":-0.09682,"name":"Fairfield Halls","parentId":"490G00006706","stationId":"490G00006706","stopLetter":"KD","topMostParentId":"490G00006706","towards":"West Croydon"},{"icsId":"1014614","id":"490014614E14","lat":51.37646,"lon":-0.09853,"name":"Whitgift Centre","parentId":"490G00014614","stationId":"490G00014614","stopLetter":"WM","topMostParentId":"490G00014614","towards":"Selhurst Or Waddon"},{"icsId":"1014420","id":"490014420V","lat":51.37916,"lon":-0.10112,"name":"West Croydon Bus Station","parentId":"490G000824","stationId":"490G000824","stopLetter":"B1","topMostParentId":"HUBWCY"},{"icsId":"1003793","id":"490003793N","lat":51.38137,"lon":-0.09939,"name":"Bedford Hall","parentId":"490G00003793","stationId":"490G00003793","stopLetter":"K","topMostParentId":"490G00003793","towards":"Addiscombe, Selhurst Or Thornton Heath"},{"icsId":"1008271","id":"490008271E","lat":51.38367,"lon":-0.09961,"name":"Hogarth Crescent","parentId":"490G00008271","stationId":"490G00008271","stopLetter":"L","topMostParentId":"490G00008271","towards":"Selhurst Or Thornton Heath"},{"icsId":"1013376","id":"490013376N","lat":51.38636,"lon":-0.09694,"name":"Devonshire Road","parentId":"490G00013376","stationId":"490G00013376","stopLetter":"J","topMostParentId":"490G00013376","towards":"Selhurst Or Thornton Heath"},{"icsId":"1003706","id":"490003706E","lat":51.38815,"lon":-0.0937,"name":"Beaconsfield Road","parentId":"490G00003706","stationId":"490G00003706","stopLetter":"K","topMostParentId":"490G00003706","towards":"Norwood Junction"},{"icsId":"1013549","id":"490013549N","lat":51.38928,"lon":-0.08956,"name":"Selhurst New Road","parentId":"490G00013549","stationId":"490G00013549","stopLetter":"L","topMostParentId":"490G00013549","towards":"Norwood Junction"},{"icsId":"1001245","id":"490001245N","lat":51.39211,"lon":-0.08783,"name":"Selhurst Station","stopLetter":"M","topMostParentId":"490001245N","towards":"Crystal Palace Or Penge"},{"icsId":"1015286","id":"490015286N","lat":51.39484,"lon":-0.0853,"name":"Clifton Road","parentId":"490G00015286","stationId":"490G00015286","stopLetter":"N","topMostParentId":"490G00015286","towards":"Crystal Palace Or Penge"},{"icsId":"1015297","id":"490010805E","lat":51.39639,"lon":-0.08277,"name":"Park Road","parentId":"490G00015297","stationId":"490G00015297","stopLetter":"->E","topMostParentId":"490G00015297","towards":"Crystal Palace Or Penge"},{"icsId":"1015287","id":"490010805E1","lat":51.39721,"lon":-0.08001,"name":"Russell Court","parentId":"490G00015287","stationId":"490G00015287","topMostParentId":"490G00015287","towards":"Crystal Palace, Penge Or Woodside"},{"icsId":"1012320","id":"490012320B","lat":51.39799,"lon":-0.07758,"name":"South Norwood Clock Tower","parentId":"490G00012320","stationId":"490G00012320","stopLetter":"B","topMostParentId":"490G00012320","towards":"Crystal Palace, Penge Or Woodside"},{"icsId":"1011128","id":"490011128F","lat":51.39904,"lon":-0.07541,"name":"Portland Road","parentId":"490G000710","stationId":"490G000710","stopLetter":"F","topMostParentId":"490G000710","towards":"Crystal Palace, Penge Or Upper Norwood"},{"icsId":"1013379","id":"490013379N","lat":51.40227,"lon":-0.07077,"name":"Sunnybank","parentId":"490G00013379","stationId":"490G00013379","stopLetter":"->N","topMostParentId":"490G00013379","towards":"Crystal Palace Or Penge"},{"icsId":"1011984","id":"490011984E","lat":51.40489,"lon":-0.0672,"name":"Selby Road","parentId":"490G00011984","stationId":"490G00011984","stopLetter":"A","topMostParentId":"490G00011984","towards":"Crystal Palace Or Penge"},{"icsId":"1003318","id":"490003318E","lat":51.40627,"lon":-0.06464,"name":"Anerley / the Mitre","parentId":"490G00003318","stationId":"490G00003318","stopLetter":"B","topMostParentId":"490G00003318","towards":"Crystal Palace Or Penge"},{"icsId":"1011884","id":"490011884AT","lat":51.40707,"lon":-0.06299,"name":"Samos Road","parentId":"490G00011884","stationId":"490G00011884","stopLetter":"C","topMostParentId":"490G00011884","towards":"Crystal Palace Or Penge"},{"icsId":"1018974","id":"490003317AP","lat":51.40833,"lon":-0.06035,"name":"Croydon Road / Elmers End Road","parentId":"490G00018974","stationId":"490G00018974","stopLetter":"D","topMostParentId":"490G00018974","towards":"Crystal Palace Or Penge"},{"icsId":"1003317","id":"490003317AK","lat":51.40907,"lon":-0.0588,"name":"Anerley Road / Oak Grove Road","parentId":"490G00003317","stationId":"490G00003317","stopLetter":"E","topMostParentId":"490G00003317","towards":"Sydenham Or Beckenham"},{"icsId":"1003494","id":"490003494E","lat":51.41094,"lon":-0.0559,"name":"Avenue Road","parentId":"490G00003494","stationId":"490G00003494","stopLetter":"F","topMostParentId":"490G00003494","towards":"Sydenham Or Beckenham"},{"icsId":"1015419","id":"490015419G","lat":51.41327,"lon":-0.05255,"name":"Penge / Pawleyne Arms","parentId":"490G00015419","stationId":"490G00015419","stopLetter":"G","topMostParentId":"490G00015419","towards":"Beckenham, Lower Sydenham Or Sydenham"},{"icsId":"1010906","id":"490010906L","lat":51.41432,"lon":-0.05104,"name":"Green Lane / Raleigh Road","parentId":"490G00010906","stationId":"490G00010906","stopLetter":"L","topMostParentId":"490G00010906","towards":"Lower Sydenham Or Sydenham"},{"icsId":"1013590","id":"490013554W","lat":51.41588,"lon":-0.0489,"name":"Thesiger Road","parentId":"490G00013590","stationId":"490G00013590","stopLetter":"P","topMostParentId":"490G00013590","towards":"Catford Or Lower Sydenham"},{"icsId":"1010908","id":"490010908N","lat":51.41738,"lon":-0.0513,"name":"Penge Lane","parentId":"490G00010908","stationId":"490G00010908","stopLetter":"R","topMostParentId":"490G00010908","towards":"Catford Or Lower Sydenham"},{"icsId":"1001224","id":"490001224A","lat":51.41997,"lon":-0.05327,"name":"Penge East Station","stopLetter":"Q","topMostParentId":"490001224A","towards":"Catford Or Lower Sydenham"},{"icsId":"1012963","id":"490012963N","lat":51.42176,"lon":-0.05223,"name":"Studland Road","parentId":"490G00012963","stationId":"490G00012963","stopLetter":"T","topMostParentId":"490G00012963","towards":"Catford Or Lower Sydenham"},{"icsId":"1010226","id":"490010226G","lat":51.42623,"lon":-0.05184,"name":"Newlands Park","parentId":"490G000676","stationId":"490G000676","stopLetter":"G","topMostParentId":"490G000676","towards":"Catford"},{"icsId":"1006308","id":"490006308J","lat":51.4262,"lon":-0.04898,"name":"Earlsthorpe Road","parentId":"490G00006308","stationId":"490G00006308","stopLetter":"J","topMostParentId":"490G00006308","towards":"Catford"},{"icsId":"1004593","id":"490004593K","lat":51.42849,"lon":-0.04694,"name":"Burghill Road","parentId":"490G00004593","stationId":"490G00004593","stopLetter":"K","topMostParentId":"490G00004593","towards":"Catford"},{"icsId":"1005920","id":"490005920N","lat":51.4317,"lon":-0.04627,"name":"Dacres Road","parentId":"490G00005920","stationId":"490G00005920","stopLetter":"W","topMostParentId":"490G00005920","towards":"Catford"},{"icsId":"1008481","id":"490008481N","lat":51.43434,"lon":-0.04672,"name":"Inglemere Road","parentId":"490G00008481","stationId":"490G00008481","stopLetter":"->N","topMostParentId":"490G00008481","towards":"Catford"},{"icsId":"1012145","id":"490012145E","lat":51.4353,"lon":-0.04343,"name":"Siddons Road","parentId":"490G00012145","stationId":"490G00012145","stopLetter":"->E","topMostParentId":"490G00012145","towards":"Catford Or Lower Sydenham"},{"icsId":"1008716","id":"490008716E","lat":51.43672,"lon":-0.04012,"name":"Kilmorie Road","parentId":"490G00008716","stationId":"490G00008716","stopLetter":"P","topMostParentId":"490G00008716","towards":"Catford"},{"icsId":"1009455","id":"490009455E","lat":51.43803,"lon":-0.03714,"name":"Lutwyche Road","parentId":"490G00009455","stationId":"490G00009455","stopLetter":"R","topMostParentId":"490G00009455","towards":"Catford"},{"icsId":"1006510","id":"490006510E","lat":51.43938,"lon":-0.03243,"name":"Elm Lane","parentId":"490G00006510","stationId":"490G00006510","stopLetter":"S","topMostParentId":"490G00006510","towards":"Hither Green, Lee Or Lewisham"},{"icsId":"1003812","id":"490003812E","lat":51.44027,"lon":-0.03068,"name":"Beechfield Road","parentId":"490G00003812","stationId":"490G00003812","stopLetter":"T","topMostParentId":"490G00003812","towards":"Hither Green, Lee Or Lewisham"},{"icsId":"1004862","id":"490001053P","lat":51.44463,"lon":-0.0236,"name":"Catford & Catford Bridge Stations","parentId":"490G000444","stationId":"490G000444","stopLetter":"P","topMostParentId":"490G000444","towards":"Lewisham Or Catford Garage"},{"icsId":"1013283","id":"490013282H","lat":51.44571,"lon":-0.01977,"name":"The Catford Broadway","parentId":"490G00013283","stationId":"490G00013283","stopLetter":"H","topMostParentId":"490G00013283","towards":"Lewisham"},{"icsId":"1013282","id":"490013282A","lat":51.44711,"lon":-0.01873,"name":"The Catford Centre","parentId":"490G00013282","stationId":"490G00013282","stopLetter":"A","topMostParentId":"490G00013282","towards":"Lewisham"},{"icsId":"1011703","id":"490011703HE","lat":51.44925,"lon":-0.01724,"name":"Rosenthal Road","parentId":"490G00011703","stationId":"490G00011703","stopLetter":"B","topMostParentId":"490G00011703","towards":"Lewisham"},{"icsId":"1000914","id":"490007163HF","lat":51.45184,"lon":-0.01691,"name":"Mount Pleasant Road","parentId":"490G000231","stationId":"490G000231","stopLetter":"HF","topMostParentId":"490G000231","towards":"Blackheath, Deptford Or New Cross"},{"icsId":"1009109","id":"490009109HH","lat":51.45286,"lon":-0.01658,"name":"Lewisham Hospital","parentId":"490G00009109","stationId":"490G00009109","stopLetter":"HH","topMostParentId":"490G00009109","towards":"Blackheath, Deptford Or New Cross"},{"icsId":"1009113","id":"490009113HJ","lat":51.45455,"lon":-0.01611,"name":"Lewisham Park","parentId":"490G00009113","stationId":"490G00009113","stopLetter":"HJ","topMostParentId":"490G00009113","towards":"Blackheath, Deptford Or New Cross"},{"icsId":"1009111","id":"490009111HK","lat":51.45707,"lon":-0.01391,"name":"Lewisham Fire Station","parentId":"490G00009111","stationId":"490G00009111","stopLetter":"HK","topMostParentId":"490G00009111","towards":"Lewisham"},{"icsId":"1016170","id":"490016170N1","lat":51.46055,"lon":-0.01314,"name":"Molesworth Street / Riverdale House","parentId":"490G00016170","stationId":"490G00016170","stopLetter":"O","topMostParentId":"490G00016170","towards":"Blackheath, Deptford Or Greenwich"},{"icsId":"1001177","id":"490001177U","lat":51.4649,"lon":-0.01305,"name":"Lewisham Station","stopLetter":"AP","topMostParentId":"490001177U","zone":"2+3"}]}]}