{"direction":"inbound","lineId":"77","lineName":"77","mode":"bus","stopPointSequences":[{"stopPoint":[{"icsId":"1001296","id":"490001296N","lat":51.42103,"lon":-0.16101,"name":"Mitcham Road / Tooting Station","parentId":"490G00002428","stationId":"490G00002428","stopLetter":"TD","topMostParentId":"490G00002428","towards":"Earlsfield Or Tooting Bec"},{"icsId":"1003295","id":"490003295N","lat":51.42245,"lon":-0.16047,"name":"Amen Corner","parentId":"490G00003295","stationId":"490G00003295","stopLetter":"TE","topMostParentId":"490G00003295","towards":"Earlsfield Or Tooting Bec"},{"icsId":"1013709","id":"490013709S","lat":51.42448,"lon":-0.16348,"name":"Tooting / the Mitre","parentId":"490G00013709","stationId":"490G00013709","stopLetter":"TH","topMostParentId":"490G00013709","towards":"Colliers Wood, Earlsfield Or Tooting Bec"},{"icsId":"1003990","id":"490003990P","lat":51.42605,"lon":-0.16575,"name":"Bickley Street","parentId":"490G00003990","stationId":"490G00003990","stopLetter":"P","topMostParentId":"490G00003990","towards":"Colliers Wood, Earlsfield Or Tooting Bec"},{"icsId":"1000234","id":"490000234H","lat":51.42716,"lon":-0.16691,"name":"Tooting Broadway Station","stopLetter":"H","topMostParentId":"490000234H","towards":"Earlsfield Or Wandsworth Common","zone":"3"},{"icsId":"1003997","id":"490000234N","lat":51.42839,"lon":-0.16908,"name":"Garratt Lane / Tooting Broadway","parentId":"490G000418","stationId":"490G000418","stopLetter":"N","topMostParentId":"490G000418","towards":"Earlsfield"},{"icsId":"1006718","id":"490006718H2","lat":51.43021,"lon":-0.17449,"name":"Fairlight Road","parentId":"490G00006718","stationId":"490G00006718","stopLetter":"HR","topMostParentId":"490G00006718","towards":"Earlsfield Or Wandsworth Common"},{"icsId":"1012920","id":"490012920W","lat":51.43187,"lon":-0.17714,"name":"Streatham Cemetery","parentId":"490G00012920","stationId":"490G00012920","stopLetter":"SA","topMostParentId":"490G00012920","towards":"Earlsfield Or Wandsworth Common"},{"icsId":"1007123","id":"490007123W","lat":51.43256,"lon":-0.1799,"name":"Wimbledon Road","parentId":"490G00007123","stationId":"490G00007123","stopLetter":"SB","topMostParentId":"490G00007123","towards":"Earlsfield Or Wandsworth Common"},{"icsId":"1008430","id":"490008430W","lat":51.43295,"lon":-0.18328,"name":"Huntspill Street","parentId":"490G00008430","stationId":"490G00008430","stopLetter":"SC","topMostParentId":"490G00008430","towards":"Earlsfield"},{"icsId":"1004621","id":"490004621N","lat":51.43495,"lon":-0.18582,"name":"Burntwood Lane","parentId":"490G00004621","stationId":"490G00004621","stopLetter":"SD","topMostParentId":"490G00004621","towards":"Earlsfield"},{"icsId":"1014127","id":"490014127S1","lat":51.43613,"lon":-0.18668,"name":"Waldron Road","parentId":"490G00014127","stationId":"490G00014127","stopLetter":"SE","topMostParentId":"490G00014127","towards":"Clapham Junction Or Wandsworth"},{"icsId":"1008502","id":"490008502N","lat":51.4395,"lon":-0.18696,"name":"Isis Street","parentId":"490G00008502","stationId":"490G00008502","stopLetter":"Q","topMostParentId":"490G00008502","towards":"Wandsworth Or Clapham Junction"},{"icsId":"1001088","id":"490006306C","lat":51.44124,"lon":-0.1873,"name":"Earlsfield Station","stopLetter":"C","topMostParentId":"490006306C","towards":"Wandsworth Or Clapham Junction"},{"icsId":"1006306","id":"490001088A","lat":51.44301,"lon":-0.18851,"name":"Penwith Road","parentId":"490G000495","stationId":"490G000495","stopLetter":"A","topMostParentId":"490G000495","towards":"Clapham Junction"},{"icsId":"1008488","id":"490008488N","lat":51.44623,"lon":-0.18533,"name":"Inman Road","parentId":"490G00008488","stationId":"490G00008488","stopLetter":"L","topMostParentId":"490G00008488","towards":"Clapham Junction"},{"icsId":"1004390","id":"490004390N","lat":51.44842,"lon":-0.18337,"name":"Brocklebank Road","parentId":"490G00004390","stationId":"490G00004390","stopLetter":"->N","topMostParentId":"490G00004390","towards":"Clapham Junction"},{"icsId":"1012574","id":"490012574N","lat":51.45023,"lon":-0.18173,"name":"St Ann's Hill","parentId":"490G00012574","stationId":"490G00012574","stopLetter":"K","topMostParentId":"490G00012574","towards":"Clapham Junction"},{"icsId":"1007998","id":"490007998N","lat":51.45229,"lon":-0.17975,"name":"Heathfield Road","parentId":"490G00007998","stationId":"490G00007998","stopLetter":"L","topMostParentId":"490G00007998","towards":"Clapham Junction"},{"icsId":"1014769","id":"490014769N2","lat":51.45537,"lon":-0.17622,"name":"Windmill Road","parentId":"490G00014769","stationId":"490G00014769","stopLetter":"M","topMostParentId":"490G00014769","towards":"Clapham Junction"},{"icsId":"1012379","id":"490012379N","lat":51.45848,"lon":-0.17422,"name":"Spencer Park","parentId":"490G00012379","stationId":"490G00012379","stopLetter":"N","topMostParentId":"490G00012379","towards":"Clapham Junction"},{"icsId":"1004133","id":"490004133E","lat":51.45972,"lon":-0.17188,"name":"Bolingbroke Grove","parentId":"490G00004133","stationId":"490G00004133","stopLetter":"P","topMostParentId":"490G00004133","towards":"Vauxhall"},{"icsId":"1005334","id":"490005333X","lat":51.46078,"lon":-0.16788,"name":"Northcote Road","parentId":"490G00005334","stationId":"490G00005334","stopLetter":"X","topMostParentId":"490G00005334","towards":"Battersea, Wandsworth Or Vauxhall"},{"icsId":"1005333","id":"490005333V","lat":51.46175,"lon":-0.16766,"name":"Clapham Junction / the Northcote","parentId":"490G00005333","stationId":"490G00005333","stopLetter":"V","topMostParentId":"HUBCLJ","towards":"Battersea, Vauxhall Or Wandsworth"},{"icsId":"1005332","id":"490005332P","lat":51.46321,"lon":-0.16784,"name":"Clapham Junction Stn  / the Falcon","parentId":"490G000462","stationId":"490G000462","stopLetter":"P","topMostParentId":"HUBCLJ","towards":"Shaftesbury Estate Or Vauxhall"},{"icsId":"1009007","id":"490009008K","lat":51.46421,"lon":-0.16459,"name":"Lavender Hill Police Station","parentId":"490G00009007","stationId":"490G00009007","stopLetter":"K","topMostParentId":"490G00009007","towards":"Clapham Common Or Vauxhall"},{"icsId":"1010524","id":"490010524E","lat":51.46465,"lon":-0.16141,"name":"Battersea Arts Centre","parentId":"490G00010524","stationId":"490G00010524","stopLetter":"A","topMostParentId":"490G00010524","towards":"Clapham Common Or Vauxhall"},{"icsId":"1013681","id":"490013681E","lat":51.46552,"lon":-0.1564,"name":"Tipthorpe Road","parentId":"490G00013681","stationId":"490G00013681","stopLetter":"B","topMostParentId":"490G00013681","towards":"Clapham Common Or Vauxhall"},{"icsId":"1011360","id":"490011360N","lat":51.4663,"lon":-0.15139,"name":"Cedars Road","parentId":"490G00011360","stationId":"490G00011360","stopLetter":"G","topMostParentId":"490G00011360","towards":"Vauxhall"},{"icsId":"1014058","id":"490014058N","lat":51.46666,"lon":-0.14867,"name":"The Chase","parentId":"490G00014058","stationId":"490G00014058","stopLetter":"H","topMostParentId":"490G00014058","towards":"Vauxhall"},{"icsId":"1012162","id":"490012162E","lat":51.46789,"lon":-0.14505,"name":"Silverthorne Road","parentId":"490G00012162","stationId":"490G00012162","stopLetter":"J","topMostParentId":"490G00012162","towards":"Vauxhall"},{"icsId":"1012940","id":"490012940N","lat":51.46919,"lon":-0.14196,"name":"St Rule Street","parentId":"490G00012940","stationId":"490G00012940","stopLetter":"K","topMostParentId":"490G00012940","towards":"Vauxhall"},{"icsId":"1001310","id":"490001310A","lat":51.46986,"lon":-0.14033,"name":"Wandsworth Road Station","stopLetter":"L","topMostParentId":"490001310A","towards":"Vauxhall"},{"icsId":"1013908","id":"490013908N","lat":51.47191,"lon":-0.13589,"name":"Union Road","parentId":"490G00013908","stationId":"490G00013908","stopLetter":"M","topMostParentId":"490G00013908","towards":"Vauxhall"},{"icsId":"1008978","id":"490008978N1","lat":51.4748,"lon":-0.13221,"name":"Larkhall Park","parentId":"490G00008978","stationId":"490G00008978","stopLetter":"G","topMostParentId":"490G00008978","towards":"Clapham North Or Vauxhall"},{"icsId":"1008969","id":"490008969N","lat":51.47599,"lon":-0.13087,"name":"Lansdowne Green","parentId":"490G00008969","stationId":"490G00008969","stopLetter":"H","topMostParentId":"490G00008969","towards":"Elephant & Castle, Parliament Square Or Waterloo"},{"icsId":"1002196","id":"490014679N","lat":51.47947,"lon":-0.1287,"name":"Nine Elms Station","stopLetter":"J","topMostParentId":"490014679N","towards":"Elephant & Castle, Parliament Square Or Waterloo"},{"icsId":"1005678","id":"490005678N","lat":51.48234,"lon":-0.12751,"name":"Covent Garden Market East Side","parentId":"490G00005678","stationId":"490G00005678","stopLetter":"K","topMostParentId":"490G00005678","towards":"Elephant & Castle, Parliament Square Or Waterloo"},{"icsId":"1020252","id":"490000247J","lat":51.48473,"lon":-0.12479,"name":"Vauxhall Bus Station","stopLetter":"J","topMostParentId":"490000247J"},{"icsId":"1014020","id":"490014020P","lat":51.48786,"lon":-0.12338,"name":"Vauxhall Cross","parentId":"490G00014020","stationId":"490G00014020","stopLetter":"P","topMostParentId":"490G00014020","towards":"Elephant & Castle Or Waterloo"},{"icsId":"1011192","id":"490011192N","lat":51.49043,"lon":-0.12274,"name":"Tinworth Street","parentId":"490G00011192","stationId":"490G00011192","stopLetter":"SL","topMostParentId":"490G00011192","towards":"Elephant & Castle Or Waterloo"},{"icsId":"1011858","id":"490011858N","lat":51.49128,"lon":-0.12226,"name":"Salamanca Street","parentId":"490G00011858","stationId":"490G00011858","stopLetter":"SM","topMostParentId":"490G00011858","towards":"Elephant & Castle Or Waterloo"},{"icsId":"1008916","id":"490008916E","lat":51.49354,"lon":-0.12146,"name":"Lambeth Bridge","parentId":"490G00008916","stationId":"490G00008916","stopLetter":"SN","topMostParentId":"490G00008916","towards":"Southwark Bridge Or Waterloo"},{"icsId":"1008917","id":"490008917N","lat":51.49514,"lon":-0.12092,"name":"Lambeth Palace","parentId":"490G00008917","stationId":"490G00008917","stopLetter":"SP","topMostParentId":"490G00008917","towards":"Waterloo Or Elephant & Castle"},{"icsId":"1000401","id":"490012954Z","lat":51.49806,"lon":-0.11818,"name":"St Thomas' Hospital / Evelina London","parentId":"490G000051","stationId":"490G000051","stopLetter":"->N","topMostParentId":"490G000051","towards":"Waterloo"},{"icsId":"1000400","id":"490012954C","lat":51.49945,"lon":-0.11706,"name":"St Thomas' Hospital / A & E Department","parentId":"490G000050","stationId":"490G000050","stopLetter":"C","topMostParentId":"490G000050","towards":"Waterloo Or Elephant & Castle"},{"icsId":"1003722","id":"490000254C","lat":51.5036,"lon":-0.11217,"name":"Waterloo Station   / Upper Taxi Road","parentId":"490G000404","stationId":"490G000404","stopLetter":"C","topMostParentId":"HUBWAT"}]}]}