{"direction":"inbound","lineId":"89","lineName":"89","mode":"bus","stopPointSequences":[{"stopPoint":[{"icsId":"1019839","id":"490001252A","lat":51.46766,"lon":0.19076,"name":"Forest Road / Slade Green Station","parentId":"490G000955","stationId":"490G000955","stopLetter":"A","topMostParentId":"490G000955","towards":"Bexleyheath Or Erith"},{"icsId":"1007973","id":"490007973N","lat":51.47097,"lon":0.19321,"name":"Hazel Road","parentId":"490G00007973","stationId":"490G00007973","stopLetter":"K","topMostParentId":"490G00007973","towards":"Erith"},{"icsId":"1012191","id":"490012191W","lat":51.47059,"lon":0.19031,"name":"Bridge Road / Slade Green Road","parentId":"490G00012191","stationId":"490G00012191","stopLetter":"H","topMostParentId":"490G00012191","towards":"Bexleyheath"},{"icsId":"1009713","id":"490009713W","lat":51.46859,"lon":0.18612,"name":"Masefield Close","parentId":"490G00009713","stationId":"490G00009713","stopLetter":"->W","topMostParentId":"490G00009713","towards":"Bexleyheath"},{"icsId":"1010356","id":"490010356W","lat":51.46704,"lon":0.18274,"name":"Bridge Road / Northend Road","parentId":"490G00010356","stationId":"490G00010356","stopLetter":"->W","topMostParentId":"490G00010356","towards":"Bexleyheath Or Erith"},{"icsId":"1005516","id":"490005516N","lat":51.46962,"lon":0.18069,"name":"Northend Road / Colyers Lane","parentId":"490G00005516","stationId":"490G00005516","stopLetter":"->N","topMostParentId":"490G00005516","towards":"Bexleyheath Or Erith"},{"icsId":"1004036","id":"490004036W","lat":51.47042,"lon":0.17816,"name":"Myrtle Close","parentId":"490G00004036","stationId":"490G00004036","stopLetter":"->W","topMostParentId":"490G00004036","towards":"Bexleyheath"},{"icsId":"1005518","id":"490005518W","lat":51.47097,"lon":0.17348,"name":"Colyers Walk","parentId":"490G00005518","stationId":"490G00005518","stopLetter":"->W","topMostParentId":"490G00005518","towards":"Bexleyheath"},{"icsId":"1010416","id":"490010416W","lat":51.47157,"lon":0.17011,"name":"Northumberland Way","parentId":"490G00010416","stationId":"490G00010416","stopLetter":"K","topMostParentId":"490G00010416","towards":"Bexleyheath"},{"icsId":"1008440","id":"490008440W","lat":51.4714,"lon":0.16456,"name":"Hurst Road","parentId":"490G00008440","stationId":"490G00008440","stopLetter":"N","topMostParentId":"490G00008440","towards":"Bexleyheath"},{"icsId":"1019145","id":"490004477S","lat":51.47065,"lon":0.16065,"name":"Brook Street","parentId":"490G00019145","stationId":"490G00019145","stopLetter":"L","topMostParentId":"490G00019145","towards":"Bexleyheath"},{"icsId":"1011833","id":"490011833S","lat":51.46762,"lon":0.15814,"name":"Rydal Drive","parentId":"490G00011833","stationId":"490G00011833","stopLetter":"M","topMostParentId":"490G00011833","towards":"Bexley Village Or Welling"},{"icsId":"1001013","id":"490001013B","lat":51.46556,"lon":0.15708,"name":"Barnehurst Station","parentId":"910GBRNHRST","stationId":"910GBRNHRST","stopLetter":"A","topMostParentId":"910GBRNHRST","towards":"Bexley Village Or Welling"},{"icsId":"1009470","id":"490009470S","lat":51.46333,"lon":0.1544,"name":"Lyndhurst Road","parentId":"490G00009470","stationId":"490G00009470","stopLetter":"NU","topMostParentId":"490G00009470","towards":"Bexley Village Or Welling"},{"icsId":"1015358","id":"490015358S","lat":51.4616,"lon":0.1534,"name":"Long Lane","parentId":"490G00015358","stationId":"490G00015358","stopLetter":"NV","topMostParentId":"490G00015358","towards":"Bexley Village Or Welling"},{"icsId":"1003974","id":"490003974S2","lat":51.45962,"lon":0.15295,"name":"Bexleyheath Bus Garage","parentId":"490G00003974","stationId":"490G00003974","stopLetter":"NW","topMostParentId":"490G00003974","towards":"Bexleyheath Stn, Bexley Village Or Welling"},{"icsId":"1013748","id":"490013748W","lat":51.45762,"lon":0.14993,"name":"Tower Road","parentId":"490G00013748","stationId":"490G00013748","stopLetter":"NQ","topMostParentId":"490G00013748","towards":"Bexleyheath Stn, Bexley Village Or Welling"},{"icsId":"1003975","id":"490003975M","lat":51.45648,"lon":0.14643,"name":"Bexleyheath Clock Tower","parentId":"490G00003975","stationId":"490G00003975","stopLetter":"M","topMostParentId":"490G00003975","towards":"Sidcup, Welling Or Bexleyheath Station"},{"icsId":"1003973","id":"490003973A","lat":51.45723,"lon":0.13998,"name":"Trinity Place","parentId":"490G00003973","stationId":"490G00003973","stopLetter":"A","topMostParentId":"490G00003973","towards":"Sidcup, Welling Or Bexleyheath Station"},{"icsId":"1009203","id":"490009203C","lat":51.45791,"lon":0.13523,"name":"Bexleyheath / Lion Road","parentId":"490G00009203","stationId":"490G00009203","stopLetter":"BM","topMostParentId":"490G00009203","towards":"Bexleyheath Station Or Welling"},{"icsId":"1013960","id":"490013960W","lat":51.45839,"lon":0.13194,"name":"Upton Road","parentId":"490G00013960","stationId":"490G00013960","stopLetter":"BN","topMostParentId":"490G00013960","towards":"Sidcup, Welling Or Bexleyheath Station"},{"icsId":"1005805","id":"490005805W","lat":51.45898,"lon":0.1283,"name":"Crook Log / Dallin Road","parentId":"490G00005805","stationId":"490G00005805","stopLetter":"BQ","topMostParentId":"490G00005805","towards":"Sidcup Or Welling"},{"icsId":"1019789","id":"490016645W","lat":51.4598,"lon":0.12315,"name":"Park View Road / Crook Log","parentId":"490G00019789","stationId":"490G00019789","stopLetter":"BT","topMostParentId":"490G00019789","towards":"Shooters Hill, Falconwood Or Plumstead"},{"icsId":"1003948","id":"490003948W","lat":51.46036,"lon":0.12013,"name":"Bethel Road","parentId":"490G00003948","stationId":"490G00003948","stopLetter":"BU","topMostParentId":"490G00003948","towards":"Falconwood, Plumstead Or Shooters Hill"},{"icsId":"1007611","id":"490007611W","lat":51.4608,"lon":0.11688,"name":"Guy, Earl of Warwick","parentId":"490G00007611","stationId":"490G00007611","stopLetter":"BV","topMostParentId":"490G00007611","towards":"Falconwood, Plumstead Or Shooters Hill"},{"icsId":"1014353","id":"490014353R","lat":51.46224,"lon":0.10894,"name":"Welling High Street / Upper Wickham Lane","parentId":"490G00014353","stationId":"490G00014353","stopLetter":"R","topMostParentId":"490G00014353","towards":"Falconwood, Plumstead Or Shooters Hill"},{"icsId":"1014351","id":"490014351P","lat":51.46257,"lon":0.10667,"name":"Bellegrove Road / Churchfield Road","parentId":"490G00014351","stationId":"490G00014351","stopLetter":"P","topMostParentId":"490G00014351","towards":"Falconwood, Plumstead Common Or Shooters Hill"},{"icsId":"1011803","id":"490011803G","lat":51.46313,"lon":0.10312,"name":"Ruskin Drive","parentId":"490G00011803","stationId":"490G00011803","stopLetter":"G","topMostParentId":"490G00011803","towards":"Plumstead Common, Falconwood Or Shooters Hill"},{"icsId":"1011802","id":"490011802D","lat":51.46352,"lon":0.10067,"name":"Ruskin Avenue / Welling Station","parentId":"490G000733","stationId":"490G000733","stopLetter":"D","topMostParentId":"490G000733","towards":"Falconwood, Queen Elizabeth Hospital Or Lewisham"},{"icsId":"1014364","id":"490014364F","lat":51.46462,"lon":0.09363,"name":"Bellegrove Road / Welling Way","parentId":"490G00014364","stationId":"490G00014364","stopLetter":"F","topMostParentId":"490G00014364","towards":"Blackheath Or Queen Elizabeth Hospital"},{"icsId":"1012086","id":"490012086W","lat":51.46543,"lon":0.08889,"name":"Bellegrove Road / Sherwood Road","parentId":"490G00012086","stationId":"490G00012086","stopLetter":"X","topMostParentId":"490G00012086","towards":"Blackheath Or Queen Elizabeth Hospital"},{"icsId":"1014349","id":"490014349W","lat":51.46611,"lon":0.08493,"name":"Eastcote Road","parentId":"490G00014349","stationId":"490G00014349","stopLetter":"SJ","topMostParentId":"490G00014349","towards":"Blackheath Or Queen Elizabeth Hospital"},{"icsId":"1010701","id":"490010701W","lat":51.46716,"lon":0.07911,"name":"Oxleas Wood / Woodlands Farm","parentId":"490G00010701","stationId":"490G00010701","stopLetter":"SK","topMostParentId":"490G00010701","towards":"Blackheath Or Queen Elizabeth Hospital"},{"icsId":"1006288","id":"490006288W","lat":51.46872,"lon":0.06903,"name":"Eaglesfield Road","parentId":"490G00006288","stationId":"490G00006288","stopLetter":"SL","topMostParentId":"490G00006288","towards":"Blackheath Or Queen Elizabeth Hospital"},{"icsId":"1009805","id":"490009803W","lat":51.46943,"lon":0.06464,"name":"Memorial Hospital","parentId":"490G00009805","stationId":"490G00009805","stopLetter":"SM","topMostParentId":"490G00009805","towards":"Blackheath Or Queen Elizabeth Hospital"},{"icsId":"1011486","id":"490011486W","lat":51.47036,"lon":0.05935,"name":"Red Lion Lane","parentId":"490G00011486","stationId":"490G00011486","stopLetter":"SN","topMostParentId":"490G00011486","towards":"Blackheath Or Queen Elizabeth Hospital"},{"icsId":"1012108","id":"490012108W","lat":51.47127,"lon":0.05378,"name":"Shooters Hill Road / Well Hall Road","parentId":"490G00012108","stationId":"490G00012108","stopLetter":"SP","topMostParentId":"490G00012108","towards":"Blackheath Or Queen Elizabeth Hospital"},{"icsId":"1004460","id":"490004460W","lat":51.47259,"lon":0.04716,"name":"Shooters Hill Road / Baker Road","parentId":"490G00004460","stationId":"490G00004460","stopLetter":"SQ","topMostParentId":"490G00004460","towards":"Blackheath Or Kidbrooke"},{"icsId":"1010733","id":"490010733W","lat":51.47341,"lon":0.0429,"name":"Pallet Way","parentId":"490G00010733","stationId":"490G00010733","stopLetter":"ST","topMostParentId":"490G00010733","towards":"Blackheath Or Kidbrooke"},{"icsId":"1005011","id":"490005011W","lat":51.47419,"lon":0.03795,"name":"Charlton Park Lane","parentId":"490G00005011","stationId":"490G00005011","stopLetter":"->W","topMostParentId":"490G00005011","towards":"Blackheath Or Kidbrooke"},{"icsId":"1008478","id":"490008478W","lat":51.47479,"lon":0.03398,"name":"Weyman Road","parentId":"490G00008478","stationId":"490G00008478","stopLetter":"A","topMostParentId":"490G00008478","towards":"Greenwich, Kidbrooke Or Lewisham"},{"icsId":"1010537","id":"490010537W","lat":51.47516,"lon":0.0314,"name":"Hervey Road","parentId":"490G00010537","stationId":"490G00010537","stopLetter":"B","topMostParentId":"490G00010537","towards":"Greenwich, Kidbrooke Or Lewisham"},{"icsId":"1015437","id":"490015427W","lat":51.47532,"lon":0.02872,"name":"Old Dover Road","parentId":"490G00015437","stationId":"490G00015437","stopLetter":"C","topMostParentId":"490G00015437","towards":"Lewisham"},{"icsId":"1013014","id":"490013014W2","lat":51.47438,"lon":0.0227,"name":"Shooters Hill Road / Kidbrooke Park Road","parentId":"490G00013014","stationId":"490G00013014","stopLetter":"D","topMostParentId":"490G00013014","towards":"Lewisham Or Greenwich"},{"icsId":"1008707","id":"490008705W","lat":51.47403,"lon":0.02025,"name":"Kidbrooke Grove","parentId":"490G00008707","stationId":"490G00008707","stopLetter":"E","topMostParentId":"490G00008707","towards":"Greenwich Or Lewisham"},{"icsId":"1012711","id":"490012711S","lat":51.47283,"lon":0.0147,"name":"St Germans Place","parentId":"490G00012711","stationId":"490G00012711","stopLetter":"F","topMostParentId":"490G00012711","towards":"Lewisham"},{"icsId":"1010003","id":"490010003L","lat":51.46995,"lon":0.01091,"name":"Montpelier Row","parentId":"490G00010003","stationId":"490G00010003","stopLetter":"L","topMostParentId":"490G00010003","towards":"Lewisham"},{"icsId":"1001029","id":"490001029E","lat":51.46546,"lon":0.00925,"name":"Blackheath Station","stopLetter":"E","topMostParentId":"490001029E","towards":"Lee Green Or Lewisham"},{"icsId":"1004066","id":"490004066A","lat":51.46373,"lon":0.00633,"name":"Blackheath Hospital","parentId":"490G00004066","stationId":"490G00004066","stopLetter":"A","topMostParentId":"490G00004066","towards":"Lewisham"},{"icsId":"1012772","id":"490012772W","lat":51.46312,"lon":0.00094,"name":"St Margaret's Church / Brandram Road","parentId":"490G00012772","stationId":"490G00012772","stopLetter":"C","topMostParentId":"490G00012772","towards":"Catford"},{"icsId":"1013561","id":"490013561W","lat":51.46266,"lon":-0.00352,"name":"The Squirrels","parentId":"490G00013561","stationId":"490G00013561","stopLetter":"E","topMostParentId":"490G00013561","towards":"Catford"},{"icsId":"1009239","id":"490009239L","lat":51.46285,"lon":-0.00803,"name":"Lockmead Road","parentId":"490G00009239","stationId":"490G00009239","stopLetter":"L","topMostParentId":"490G00009239","towards":"Catford"},{"icsId":"1009106","id":"490011522E","lat":51.46253,"lon":-0.01012,"name":"Lewisham Police Station","parentId":"490G00009106","stationId":"490G00009106","stopLetter":"E","topMostParentId":"490G00009106","towards":"Deptford Or New Cross"},{"icsId":"1001177","id":"490001177U","lat":51.4649,"lon":-0.01305,"name":"Lewisham Station","stopLetter":"AP","topMostParentId":"490001177U","zone":"2+3"}]}]}