{"direction":"inbound","lineId":"93","lineName":"93","mode":"bus","stopPointSequences":[{"stopPoint":[{"icsId":"1000184","id":"490000184Z","lat":51.46792,"lon":-0.20931,"name":"Putney Bridge Station","stopLetter":"FC","topMostParentId":"490000184Z","zone":"2"},{"icsId":"1007281","id":"490015157T","lat":51.46781,"lon":-0.21179,"name":"Putney Bridge","parentId":"490G000536","stationId":"490G000536","stopLetter":"FE","topMostParentId":"490G000536","towards":"Roehampton, Putney Heath Or Barnes"},{"icsId":"1011278","id":"490011278R","lat":51.46533,"lon":-0.21432,"name":"St Mary's Church / Putney Pier","parentId":"490G00011278","stationId":"490G00011278","stopLetter":"R","topMostParentId":"490G00011278","towards":"Roehampton, Wandsworth Or Wimbledon"},{"icsId":"1011289","id":"490011286L","lat":51.46272,"lon":-0.21612,"name":"Putney Exchange","parentId":"490G00011289","stationId":"490G00011289","stopLetter":"L","topMostParentId":"490G00011289","towards":"Roehampton, Southfields Or Wimbledon"},{"icsId":"1001231","id":"490001231E","lat":51.46115,"lon":-0.21691,"name":"Putney Station","stopLetter":"E","topMostParentId":"490001231E","towards":"Roehampton Or Wimbledon"},{"icsId":"1009494","id":"490009494S","lat":51.45598,"lon":-0.21919,"name":"Lytton Grove","parentId":"490G00009494","stationId":"490G00009494","stopLetter":"P","topMostParentId":"490G00009494","towards":"Southfields, Roehampton Or Wimbledon"},{"icsId":"1011299","id":"490011285R","lat":51.4517,"lon":-0.2215,"name":"Putney Hill / Green Man","parentId":"490G00011299","stationId":"490G00011299","stopLetter":"R","topMostParentId":"490G00011299","towards":"Southfields, Wandsworth Or Wimbledon"},{"icsId":"1013662","id":"490013662S1","lat":51.44611,"lon":-0.22228,"name":"Tibbet's Corner","parentId":"490G00013662","stationId":"490G00013662","stopLetter":"PD","topMostParentId":"490G00013662","towards":"Wimbledon"},{"icsId":"1008489","id":"490008489S","lat":51.44459,"lon":-0.22274,"name":"Inner Park Road","parentId":"490G00008489","stationId":"490G00008489","stopLetter":"PE","topMostParentId":"490G00008489","towards":"Wimbledon"},{"icsId":"1003146","id":"490003146S","lat":51.44212,"lon":-0.22347,"name":"Albemarle","parentId":"490G00003146","stationId":"490G00003146","stopLetter":"PF","topMostParentId":"490G00003146","towards":"Wimbledon"},{"icsId":"1011341","id":"490011341S","lat":51.4392,"lon":-0.22429,"name":"Queensmere Road","parentId":"490G00011341","stationId":"490G00011341","stopLetter":"->S","topMostParentId":"490G00011341","towards":"Wimbledon"},{"icsId":"1010835","id":"490010835S","lat":51.43608,"lon":-0.22442,"name":"Parkside Hospital","parentId":"490G00010835","stationId":"490G00010835","stopLetter":"->S","topMostParentId":"490G00010835","towards":"South Wimbledon"},{"icsId":"1004682","id":"490004682S","lat":51.43247,"lon":-0.22413,"name":"Calonne Road","parentId":"490G00004682","stationId":"490G00004682","stopLetter":"A","topMostParentId":"490G00004682","towards":"South Wimbledon"},{"icsId":"1010827","id":"490010827S","lat":51.42846,"lon":-0.22361,"name":"Parkside Avenue","parentId":"490G00010827","stationId":"490G00010827","stopLetter":"B","topMostParentId":"490G00010827","towards":"South Wimbledon"},{"icsId":"1014745","id":"490014745E","lat":51.4262,"lon":-0.222,"name":"Wimbledon War Memorial","parentId":"490G00014745","stationId":"490G00014745","stopLetter":"C","topMostParentId":"490G00014745","towards":"South Wimbledon"},{"icsId":"1014743","id":"490014743E","lat":51.42553,"lon":-0.21948,"name":"Marryat Road","parentId":"490G00014743","stationId":"490G00014743","stopLetter":"D","topMostParentId":"490G00014743","towards":"South Wimbledon"},{"icsId":"1008184","id":"490008184E","lat":51.42471,"lon":-0.21635,"name":"High Street / Wimbledon Village","parentId":"490G00008184","stationId":"490G00008184","stopLetter":"E","topMostParentId":"490G00008184","towards":"Tooting Or South Wimbledon"},{"icsId":"1014734","id":"490014734S","lat":51.42242,"lon":-0.2088,"name":"Wimbledon Hill Road","parentId":"490G00014734","stationId":"490G00014734","stopLetter":"S","topMostParentId":"HUBWIM","towards":"South Wimbledon, Colliers Wood Or Tooting"},{"icsId":"1000272","id":"490015472D","lat":51.42066,"lon":-0.20543,"name":"Wimbledon Station","stopLetter":"D","topMostParentId":"490015472D","towards":"Colliers Wood, Morden Or Wimbledon Chase","zone":"3"},{"icsId":"1014742","id":"490014742X","lat":51.4192,"lon":-0.19978,"name":"Wimbledon Theatre","parentId":"490G00014742","stationId":"490G00014742","stopLetter":"X","topMostParentId":"490G00014742","towards":"Morden Or Colliers Wood"},{"icsId":"1013807","id":"490013807E","lat":51.41942,"lon":-0.19588,"name":"The Polka Theatre","parentId":"490G00013807","stationId":"490G00013807","stopLetter":"SU","topMostParentId":"490G00013807","towards":"Colliers Wood Or Morden"},{"icsId":"1009835","id":"490009835J","lat":51.41746,"lon":-0.19251,"name":"Merton Road","parentId":"490G00009835","stationId":"490G00009835","stopLetter":"SV","topMostParentId":"490G00009835","towards":"Colliers Wood Or Morden"},{"icsId":"1015174","id":"490015174B","lat":51.41462,"lon":-0.19255,"name":"Morden Road / South Wimbledon Station","parentId":"490G000867","stationId":"490G000867","stopLetter":"SJ","topMostParentId":"490G000867","towards":"Morden"},{"icsId":"1002060","id":"490008586C","lat":51.41081,"lon":-0.19237,"name":"Morden Road Tram Stop","stopLetter":"SK","topMostParentId":"490008586C","towards":"North Cheam Or St Helier"},{"icsId":"1006133","id":"490006133B","lat":51.40675,"lon":-0.19198,"name":"Dorset Road","parentId":"490G000486","stationId":"490G000486","stopLetter":"B","topMostParentId":"490G000486","towards":"North Cheam Or St Helier"},{"icsId":"1010020","id":"490010020D","lat":51.40381,"lon":-0.19148,"name":"Kenley Road","parentId":"490G00010020","stationId":"490G00010020","stopLetter":"D","topMostParentId":"490G00010020","towards":"North Cheam Or St Helier"},{"icsId":"1015390","id":"490015390G","lat":51.40256,"lon":-0.1936,"name":"London Road / Morden Station","parentId":"490G000892","stationId":"490G000892","stopLetter":"G","topMostParentId":"490G000892","towards":"North Cheam"},{"icsId":"1010019","id":"490010019S","lat":51.39884,"lon":-0.19769,"name":"Morden Court","parentId":"490G00010019","stationId":"490G00010019","stopLetter":"K","topMostParentId":"490G00010019","towards":"North Cheam Or Sutton"},{"icsId":"1001197","id":"490001197B","lat":51.39588,"lon":-0.20036,"name":"Morden South Station","stopLetter":"MA","topMostParentId":"490001197B","towards":"North Cheam Or Sutton"},{"icsId":"1004960","id":"490004960S","lat":51.39507,"lon":-0.20183,"name":"Chalgrove Avenue","parentId":"490G00004960","stationId":"490G00004960","stopLetter":"MB","topMostParentId":"490G00004960","towards":"North Cheam Or Sutton"},{"icsId":"1020191","id":"490020191MU","lat":51.39368,"lon":-0.20339,"name":"South Thames College","parentId":"490G00020191","stationId":"490G00020191","stopLetter":"MU","topMostParentId":"490G00020191","towards":"North Cheam Or Sutton"},{"icsId":"1010017","id":"490010017S","lat":51.39153,"lon":-0.20335,"name":"London Road / the George","parentId":"490G00010017","stationId":"490G00010017","stopLetter":"MC","topMostParentId":"490G00010017","towards":"North Cheam Or Sutton"},{"icsId":"1011821","id":"490011821S1","lat":51.3898,"lon":-0.20611,"name":"Rutland Drive","parentId":"490G00011821","stationId":"490G00011821","stopLetter":"MD","topMostParentId":"490G00011821","towards":"North Cheam Or Sutton"},{"icsId":"1013608","id":"490013608S","lat":51.38633,"lon":-0.21065,"name":"Tudor Drive","parentId":"490G00013608","stationId":"490G00013608","stopLetter":"EH","topMostParentId":"490G00013608","towards":"North Cheam Or Sutton"},{"icsId":"1003448","id":"490003448S","lat":51.38401,"lon":-0.2136,"name":"Ash Road","parentId":"490G00003448","stationId":"490G00003448","stopLetter":"SJ","topMostParentId":"490G00003448","towards":"North Cheam Or West Sutton"},{"icsId":"1019848","id":"490007130S","lat":51.38017,"lon":-0.21793,"name":"Stonecot Hill / Garth Road","parentId":"490G00019848","stationId":"490G00019848","stopLetter":"HA","topMostParentId":"490G00019848","towards":"North Cheam Or West Sutton"},{"icsId":"1012580","id":"490012580S","lat":51.37828,"lon":-0.22018,"name":"St Anthony's Hospital","parentId":"490G00012580","stationId":"490G00012580","stopLetter":"HB","topMostParentId":"490G00012580","towards":"Ewell"},{"icsId":"1008948","id":"490008948S1","lat":51.37586,"lon":-0.22261,"name":"Langley Avenue","parentId":"490G00008948","stationId":"490G00008948","stopLetter":"HC","topMostParentId":"490G00008948","towards":"Ewell Or Worcester Park"},{"icsId":"1010325","id":"490010325S","lat":51.37436,"lon":-0.22424,"name":"North Cheam Sports Club","parentId":"490G00010325","stationId":"490G00010325","stopLetter":"HD","topMostParentId":"490G00010325","towards":"Ewell Or Worcester Park"},{"icsId":"1010324","id":"490010324K","lat":51.37267,"lon":-0.22591,"name":"North Cheam / Sainsbury's","parentId":"490G00010324","stationId":"490G00010324","stopLetter":"K","topMostParentId":"490G00010324","towards":"Ewell"},{"icsId":"1010323","id":"490010323D","lat":51.37142,"lon":-0.22737,"name":"North Cheam / Queen Victoria","parentId":"490G00010323","stationId":"490G00010323","stopLetter":"D","topMostParentId":"490G00010323","towards":"Ewell"},{"icsId":"1007945","id":"490007945S","lat":51.36951,"lon":-0.22195,"name":"Hayes Crescent","parentId":"490G00007945","stationId":"490G00007945","stopLetter":"X","topMostParentId":"490G00007945"},{"icsId":"1003048","id":"490003048E","lat":51.36831,"lon":-0.21865,"name":"Priory Road","parentId":"490G00003048","stationId":"490G00003048","stopLetter":"Y","topMostParentId":"490G00003048"}]}]}