{"direction":"inbound","lineId":"95","lineName":"95","mode":"bus","stopPointSequences":[{"stopPoint":[{"icsId":"1000203","id":"490015036K","lat":51.50388,"lon":-0.21999,"name":"Shepherd's Bush Station","stopLetter":"F","topMostParentId":"490015036K","towards":"Hammersmith","zone":"2"},{"icsId":"1012068","id":"490012068S","lat":51.50387,"lon":-0.22424,"name":"Shepherds Bush Green","parentId":"490G000742","stationId":"490G000742","stopLetter":"N","topMostParentId":"490G000742","towards":"Ladbroke Grove, White City Or Queensway"},{"icsId":"1009501","id":"490009501Q","lat":51.50634,"lon":-0.2247,"name":"Uxbridge Rd / Westfield Shopping Centre","parentId":"490G000650","stationId":"490G000650","stopLetter":"S","topMostParentId":"490G000650","towards":"East Acton Or Harlesden"},{"icsId":"1018981","id":"490018981ZW","lat":51.50844,"lon":-0.22472,"name":"Ariel Way / White City Bus Station","parentId":"490G00018981","stationId":"490G00018981","stopLetter":"WD","topMostParentId":"490G00018981","towards":"East Acton Or Harlesden"},{"icsId":"1000269","id":"490000269N","lat":51.512,"lon":-0.22504,"name":"White City Station","stopLetter":"WE","topMostParentId":"490000269N","towards":"East Acton Or Harlesden","zone":"2"},{"icsId":"1012238","id":"490012238N","lat":51.51332,"lon":-0.2256,"name":"Westway","parentId":"490G000748","stationId":"490G000748","stopLetter":"N","topMostParentId":"490G000748","towards":"East Acton Or Harlesden"},{"icsId":"1014578","id":"490014578W","lat":51.51473,"lon":-0.23105,"name":"White City Estate","parentId":"490G00014578","stationId":"490G00014578","stopLetter":"V","topMostParentId":"490G00014578","towards":"Park Royal Or Shepherd's Bush"},{"icsId":"1009005","id":"490009005V","lat":51.51409,"lon":-0.23805,"name":"Phoenix High School","parentId":"490G00009005","stationId":"490G00009005","stopLetter":"W","topMostParentId":"490G00009005","towards":"Hanger Lane"},{"icsId":"1008048","id":"490008048W","lat":51.51423,"lon":-0.24139,"name":"Hemlock Road","parentId":"490G00008048","stationId":"490G00008048","stopLetter":"X","topMostParentId":"490G00008048","towards":"Hanger Lane"},{"icsId":"1011937","id":"490011937X","lat":51.51389,"lon":-0.24738,"name":"Savoy Circus","parentId":"490G00011937","stationId":"490G00011937","stopLetter":"F","topMostParentId":"490G00011937","towards":"Hanger Lane"},{"icsId":"1014446","id":"490014446L","lat":51.51374,"lon":-0.24988,"name":"Western Avenue / Savoy Circus","parentId":"490G00014446","stationId":"490G00014446","stopLetter":"L","topMostParentId":"490G00014446","towards":"Hanger Lane Or Park Royal"},{"icsId":"1010949","id":"490010949W","lat":51.515,"lon":-0.25684,"name":"Perryn Road","parentId":"490G00010949","stationId":"490G00010949","stopLetter":"->W","topMostParentId":"490G00010949","towards":"Hanger Lane Or Park Royal"},{"icsId":"1007188","id":"490015319P","lat":51.52185,"lon":-0.26421,"name":"Gypsy Corner","parentId":"490G00007188","stationId":"490G00007188","stopLetter":"P","topMostParentId":"490G00007188","towards":"Alperton Or Greenford"},{"icsId":"1014388","id":"490014388W","lat":51.52552,"lon":-0.272,"name":"Wendover Court","parentId":"490G00014388","stationId":"490G00014388","stopLetter":"->W","topMostParentId":"490G00014388","towards":"Alperton Or Greenford"},{"icsId":"1003236","id":"490003236W","lat":51.5264,"lon":-0.27719,"name":"Alliance Road","parentId":"490G00003236","stationId":"490G00003236","stopLetter":"Q","topMostParentId":"490G00003236","towards":"Alperton Or Greenford"},{"icsId":"1005537","id":"490005535W","lat":51.5265,"lon":-0.28041,"name":"Kendal Avenue","parentId":"490G00005537","stationId":"490G00005537","stopLetter":"P","topMostParentId":"490G00005537","towards":"Alperton Or Greenford"},{"icsId":"1000176","id":"490000176M","lat":51.52712,"lon":-0.28427,"name":"Park Royal Station","stopLetter":"M","topMostParentId":"490000176M","towards":"Alperton Or Greenford","zone":"3"},{"icsId":"1000099","id":"490015498N","lat":51.52948,"lon":-0.29192,"name":"Hanger Lane Station","stopLetter":"N","topMostParentId":"490015498N","towards":"Alperton Or Greenford","zone":"3"},{"icsId":"1009485","id":"490009485Q","lat":51.53094,"lon":-0.3016,"name":"Lynwood Road","parentId":"490G00009485","stationId":"490G00009485","stopLetter":"Q","topMostParentId":"490G00009485","towards":"Greenford"},{"icsId":"1003265","id":"490003265W","lat":51.53208,"lon":-0.31153,"name":"Alperton Lane","parentId":"490G00003265","stationId":"490G00003265","stopLetter":"PL","topMostParentId":"490G00003265","towards":"Greenford"},{"icsId":"1004926","id":"490004926W","lat":51.53332,"lon":-0.32435,"name":"Central Parade","parentId":"490G00004926","stationId":"490G00004926","stopLetter":"PM","topMostParentId":"490G00004926","towards":"Greenford"},{"icsId":"1003370","id":"490003370W","lat":51.53361,"lon":-0.33129,"name":"Argyle Road","parentId":"490G00003370","stationId":"490G00003370","stopLetter":"PN","topMostParentId":"490G00003370","towards":"Greenford"},{"icsId":"1001259","id":"490010946BB","lat":51.53447,"lon":-0.33842,"name":"South Greenford Station","stopLetter":"BB","topMostParentId":"490010946BB","towards":"Greenford"},{"icsId":"1019867","id":"490009855W","lat":51.53577,"lon":-0.3454,"name":"Greenford Road Roundabout","parentId":"490G00019867","stationId":"490G00019867","stopLetter":"CC","topMostParentId":"490G00019867","towards":"Greenford"},{"icsId":"1005687","id":"490005687DD","lat":51.53453,"lon":-0.3472,"name":"Cowgate Road","parentId":"490G00005687","stationId":"490G00005687","stopLetter":"DD","topMostParentId":"490G00005687","towards":"Ealing Hospital, Hayes Or Southall"},{"icsId":"1005626","id":"490005626S","lat":51.53092,"lon":-0.3503,"name":"Costons Lane","parentId":"490G00005626","stationId":"490G00005626","stopLetter":"C","topMostParentId":"490G00005626","towards":"Ealing Hospital, Hayes Or Southall"},{"icsId":"1007442","id":"490007441G","lat":51.52798,"lon":-0.35175,"name":"Ruislip Road East","parentId":"490G00007442","stationId":"490G00007442","stopLetter":"D","topMostParentId":"490G00007442","towards":"Ealing Hospital, Hayes Or Southall"},{"icsId":"1007450","id":"490007446A","lat":51.52808,"lon":-0.3547,"name":"Oldfield Lane South","parentId":"490G00007450","stationId":"490G00007450","stopLetter":"P","topMostParentId":"490G00007450","towards":"Southall Or Northolt"},{"icsId":"1010897","id":"490010897E2","lat":51.5287,"lon":-0.35983,"name":"Pembroke Road","parentId":"490G00010897","stationId":"490G00010897","stopLetter":"R","topMostParentId":"490G00010897","towards":"Hayes, Southall Or Yeading"},{"icsId":"1006370","id":"490006370W","lat":51.5308,"lon":-0.36456,"name":"Beechwood Avenue","parentId":"490G00006370","stationId":"490G00006370","stopLetter":"EL","topMostParentId":"490G00006370","towards":"Hayes, Southall Or Yeading"},{"icsId":"1011786","id":"490011786S","lat":51.53127,"lon":-0.36644,"name":"Ruislip Road","parentId":"490G00011786","stationId":"490G00011786","stopLetter":"EW","topMostParentId":"490G00011786","towards":"Southall"},{"icsId":"1003518","id":"490003518S","lat":51.5282,"lon":-0.36737,"name":"Avon Road","parentId":"490G00003518","stationId":"490G00003518","stopLetter":"L","topMostParentId":"490G00003518","towards":"Southall"},{"icsId":"1003435","id":"490003435W","lat":51.52423,"lon":-0.3652,"name":"Ash Grove","parentId":"490G00003435","stationId":"490G00003435","stopLetter":"N","topMostParentId":"490G00003435","towards":"Southall"},{"icsId":"1011824","id":"490011824W","lat":51.52225,"lon":-0.37057,"name":"Rutland Road","parentId":"490G00011824","stationId":"490G00011824","stopLetter":"P","topMostParentId":"490G00011824","towards":"Southall"},{"icsId":"1012227","id":"490012227S","lat":51.52073,"lon":-0.37486,"name":"Somerset Road","parentId":"490G00012227","stationId":"490G00012227","stopLetter":"F","topMostParentId":"490G00012227","towards":"Heston"},{"icsId":"1013442","id":"490013442S","lat":51.51894,"lon":-0.37514,"name":"Denbigh Road","parentId":"490G00013442","stationId":"490G00013442","stopLetter":"G","topMostParentId":"490G00013442","towards":"Heston Or Havelock Estate"},{"icsId":"1004807","id":"490004807S","lat":51.51636,"lon":-0.37547,"name":"Carlyle Avenue","parentId":"490G00004807","stationId":"490G00004807","stopLetter":"SD","topMostParentId":"490G00004807","towards":"Heston Or Havelock Estate"},{"icsId":"1010317","id":"490010317D","lat":51.51419,"lon":-0.37546,"name":"North Avenue","parentId":"490G00010317","stationId":"490G00010317","stopLetter":"D","topMostParentId":"490G00010317","towards":"Cranford, Heston Or Havelock Estate"},{"icsId":"1003276","id":"490003276F","lat":51.51204,"lon":-0.37548,"name":"High Street / Southall Town Hall","parentId":"490G00003276","stationId":"490G00003276","stopLetter":"F","topMostParentId":"490G00003276","towards":"Cranford, Heston Or Havelock Estate"},{"icsId":"1014102","id":"490012245K","lat":51.51076,"lon":-0.37527,"name":"Southall Town Hall","parentId":"490G00014102","stationId":"490G00014102","stopLetter":"AP","topMostParentId":"490G00014102"}]}]}