{"direction":"inbound","lineId":"96","lineName":"96","mode":"bus","stopPointSequences":[{"stopPoint":[{"icsId":"1013616","id":"490013616T","lat":51.4907,"lon":0.06629,"name":"Thomas Street / Greens End","parentId":"490G000798","stationId":"490G000798","stopLetter":"T","topMostParentId":"490G000798","towards":"Plumstead"},{"icsId":"1001344","id":"490001344N1","lat":51.4898,"lon":0.06811,"name":"Woolwich Arsenal Station","stopLetter":"N","topMostParentId":"490001344N1","towards":"Plumstead"},{"icsId":"1002162","id":"490014934E","lat":51.4914,"lon":0.07138,"name":"Woolwich","parentId":"910GWOLWXR","stationId":"910GWOLWXR","stopLetter":"K","topMostParentId":"910GWOLWXR","towards":"Plumstead"},{"icsId":"1009723","id":"490009723E","lat":51.49117,"lon":0.07723,"name":"Maxey Road","parentId":"490G00009723","stationId":"490G00009723","stopLetter":"->E","topMostParentId":"490G00009723","towards":"Abbey Wood, Bexleyheath Or Thamesmead"},{"icsId":"1011069","id":"490011069A","lat":51.49104,"lon":0.08116,"name":"Plumstead Bus Garage","parentId":"490G00011069","stationId":"490G00011069","stopLetter":"A","topMostParentId":"490G00011069","towards":"Bexleyheath, Abbey Wood Or Thamesmead"},{"icsId":"1019872","id":"490001227L","lat":51.48978,"lon":0.08567,"name":"Plumstead High Street / Plumstead Stn","parentId":"490G000960","stationId":"490G000960","stopLetter":"B","topMostParentId":"490G000960","towards":"Bexleyheath Or Erith"},{"icsId":"1008908","id":"490008908P","lat":51.48805,"lon":0.09026,"name":"Lakedale Road","parentId":"490G00008908","stationId":"490G00008908","stopLetter":"D","topMostParentId":"490G00008908","towards":"Abbey Wood, Bexleyhth Or Erith"},{"icsId":"1011077","id":"490011077E2","lat":51.48699,"lon":0.09483,"name":"Plumstead High Street / Police Station","parentId":"490G00011077","stationId":"490G00011077","stopLetter":"E","topMostParentId":"490G00011077","towards":"Bexleyheath Or Erith"},{"icsId":"1011276","id":"490011276E1","lat":51.48625,"lon":0.09804,"name":"Purrett Road","parentId":"490G00011276","stationId":"490G00011276","stopLetter":"G","topMostParentId":"490G00011276","towards":"Bexleyheath Or Erith"},{"icsId":"1011076","id":"490011075E2","lat":51.48582,"lon":0.10039,"name":"Plumstead Corner / Church Manorway","parentId":"490G00011076","stationId":"490G00011076","stopLetter":"J","topMostParentId":"490G00011076","towards":"Bexleyheath Or Erith"},{"icsId":"1011819","id":"490011819S","lat":51.48201,"lon":0.10203,"name":"Rutherglen Road","parentId":"490G00011819","stationId":"490G00011819","stopLetter":"N","topMostParentId":"490G00011819","towards":"Bexleyheath"},{"icsId":"1008782","id":"490008782S","lat":51.47937,"lon":0.10366,"name":"King's Highway","parentId":"490G00008782","stationId":"490G00008782","stopLetter":"J","topMostParentId":"490G00008782","towards":"Bexleyheath"},{"icsId":"1009212","id":"490009212S","lat":51.47796,"lon":0.10601,"name":"Littledale","parentId":"490G00009212","stationId":"490G00009212","stopLetter":"K","topMostParentId":"490G00009212","towards":"Bexleyheath"},{"icsId":"1004917","id":"490004917S","lat":51.4761,"lon":0.10836,"name":"Cemetery Road","parentId":"490G00004917","stationId":"490G00004917","stopLetter":"L","topMostParentId":"490G00004917","towards":"Bexleyheath"},{"icsId":"1011070","id":"490011070S","lat":51.47367,"lon":0.11118,"name":"Plumstead Cemetery","parentId":"490G00011070","stationId":"490G00011070","stopLetter":"M","topMostParentId":"490G00011070","towards":"Bexleyheath"},{"icsId":"1014654","id":"490014654S","lat":51.47071,"lon":0.1106,"name":"Upper Wickham Lane / Wickham Street","parentId":"490G00014654","stationId":"490G00014654","stopLetter":"N","topMostParentId":"490G00014654","towards":"Bexleyheath"},{"icsId":"1009398","id":"490009398S","lat":51.46849,"lon":0.11077,"name":"Lovel Avenue","parentId":"490G00009398","stationId":"490G00009398","stopLetter":"P","topMostParentId":"490G00009398","towards":"Bexleyheath"},{"icsId":"1012224","id":"490012224S","lat":51.46674,"lon":0.11046,"name":"Somerhill Road","parentId":"490G00012224","stationId":"490G00012224","stopLetter":"R","topMostParentId":"490G00012224","towards":"Bexleyheath"},{"icsId":"1004601","id":"490004601S","lat":51.46484,"lon":0.10928,"name":"Upper Wickham Lane / Burnell Avenue","parentId":"490G00004601","stationId":"490G00004601","stopLetter":"K","topMostParentId":"490G00004601","towards":"Bexleyheath"},{"icsId":"1014352","id":"490014352N","lat":51.46344,"lon":0.10835,"name":"Upper Wickham Lane / Coton Road","parentId":"490G00014352","stationId":"490G00014352","stopLetter":"N","topMostParentId":"490G00014352","towards":"Bexleyheath"},{"icsId":"1014353","id":"490014353S","lat":51.46242,"lon":0.10859,"name":"Welling High Street","parentId":"490G00014353","stationId":"490G00014353","stopLetter":"S","topMostParentId":"490G00014353","towards":"Bexleyheath"},{"icsId":"1007611","id":"490007611E","lat":51.46137,"lon":0.1154,"name":"Guy, Earl of Warwick","parentId":"490G00007611","stationId":"490G00007611","stopLetter":"BA","topMostParentId":"490G00007611","towards":"Bexleyheath"},{"icsId":"1003948","id":"490003948E","lat":51.46029,"lon":0.12125,"name":"Bethel Road","parentId":"490G00003948","stationId":"490G00003948","stopLetter":"BB","topMostParentId":"490G00003948","towards":"Bexleyheath"},{"icsId":"1019788","id":"490016645E","lat":51.45959,"lon":0.1249,"name":"Crook Log Leisure Centre","parentId":"490G00019788","stationId":"490G00019788","stopLetter":"BC","topMostParentId":"490G00019788","towards":"Bexleyheath"},{"icsId":"1005805","id":"490005805E","lat":51.4589,"lon":0.12946,"name":"Crook Log / Dallin Road","parentId":"490G00005805","stationId":"490G00005805","stopLetter":"BD","topMostParentId":"490G00005805","towards":"Crayford Or Slade Green"},{"icsId":"1013960","id":"490013960E","lat":51.45838,"lon":0.13259,"name":"Upton Road","parentId":"490G00013960","stationId":"490G00013960","stopLetter":"BK","topMostParentId":"490G00013960","towards":"Bexley, Crayford Or Slade Green"},{"icsId":"1009203","id":"490009203E","lat":51.45771,"lon":0.13734,"name":"Bexleyheath / Lion Road","parentId":"490G00009203","stationId":"490G00009203","stopLetter":"BL","topMostParentId":"490G00009203","towards":"Bexley, Crayford Or Slade Green"},{"icsId":"1003973","id":"490003973B","lat":51.45711,"lon":0.1417,"name":"Trinity Place","parentId":"490G00003973","stationId":"490G00003973","stopLetter":"B","topMostParentId":"490G00003973","towards":"Bexley Village, Crayford Or Slade Green"},{"icsId":"1019056","id":"490003975P","lat":51.45686,"lon":0.14808,"name":"Mayplace Rd West / Bexleyheath Clock Twr","parentId":"490G00019056","stationId":"490G00019056","stopLetter":"P","topMostParentId":"490G00019056","towards":"Crayford"},{"icsId":"1003972","id":"490003972E","lat":51.45578,"lon":0.15072,"name":"Bexleyheath / Highland Road","parentId":"490G00003972","stationId":"490G00003972","stopLetter":"X","topMostParentId":"490G00003972","towards":"Bexley Village"},{"icsId":"1011022","id":"490011016E2","lat":51.45506,"lon":0.15408,"name":"Watling Street / Civic Offices","parentId":"490G00011022","stationId":"490G00011022","stopLetter":"J","topMostParentId":"490G00011022","towards":"Dartford"},{"icsId":"1010773","id":"490010773E2","lat":51.45425,"lon":0.15865,"name":"Park Grove","parentId":"490G00010773","stationId":"490G00010773","stopLetter":"K","topMostParentId":"490G00010773","towards":"Dartford"},{"icsId":"1010587","id":"490010587S","lat":51.45308,"lon":0.16519,"name":"Old Road","parentId":"490G00010587","stationId":"490G00010587","stopLetter":"S","topMostParentId":"490G00010587","towards":"Dartford"},{"icsId":"1004000","id":"490004000E","lat":51.45259,"lon":0.16862,"name":"Bigs Hill Wood","parentId":"490G00004000","stationId":"490G00004000","stopLetter":"T","topMostParentId":"490G00004000","towards":"Dartford"},{"icsId":"1016614","id":"490016614AA","lat":51.45223,"lon":0.17089,"name":"Bourne Road","parentId":"490G00016614","stationId":"490G00016614","stopLetter":"U","topMostParentId":"490G00016614","towards":"Dartford"},{"icsId":"1003980","id":"490003980L","lat":51.4519,"lon":0.17387,"name":"Bexley Lane","parentId":"490G00003980","stationId":"490G00003980","stopLetter":"V","topMostParentId":"490G00003980","towards":"Dartford"},{"icsId":"1005725","id":"490005725D","lat":51.45112,"lon":0.17939,"name":"Crayford Bridge","parentId":"490G00005725","stationId":"490G00005725","stopLetter":"D","topMostParentId":"490G00005725","towards":"Dartford"},{"icsId":"1005728","id":"490005728J","lat":51.45046,"lon":0.18081,"name":"Crayford Town Hall","parentId":"490G00005728","stationId":"490G00005728","stopLetter":"E","topMostParentId":"490G00005728","towards":"Dartford"},{"icsId":"1008004","id":"490008004E","lat":51.44935,"lon":0.18726,"name":"Heath Road","parentId":"490G00008004","stationId":"490G00008004","stopLetter":"F","topMostParentId":"490G00008004","towards":"Dartford"},{"icsId":"1009514","id":"2400A019740A","lat":51.448635,"lon":0.191719,"name":"Maiden Lane","topMostParentId":"2400A019740A","towards":"Dartford"},{"icsId":"1004028","id":"2400A019750A","lat":51.448248,"lon":0.194147,"name":"Bird In Hand","topMostParentId":"2400A019750A","towards":"Dartford"},{"icsId":"1007908","id":"2400A019760A","lat":51.447732,"lon":0.197202,"name":"Havelock Road","topMostParentId":"2400A019760A","towards":"Dartford"},{"icsId":"1014476","id":"2400A019770A","lat":51.446839,"lon":0.202628,"name":"West Hill School","topMostParentId":"2400A019770A","towards":"Bluewater"},{"icsId":"1014474","id":"2400102547","lat":51.446013,"lon":0.207784,"name":"West Hill / Shepherds Lane","topMostParentId":"2400102547","towards":"Bluewater"},{"icsId":"1011228","id":"2400A019780A","lat":51.445549,"lon":0.210496,"name":"Priory Hill","topMostParentId":"2400A019780A","towards":"Bluewater"},{"icsId":"1001082","id":"2400A019900A","lat":51.446734,"lon":0.217735,"name":"Dartford Station","parentId":"240GHMGRDN","stationId":"240GHMGRDN","stopLetter":"C","topMostParentId":"910GDARTFD","towards":"Bluewater"},{"icsId":"1015609","id":"240075089","lat":51.444664,"lon":0.220642,"name":"Hanau Bridge","parentId":"240G75087","stationId":"240G75087","stopLetter":"H","topMostParentId":"240G75087","towards":"428  Darent Valley Hospital & Bluewater Only"},{"icsId":"1005958","id":"2400A019210A","lat":51.435374,"lon":0.25973,"name":"Darent Valley Hospital","topMostParentId":"2400A019210A"},{"icsId":"1004120","id":"2400A070060A","lat":51.437415,"lon":0.276465,"name":"Bluewater Shopping Centre","parentId":"240G070000A","stationId":"240G070000A","stopLetter":"7","topMostParentId":"240G070000A"}]}]}