{"direction":"inbound","lineId":"d3","lineName":"D3","mode":"bus","stopPointSequences":[{"stopPoint":[{"icsId":"1000801","id":"490000801X","lat":51.50989,"lon":0.0051,"name":"Leamouth / Orchard Place","parentId":"490G000153","stationId":"490G000153","stopLetter":"I","topMostParentId":"490G000153","towards":"Canary Wharf"},{"icsId":"1000805","id":"490000805Z","lat":51.50981,"lon":3e-04,"name":"Leamouth Road","parentId":"490G000157","stationId":"490G000157","stopLetter":"BC","topMostParentId":"490G000157","towards":"Canary Wharf"},{"icsId":"1002033","id":"490002033Z","lat":51.50899,"lon":-0.00265,"name":"East India Station","parentId":"940GZZDLEIN","stationId":"940GZZDLEIN","stopLetter":"X","topMostParentId":"940GZZDLEIN","towards":"Canary Wharf","zone":"2/3"},{"icsId":"1000804","id":"490000804Z","lat":51.5078,"lon":-0.0049,"name":"Baffin Way","parentId":"490G000156","stationId":"490G000156","stopLetter":"BD","topMostParentId":"490G000156","towards":"Canary Wharf"},{"icsId":"1004005","id":"490004005S","lat":51.5062,"lon":-0.01048,"name":"Billingsgate Market","parentId":"490G00004005","stationId":"490G00004005","stopLetter":"->S","topMostParentId":"490G00004005","towards":"Crossharbour Or Limehouse"},{"icsId":"1017847","id":"490017847W","lat":51.504118,"lon":-0.014587,"name":"Churchill Place","topMostParentId":"490017847W","towards":"Crossharbour Or Limehouse"},{"icsId":"1016729","id":"490000038J","lat":51.50448,"lon":-0.01879,"name":"Canada Square South / Canary Wharf Stn","parentId":"490G00016729","stationId":"490G00016729","stopLetter":"J","topMostParentId":"490G00016729","towards":"Limehouse"},{"icsId":"1000038","id":"490000038G","lat":51.50472,"lon":-0.02105,"name":"Canary Wharf Station","stopLetter":"G","topMostParentId":"490000038G","towards":"Limehouse","zone":"2"},{"icsId":"1014483","id":"490014483E","lat":51.50546,"lon":-0.02518,"name":"West India Avenue","parentId":"490G000827","stationId":"490G000827","stopLetter":"E","topMostParentId":"490G000827","towards":"Limehouse"},{"icsId":"1014457","id":"490014457B","lat":51.50541,"lon":-0.02682,"name":"Westferry Circus / Canary Wharf Pier","parentId":"490G000825","stationId":"490G000825","stopLetter":"B","topMostParentId":"490G000825","towards":"Poplar Or Limehouse"},{"icsId":"1014459","id":"490014459B","lat":51.50919,"lon":-0.02689,"name":"Westferry Station","parentId":"490G000826","stationId":"490G000826","stopLetter":"WK","topMostParentId":"490G000826","towards":"Aldgate, Mile End Or Wapping"},{"icsId":"1011878","id":"490011878N","lat":51.51009,"lon":-0.02674,"name":"Salter Street","parentId":"490G00011878","stationId":"490G00011878","stopLetter":"WL","topMostParentId":"490G00011878","towards":"Aldgate, Mile End Or Wapping"},{"icsId":"1009159","id":"490014484N","lat":51.51108,"lon":-0.02764,"name":"Limehouse Police Station","parentId":"490G00009159","stationId":"490G00009159","stopLetter":"WM","topMostParentId":"490G00009159","towards":"Aldgate Or Wapping"},{"icsId":"1009160","id":"490009160W","lat":51.51223,"lon":-0.031,"name":"Limehouse Town Hall","parentId":"490G00009160","stationId":"490G00009160","stopLetter":"LH","topMostParentId":"490G00009160","towards":"Aldgate"},{"icsId":"1009403","id":"490009403W","lat":51.51242,"lon":-0.03432,"name":"Lowell Street","parentId":"490G00009403","stationId":"490G00009403","stopLetter":"LJ","topMostParentId":"490G00009403","towards":"Wapping and Aldgate"},{"icsId":"1001180","id":"490001180W","lat":51.51272,"lon":-0.04052,"name":"Limehouse Station","stopLetter":"LK","topMostParentId":"490001180W","towards":"Aldgate Or Wapping","zone":"2"},{"icsId":"1004657","id":"490004657S","lat":51.51136,"lon":-0.04199,"name":"Cable Street","parentId":"490G00004657","stationId":"490G00004657","stopLetter":"LS","topMostParentId":"490G00004657","towards":"Wapping"},{"icsId":"1007010","id":"490007010W","lat":51.51004,"lon":-0.04609,"name":"Free Trade Wharf","parentId":"490G00007010","stationId":"490G00007010","stopLetter":"LT","topMostParentId":"490G00007010","towards":"Wapping"},{"icsId":"1008736","id":"490008736S","lat":51.50897,"lon":-0.05058,"name":"King Edward Memorial Park","parentId":"490G00008736","stationId":"490G00008736","stopLetter":"->S","topMostParentId":"490G00008736","towards":"Whitechapel"},{"icsId":"1011246","id":"490011246W","lat":51.50768,"lon":-0.05085,"name":"Shadwell Basin","parentId":"490G00011246","stationId":"490G00011246","stopLetter":"->S","topMostParentId":"490G00011246","towards":"Whitechapel"},{"icsId":"1014211","id":"490014211S","lat":51.50539,"lon":-0.0543,"name":"Wapping Wall","parentId":"490G00014211","stationId":"490G00014211","stopLetter":"P","topMostParentId":"490G00014211","towards":"Tower Gateway Or Whitechapel"},{"icsId":"1000251","id":"490000251W","lat":51.50457,"lon":-0.05588,"name":"Wapping Station","stopLetter":"R","topMostParentId":"490000251W","towards":"Tower Gateway Or Whitechapel"},{"icsId":"1014209","id":"490014209N","lat":51.50581,"lon":-0.05868,"name":"Wapping Health Centre","parentId":"490G00014209","stationId":"490G00014209","stopLetter":"H","topMostParentId":"490G00014209","towards":"Shadwell Or Whitechapel"},{"icsId":"1013687","id":"490013687K","lat":51.50934,"lon":-0.05886,"name":"Tobacco Dock","parentId":"490G000801","stationId":"490G000801","stopLetter":"K","topMostParentId":"490G000801","towards":"Shadwell Or Whitechapel"},{"icsId":"1000202","id":"490000202A","lat":51.51097,"lon":-0.05554,"name":"Shadwell Station","stopLetter":"A","topMostParentId":"490000202A","towards":"Whitechapel","zone":"2"},{"icsId":"1012020","id":"490012020B","lat":51.51103,"lon":-0.05895,"name":"St George's Town Hall / Shadwell Stn","parentId":"490G000740","stationId":"490G000740","stopLetter":"B","topMostParentId":"490G000740","towards":"Wapping Or Whitechapel"},{"icsId":"1004757","id":"490004757N","lat":51.51159,"lon":-0.06129,"name":"Chapman Street","parentId":"490G000440","stationId":"490G000440","stopLetter":"->N","topMostParentId":"490G000440","towards":"Bethnal Green"},{"icsId":"1005523","id":"490005523N","lat":51.51364,"lon":-0.06188,"name":"Commercial Road","parentId":"490G00005523","stationId":"490G00005523","stopLetter":"A","topMostParentId":"490G00005523","towards":"Bethnal Green"},{"icsId":"1013541","id":"490009278L","lat":51.51674,"lon":-0.06247,"name":"Royal London Hospital","parentId":"490G000793","stationId":"490G000793","stopLetter":"L","topMostParentId":"490G000793","towards":"Bethnal Green"},{"icsId":"1009989","id":"490009989N","lat":51.51999,"lon":-0.06373,"name":"Old Montague Street","parentId":"490G00009989","stationId":"490G00009989","stopLetter":"U","topMostParentId":"490G00009989","towards":"Bethnal Green"},{"icsId":"1006720","id":"490006720N","lat":51.52252,"lon":-0.0644,"name":"Fakruddin Street","parentId":"490G00006720","stationId":"490G00006720","stopLetter":"V","topMostParentId":"490G00006720","towards":"Bethnal Green"},{"icsId":"1014330","id":"490014330SF","lat":51.52497,"lon":-0.06434,"name":"Weavers Fields","parentId":"490G00014330","stationId":"490G00014330","stopLetter":"SF","topMostParentId":"490G00014330","towards":"Bethnal Green"},{"icsId":"1011087","id":"490011087E","lat":51.52665,"lon":-0.06353,"name":"Pollard Row","parentId":"490G00011087","stationId":"490G00011087","stopLetter":"SG","topMostParentId":"490G00011087","towards":"Hackney Or Old Ford"},{"icsId":"1014721","id":"490014721F","lat":51.52703,"lon":-0.06001,"name":"Wilmot Street","parentId":"490G00014721","stationId":"490G00014721","stopLetter":"F","topMostParentId":"490G00014721","towards":"Hackney Or Old Ford"},{"icsId":"1000022","id":"490000022D","lat":51.52746,"lon":-0.05665,"name":"Bethnal Green Station","stopLetter":"D","topMostParentId":"490000022D","towards":"Hackney Or Old Ford","zone":"2"},{"icsId":"1015009","id":"490015009JX","lat":51.52963,"lon":-0.05499,"name":"York Hall","parentId":"490G00015009","stationId":"490G00015009","stopLetter":"JX","topMostParentId":"490G00015009","towards":"Bonner Road"},{"icsId":"1013399","id":"490013399K","lat":51.53014,"lon":-0.05341,"name":"Peel Grove","parentId":"490G00013399","stationId":"490G00013399","stopLetter":"J","topMostParentId":"490G00013399","towards":"Bonner Road"},{"icsId":"1003951","id":"490003951W","lat":51.53162,"lon":-0.05013,"name":"Bonner Road","parentId":"490G00003951","stationId":"490G00003951","stopLetter":"HA","topMostParentId":"490G00003951","towards":"Stepney Green Or Whitechapel"}]}]}