{"direction":"inbound","lineId":"d6","lineName":"D6","mode":"bus","stopPointSequences":[{"stopPoint":[{"icsId":"1008507","id":"490008507N2","lat":51.4945,"lon":-0.01381,"name":"Crossharbour Asda","parentId":"490G00008507","stationId":"490G00008507","stopLetter":"CE","topMostParentId":"490G00008507","towards":"Island Gardens, Canary Wharf Or Poplar"},{"icsId":"1002025","id":"490002025A","lat":51.496,"lon":-0.01428,"name":"Crossharbour Station","stopLetter":"CF","topMostParentId":"490002025A","towards":"Island Gardens, Canary Wharf Or Poplar","zone":"2"},{"icsId":"1007777","id":"490007777N","lat":51.4995,"lon":-0.01356,"name":"Harbour Exchange Square","parentId":"490G00007777","stationId":"490G00007777","stopLetter":"S","topMostParentId":"490G00007777","towards":"Island Gardens, Canary Wharf Or Poplar"},{"icsId":"1008529","id":"490008529E","lat":51.49986,"lon":-0.00976,"name":"Jack Dash House","parentId":"490G00008529","stationId":"490G00008529","stopLetter":"D","topMostParentId":"490G00008529","towards":"Island Gardens Or Poplar"},{"icsId":"1013270","id":"490013270N","lat":51.50212,"lon":-0.0089,"name":"The Blue Bridge","parentId":"490G00013270","stationId":"490G00013270","stopLetter":"E","topMostParentId":"490G00013270","towards":"Limehouse"},{"icsId":"1004321","id":"490004321N","lat":51.50348,"lon":-0.0079,"name":"Coldharbour","parentId":"490G00004321","stationId":"490G00004321","stopLetter":"F","topMostParentId":"490G00004321","towards":"Limehouse"},{"icsId":"1003459","id":"490003459R","lat":51.50677,"lon":-0.00792,"name":"Aspen Way","parentId":"490G00003459","stationId":"490G00003459","stopLetter":"R","topMostParentId":"490G00003459","towards":"Limehouse"},{"icsId":"1011111","id":"490011111W1","lat":51.50921,"lon":-0.01068,"name":"Poplar High Street / Blackwall","parentId":"490G00011111","stationId":"490G00011111","stopLetter":"S","topMostParentId":"490G00011111","towards":"Bow Or Limehouse"},{"icsId":"1003701","id":"490003701A","lat":51.51116,"lon":-0.01209,"name":"Bazely Street","parentId":"490G000400","stationId":"490G000400","stopLetter":"A","topMostParentId":"490G000400","towards":"Bow Or Limehouse"},{"icsId":"1011114","id":"490011114AD","lat":51.51094,"lon":-0.01657,"name":"Poplar Recreation Ground","parentId":"490G00011114","stationId":"490G00011114","stopLetter":"E","topMostParentId":"490G00011114","towards":"Limehouse Or Mile End"},{"icsId":"1013936","id":"490013936W","lat":51.51074,"lon":-0.02038,"name":"Upper North Street","parentId":"490G00013936","stationId":"490G00013936","stopLetter":"F","topMostParentId":"490G00013936","towards":"Limehouse Or Mile End"},{"icsId":"1013965","id":"490013965W","lat":51.51122,"lon":-0.02425,"name":"University of Cumbria In London","parentId":"490G00013965","stationId":"490G00013965","stopLetter":"WZ","topMostParentId":"490G00013965","towards":"Aldgate Or Mile End"},{"icsId":"1004584","id":"490004584N","lat":51.51278,"lon":-0.02799,"name":"East India Dock Road","parentId":"490G00004584","stationId":"490G00004584","stopLetter":"WO","topMostParentId":"490G00004584","towards":"Bethnal Green Or Hackney"},{"icsId":"1011031","id":"490011031N","lat":51.51514,"lon":-0.02879,"name":"Pixley Street","parentId":"490G00011031","stationId":"490G00011031","stopLetter":"WQ","topMostParentId":"490G00011031","towards":"Bethnal Green Or Hackney"},{"icsId":"1012881","id":"490012881N","lat":51.51659,"lon":-0.02957,"name":"St Paul's Way","parentId":"490G00012881","stationId":"490G00012881","stopLetter":"MA","topMostParentId":"490G00012881","towards":"Bethnal Green Or Hackney"},{"icsId":"1002130","id":"490013846N","lat":51.51791,"lon":-0.03027,"name":"Ackroyd Drive","parentId":"490G000352","stationId":"490G000352","stopLetter":"MB","topMostParentId":"490G000352","towards":"Bethnal Green Or Hackney"},{"icsId":"1006614","id":"490006614N","lat":51.52119,"lon":-0.03322,"name":"Eric Street","parentId":"490G00006614","stationId":"490G00006614","stopLetter":"MC","topMostParentId":"490G00006614","towards":"Bethnal Green Or Hackney"},{"icsId":"1000146","id":"490000146B","lat":51.52375,"lon":-0.03451,"name":"Mile End Station","stopLetter":"B","topMostParentId":"490000146B","towards":"Bethnal Green Or Hackney","zone":"2"},{"icsId":"1018852","id":"490000146G","lat":51.52586,"lon":-0.03525,"name":"Mile End Station / Mile End Road","parentId":"490G000925","stationId":"490G000925","stopLetter":"G","topMostParentId":"490G000925","towards":"Bethnal Green, Hackney Or Old Ford"},{"icsId":"1013517","id":"490013517N","lat":51.52707,"lon":-0.03654,"name":"Lichfield Road","parentId":"490G00013517","stationId":"490G00013517","stopLetter":"->N","topMostParentId":"490G00013517","towards":"Bethnal Green, Hackney Or Old Ford"},{"icsId":"1003352","id":"490003352N","lat":51.52896,"lon":-0.03852,"name":"Arbery Road","parentId":"490G00003352","stationId":"490G00003352","stopLetter":"Q","topMostParentId":"490G00003352","towards":"Hackney, Bethnal Green Or Roman Road Market"},{"icsId":"1012633","id":"490012633N","lat":51.53042,"lon":-0.03993,"name":"St Barnabas Church","parentId":"490G00012633","stationId":"490G00012633","stopLetter":"R","topMostParentId":"490G00012633","towards":"Bethnal Green, Hackney Or Old Ford"},{"icsId":"1007914","id":"490007914W","lat":51.53053,"lon":-0.04129,"name":"Haverfield Green / Grove Road","parentId":"490G00007914","stationId":"490G00007914","stopLetter":"D","topMostParentId":"490G00007914","towards":"Bethnal Green"},{"icsId":"1004144","id":"490012204W","lat":51.52934,"lon":-0.04629,"name":"Bonner Street","parentId":"490G00004144","stationId":"490G00004144","stopLetter":"HD","topMostParentId":"490G00004144","towards":"Hackney Or Shoreditch"},{"icsId":"1019079","id":"490004144W","lat":51.52864,"lon":-0.04858,"name":"Morpeth Street","parentId":"490G00019079","stationId":"490G00019079","stopLetter":"HE","topMostParentId":"490G00019079","towards":"Hackney Or Shoreditch"},{"icsId":"1007242","id":"490007242W","lat":51.52812,"lon":-0.05012,"name":"Globe Road","parentId":"490G00007242","stationId":"490G00007242","stopLetter":"HF","topMostParentId":"490G00007242","towards":"Hackney Or Shoreditch"},{"icsId":"1000022","id":"490000022B","lat":51.5274,"lon":-0.05455,"name":"Bethnal Green Station","stopLetter":"B","topMostParentId":"490000022B","towards":"Hackney Or Shoreditch","zone":"2"},{"icsId":"1010555","id":"490010555G","lat":51.52901,"lon":-0.05586,"name":"Old Ford Road","parentId":"490G00010555","stationId":"490G00010555","stopLetter":"G","topMostParentId":"490G00010555","towards":"Hackney"},{"icsId":"1001044","id":"490001044M","lat":51.53209,"lon":-0.05709,"name":"Cambridge Heath Station","stopLetter":"M","topMostParentId":"490001044M","towards":"Hackney"},{"icsId":"1003314","id":"490003314R","lat":51.53507,"lon":-0.05733,"name":"Mare Street / Victoria Park Road","parentId":"490G00003314","stationId":"490G00003314","stopLetter":"R","topMostParentId":"490G00003314","towards":"Hackney Central Or Hackney Wick"}]}]}