{"direction":"inbound","lineId":"e6","lineName":"E6","mode":"bus","stopPointSequences":[{"stopPoint":[{"icsId":"1004576","id":"490015280N","lat":51.49864,"lon":-0.40594,"name":"Bulls Bridge Tesco","parentId":"490G00004576","stationId":"490G00004576","stopLetter":"BW","topMostParentId":"490G00004576","towards":"Hayes Or Hounslow"},{"icsId":"1013312","id":"490013313S","lat":51.49718,"lon":-0.41286,"name":"Roseville Road","parentId":"490G00013312","stationId":"490G00013312","stopLetter":"->S","topMostParentId":"490G00013312"},{"icsId":"1009984","id":"490009984W","lat":51.49692,"lon":-0.42142,"name":"Crowland Avenue","parentId":"490G00009984","stationId":"490G00009984","stopLetter":"->W","topMostParentId":"490G00009984"},{"icsId":"1009984","id":"490012620W","lat":51.49804,"lon":-0.42469,"name":"Crowland Avenue","parentId":"490G00009984","stationId":"490G00009984","topMostParentId":"490G00009984"},{"icsId":"1011489","id":"490011489N","lat":51.49909,"lon":-0.42571,"name":"Redmead Road","parentId":"490G00011489","stationId":"490G00011489","stopLetter":"U","topMostParentId":"490G00011489","towards":"Hayes Town"},{"icsId":"1020310","id":"490020310N","lat":51.50041,"lon":-0.42478,"name":"Millington Road","parentId":"490G00020310","stationId":"490G00020310","stopLetter":"P","topMostParentId":"490G00020310","towards":"Hayes Town Or Yeading"},{"icsId":"1006702","id":"490006702N","lat":51.5019,"lon":-0.42335,"name":"Fairey Corner","parentId":"490G00006702","stationId":"490G00006702","stopLetter":"K","topMostParentId":"490G00006702","towards":"Hillingdon Hospital, Hayes End Or Yeading"},{"icsId":"1001144","id":"490001144N","lat":51.50333,"lon":-0.42076,"name":"Hayes & Harlington Station","stopLetter":"L","topMostParentId":"490001144N","towards":"Hillingdon Hospital, Hayes End Or Yeading"},{"icsId":"1007942","id":"490007942K","lat":51.50441,"lon":-0.41983,"name":"Clayton Road","parentId":"490G000581","stationId":"490G000581","stopLetter":"M","topMostParentId":"490G000581","towards":"Hillingdon Hospital, Hayes End Or Yeading"},{"icsId":"1000828","id":"490000828Z","lat":51.50681,"lon":-0.41909,"name":"Hayes Town Centre","parentId":"490G000162","stationId":"490G000162","stopLetter":"P","topMostParentId":"490G000162","towards":"Hayes End, Yeading Or Hillingdon Hospital"},{"icsId":"1006701","id":"490010095C","lat":51.509,"lon":-0.41568,"name":"Fairdale Gardens","parentId":"490G00006701","stationId":"490G00006701","stopLetter":"Y","topMostParentId":"490G00006701","towards":"Greenford Or Yeading"},{"icsId":"1006384","id":"490006384N","lat":51.51076,"lon":-0.4138,"name":"East Way","parentId":"490G00006384","stationId":"490G00006384","stopLetter":"W","topMostParentId":"490G00006384","towards":"Greenford Or Yeading"},{"icsId":"1003512","id":"490003512N","lat":51.51198,"lon":-0.41272,"name":"Avondale Drive","parentId":"490G00003512","stationId":"490G00003512","stopLetter":"V","topMostParentId":"490G00003512","towards":"Greenford Or Yeading"},{"icsId":"1011170","id":"490011170N","lat":51.51455,"lon":-0.41037,"name":"Precinct Road","parentId":"490G00011170","stationId":"490G00011170","stopLetter":"U","topMostParentId":"490G00011170","towards":"Greenford Or Yeading"},{"icsId":"1008109","id":"490008109T","lat":51.51642,"lon":-0.40888,"name":"Hesa Road","parentId":"490G00008109","stationId":"490G00008109","stopLetter":"T","topMostParentId":"490G00008109","towards":"Greenford Or Yeading"},{"icsId":"1013384","id":"490013979P","lat":51.51902,"lon":-0.40596,"name":"Hayes / the Grapes","parentId":"490G00013384","stationId":"490G00013384","stopLetter":"P","topMostParentId":"490G00013384","towards":"Greenford Or Northolt"},{"icsId":"1012032","id":"490012032N","lat":51.52166,"lon":-0.40243,"name":"Shaftesbury Waye","parentId":"490G00012032","stationId":"490G00012032","stopLetter":"A","topMostParentId":"490G00012032","towards":"Greenford Or Northolt"},{"icsId":"1014993","id":"490014993E","lat":51.52747,"lon":-0.39852,"name":"Reynolds Road","parentId":"490G00014993","stationId":"490G00014993","stopLetter":"D","topMostParentId":"490G00014993","towards":"Greenford"},{"icsId":"1013587","id":"490013587E","lat":51.52631,"lon":-0.3932,"name":"Homefield Close","parentId":"490G00013587","stationId":"490G00013587","stopLetter":"->E","topMostParentId":"490G00013587","towards":"Greenford"},{"icsId":"1008576","id":"490008576S","lat":51.52489,"lon":-0.38915,"name":"Jollys Lane","parentId":"490G00008576","stationId":"490G00008576","stopLetter":"->E","topMostParentId":"490G00008576","towards":"Greenford Or Hayes Town"},{"icsId":"1014996","id":"4900014996E","lat":51.52369,"lon":-0.38598,"name":"Yeading Tesco","parentId":"490G00014996","stationId":"490G00014996","stopLetter":"->E","topMostParentId":"490G00014996","towards":"Greenford Or Hayes"},{"icsId":"1002203","id":"490008576W","lat":51.52399,"lon":-0.38786,"name":"Yeading Retail Park","parentId":"490G000882","stationId":"490G000882","topMostParentId":"490G000882","towards":"Greenford Or Hayes"},{"icsId":"1010903","id":"490010903N","lat":51.5257,"lon":-0.39025,"name":"Pendula Drive","parentId":"490G00010903","stationId":"490G00010903","stopLetter":"->N","topMostParentId":"490G00010903","towards":"Greenford"},{"icsId":"1010712","id":"490010712N","lat":51.52814,"lon":-0.38892,"name":"Paddington Close","parentId":"490G00010712","stationId":"490G00010712","stopLetter":"->N","topMostParentId":"490G00010712","towards":"Greenford"},{"icsId":"1008754","id":"490008754E2","lat":51.52774,"lon":-0.38644,"name":"Kingsash Drive","parentId":"490G00008754","stationId":"490G00008754","stopLetter":"->E","topMostParentId":"490G00008754","towards":"Greenford"},{"icsId":"1003930","id":"490003930N","lat":51.52855,"lon":-0.38239,"name":"Berrydale Road","parentId":"490G00003930","stationId":"490G00003930","stopLetter":"->N","topMostParentId":"490G00003930","towards":"Greenford"},{"icsId":"1011996","id":"490011995N","lat":51.53047,"lon":-0.38003,"name":"Aspen Lane","parentId":"490G00011996","stationId":"490G00011996","stopLetter":"WA","topMostParentId":"490G00011996","towards":"Greenford"},{"icsId":"1004373","id":"490004373E","lat":51.53293,"lon":-0.37827,"name":"Broadmead Road","parentId":"490G00004373","stationId":"490G00004373","stopLetter":"WE","topMostParentId":"490G00004373","towards":"Ealing, Ealing Hospital Or Southall"},{"icsId":"1003116","id":"490003116E","lat":51.53275,"lon":-0.37287,"name":"Adrienne Avenue","parentId":"490G00003116","stationId":"490G00003116","stopLetter":"WF","topMostParentId":"490G00003116","towards":"Ealing, Ealing Hospital Or Southall"},{"icsId":"1007782","id":"490007782E","lat":51.53237,"lon":-0.36829,"name":"Greenford High School","parentId":"490G00007782","stationId":"490G00007782","stopLetter":"EG","topMostParentId":"490G00007782","towards":"Ealing, Ealing Hospital Or Greenford Roundabout"},{"icsId":"1006369","id":"490006369E","lat":51.52994,"lon":-0.36362,"name":"Eastmead Avenue","parentId":"490G00006369","stationId":"490G00006369","stopLetter":"EH","topMostParentId":"490G00006369","towards":"Ealing, Ealing Hospital Or Greenford Roundabout"},{"icsId":"1010897","id":"490010897E1","lat":51.52868,"lon":-0.35928,"name":"Pembroke Road","parentId":"490G00010897","stationId":"490G00010897","stopLetter":"H","topMostParentId":"490G00010897","towards":"Ealing, Ealing Hospital Or Greenford Roundabout"},{"icsId":"1007446","id":"490007446C","lat":51.52803,"lon":-0.35407,"name":"Greenford Broadway","parentId":"490G00007446","stationId":"490G00007446","stopLetter":"J","topMostParentId":"490G00007446","towards":"Ealing, Ealing Hospital Or Greenford Roundabout"}]},{"stopPoint":[{"icsId":"1004576","id":"490015280N","lat":51.49864,"lon":-0.40594,"name":"Bulls Bridge Tesco","parentId":"490G00004576","stationId":"490G00004576","stopLetter":"BW","topMostParentId":"490G00004576","towards":"Hayes Or Hounslow"},{"icsId":"1013312","id":"490013313S","lat":51.49718,"lon":-0.41286,"name":"Roseville Road","parentId":"490G00013312","stationId":"490G00013312","stopLetter":"->S","topMostParentId":"490G00013312"},{"icsId":"1009984","id":"490009984W","lat":51.49692,"lon":-0.42142,"name":"Crowland Avenue","parentId":"490G00009984","stationId":"490G00009984","stopLetter":"->W","topMostParentId":"490G00009984"},{"icsId":"1009984","id":"490012620W","lat":51.49804,"lon":-0.42469,"name":"Crowland Avenue","parentId":"490G00009984","stationId":"490G00009984","topMostParentId":"490G00009984"},{"icsId":"1011489","id":"490011489N","lat":51.49909,"lon":-0.42571,"name":"Redmead Road","parentId":"490G00011489","stationId":"490G00011489","stopLetter":"U","topMostParentId":"490G00011489","towards":"Hayes Town"},{"icsId":"1020310","id":"490020310N","lat":51.50041,"lon":-0.42478,"name":"Millington Road","parentId":"490G00020310","stationId":"490G00020310","stopLetter":"P","topMostParentId":"490G00020310","towards":"Hayes Town Or Yeading"},{"icsId":"1006702","id":"490006702N","lat":51.5019,"lon":-0.42335,"name":"Fairey Corner","parentId":"490G00006702","stationId":"490G00006702","stopLetter":"K","topMostParentId":"490G00006702","towards":"Hillingdon Hospital, Hayes End Or Yeading"},{"icsId":"1001144","id":"490001144N","lat":51.50333,"lon":-0.42076,"name":"Hayes & Harlington Station","stopLetter":"L","topMostParentId":"490001144N","towards":"Hillingdon Hospital, Hayes End Or Yeading"},{"icsId":"1007942","id":"490007942K","lat":51.50441,"lon":-0.41983,"name":"Clayton Road","parentId":"490G000581","stationId":"490G000581","stopLetter":"M","topMostParentId":"490G000581","towards":"Hillingdon Hospital, Hayes End Or Yeading"},{"icsId":"1000828","id":"490000828Z","lat":51.50681,"lon":-0.41909,"name":"Hayes Town Centre","parentId":"490G000162","stationId":"490G000162","stopLetter":"P","topMostParentId":"490G000162","towards":"Hayes End, Yeading Or Hillingdon Hospital"},{"icsId":"1006701","id":"490010095C","lat":51.509,"lon":-0.41568,"name":"Fairdale Gardens","parentId":"490G00006701","stationId":"490G00006701","stopLetter":"Y","topMostParentId":"490G00006701","towards":"Greenford Or Yeading"},{"icsId":"1006384","id":"490006384N","lat":51.51076,"lon":-0.4138,"name":"East Way","parentId":"490G00006384","stationId":"490G00006384","stopLetter":"W","topMostParentId":"490G00006384","towards":"Greenford Or Yeading"},{"icsId":"1003512","id":"490003512N","lat":51.51198,"lon":-0.41272,"name":"Avondale Drive","parentId":"490G00003512","stationId":"490G00003512","stopLetter":"V","topMostParentId":"490G00003512","towards":"Greenford Or Yeading"},{"icsId":"1011170","id":"490011170N","lat":51.51455,"lon":-0.41037,"name":"Precinct Road","parentId":"490G00011170","stationId":"490G00011170","stopLetter":"U","topMostParentId":"490G00011170","towards":"Greenford Or Yeading"},{"icsId":"1008109","id":"490008109T","lat":51.51642,"lon":-0.40888,"name":"Hesa Road","parentId":"490G00008109","stationId":"490G00008109","stopLetter":"T","topMostParentId":"490G00008109","towards":"Greenford Or Yeading"},{"icsId":"1013384","id":"490013979P","lat":51.51902,"lon":-0.40596,"name":"Hayes / the Grapes","parentId":"490G00013384","stationId":"490G00013384","stopLetter":"P","topMostParentId":"490G00013384","towards":"Greenford Or Northolt"},{"icsId":"1012032","id":"490012032N","lat":51.52166,"lon":-0.40243,"name":"Shaftesbury Waye","parentId":"490G00012032","stationId":"490G00012032","stopLetter":"A","topMostParentId":"490G00012032","towards":"Greenford Or Northolt"},{"icsId":"1014993","id":"490014993E","lat":51.52747,"lon":-0.39852,"name":"Reynolds Road","parentId":"490G00014993","stationId":"490G00014993","stopLetter":"D","topMostParentId":"490G00014993","towards":"Greenford"},{"icsId":"1013587","id":"490013587E","lat":51.52631,"lon":-0.3932,"name":"Homefield Close","parentId":"490G00013587","stationId":"490G00013587","stopLetter":"->E","topMostParentId":"490G00013587","towards":"Greenford"},{"icsId":"1008576","id":"490008576S","lat":51.52489,"lon":-0.38915,"name":"Jollys Lane","parentId":"490G00008576","stationId":"490G00008576","stopLetter":"->E","topMostParentId":"490G00008576","towards":"Greenford Or Hayes Town"},{"icsId":"1014996","id":"4900014996E","lat":51.52369,"lon":-0.38598,"name":"Yeading Tesco","parentId":"490G00014996","stationId":"490G00014996","stopLetter":"->E","topMostParentId":"490G00014996","towards":"Greenford Or Hayes"},{"icsId":"1002203","id":"490008576W","lat":51.52399,"lon":-0.38786,"name":"Yeading Retail Park","parentId":"490G000882","stationId":"490G000882","topMostParentId":"490G000882","towards":"Greenford Or Hayes"},{"icsId":"1010903","id":"490010903N","lat":51.5257,"lon":-0.39025,"name":"Pendula Drive","parentId":"490G00010903","stationId":"490G00010903","stopLetter":"->N","topMostParentId":"490G00010903","towards":"Greenford"},{"icsId":"1010712","id":"490010712N","lat":51.52814,"lon":-0.38892,"name":"Paddington Close","parentId":"490G00010712","stationId":"490G00010712","stopLetter":"->N","topMostParentId":"490G00010712","towards":"Greenford"},{"icsId":"1008754","id":"490008754E2","lat":51.52774,"lon":-0.38644,"name":"Kingsash Drive","parentId":"490G00008754","stationId":"490G00008754","stopLetter":"->E","topMostParentId":"490G00008754","towards":"Greenford"},{"icsId":"1003930","id":"490003930N","lat":51.52855,"lon":-0.38239,"name":"Berrydale Road","parentId":"490G00003930","stationId":"490G00003930","stopLetter":"->N","topMostParentId":"490G00003930","towards":"Greenford"},{"icsId":"1011996","id":"490011995N","lat":51.53047,"lon":-0.38003,"name":"Aspen Lane","parentId":"490G00011996","stationId":"490G00011996","stopLetter":"WA","topMostParentId":"490G00011996","towards":"Greenford"},{"icsId":"1004373","id":"490004373E","lat":51.53293,"lon":-0.37827,"name":"Broadmead Road","parentId":"490G00004373","stationId":"490G00004373","stopLetter":"WE","topMostParentId":"490G00004373","towards":"Ealing, Ealing Hospital Or Southall"},{"icsId":"1003116","id":"490003116E","lat":51.53275,"lon":-0.37287,"name":"Adrienne Avenue","parentId":"490G00003116","stationId":"490G00003116","stopLetter":"WF","topMostParentId":"490G00003116","towards":"Ealing, Ealing Hospital Or Southall"},{"icsId":"1007782","id":"490007782E","lat":51.53237,"lon":-0.36829,"name":"Greenford High School","parentId":"490G00007782","stationId":"490G00007782","stopLetter":"EG","topMostParentId":"490G00007782","towards":"Ealing, Ealing Hospital Or Greenford Roundabout"},{"icsId":"1006369","id":"490006369E","lat":51.52994,"lon":-0.36362,"name":"Eastmead Avenue","parentId":"490G00006369","stationId":"490G00006369","stopLetter":"EH","topMostParentId":"490G00006369","towards":"Ealing, Ealing Hospital Or Greenford Roundabout"},{"icsId":"1010897","id":"490010897E1","lat":51.52868,"lon":-0.35928,"name":"Pembroke Road","parentId":"490G00010897","stationId":"490G00010897","stopLetter":"H","topMostParentId":"490G00010897","towards":"Ealing, Ealing Hospital Or Greenford Roundabout"},{"icsId":"1007446","id":"490007446C","lat":51.52803,"lon":-0.35407,"name":"Greenford Broadway","parentId":"490G00007446","stationId":"490G00007446","stopLetter":"J","topMostParentId":"490G00007446","towards":"Ealing, Ealing Hospital Or Greenford Roundabout"},{"icsId":"1007442","id":"490007441F","lat":51.52833,"lon":-0.35202,"name":"Ruislip Road East","parentId":"490G00007442","stationId":"490G00007442","stopLetter":"W","topMostParentId":"490G00007442","towards":"Greenford Station Or Hanger Lane"},{"icsId":"1005626","id":"490005626N","lat":51.53137,"lon":-0.35007,"name":"Costons Lane","parentId":"490G00005626","stationId":"490G00005626","stopLetter":"X","topMostParentId":"490G00005626","towards":"Greenford Station Or Hanger Lane"},{"icsId":"1005687","id":"490005687N","lat":51.53516,"lon":-0.34722,"name":"Cowgate Road","parentId":"490G00005687","stationId":"490G00005687","stopLetter":"EE","topMostParentId":"490G00005687","towards":"Greenford Station Or Hanger Lane"},{"icsId":"1008485","id":"490008485N","lat":51.53778,"lon":-0.34541,"name":"Ingram Way / Bridge Hotel","parentId":"490G00008485","stationId":"490G00008485","stopLetter":"GG","topMostParentId":"490G00008485","towards":"Sudbury"},{"icsId":"1013906","id":"490013906N","lat":51.53993,"lon":-0.34431,"name":"Uneeda Drive","parentId":"490G00013906","stationId":"490G00013906","stopLetter":"HH","topMostParentId":"490G00013906","towards":"Sudbury"},{"icsId":"1000092","id":"490000092W1","lat":51.54268,"lon":-0.34484,"name":"Greenford Station","stopLetter":"Z1","topMostParentId":"490000092W1","zone":"4"}]}]}