{"direction":"inbound","lineId":"h14","lineName":"H14","mode":"bus","stopPointSequences":[{"stopPoint":[{"icsId":"1010425","id":"490010425HS","lat":51.57647,"lon":-0.32369,"name":"Northwick Park Hospital","parentId":"490G00010425","stationId":"490G00010425","stopLetter":"HS","topMostParentId":"490G00010425","towards":"Harrow Bus Station"},{"icsId":"1010958","id":"490010958N","lat":51.57765,"lon":-0.33377,"name":"Tyburn Lane","parentId":"490G000702","stationId":"490G000702","stopLetter":"G","topMostParentId":"490G000702","towards":"Wealdstone"},{"icsId":"1015347","id":"490015347L","lat":51.57935,"lon":-0.33404,"name":"Harrow Town Centre","parentId":"490G00015347","stationId":"490G00015347","stopLetter":"L","topMostParentId":"490G00015347","towards":"Belmont, Harrow View Or Wealdstone"},{"icsId":"1007845","id":"490007845D","lat":51.58007,"lon":-0.33796,"name":"Harrow Bus Station","parentId":"490G000574","stationId":"490G000574","stopLetter":"D","topMostParentId":"HUBHOH","towards":"North Harrow, Pinner Or Wealdstone"},{"icsId":"1008254","id":"490008254N","lat":51.58404,"lon":-0.34142,"name":"Hindes Road","parentId":"490G00008254","stationId":"490G00008254","stopLetter":"->N","topMostParentId":"490G00008254","towards":"Hatch End Or Harrow Weald"},{"icsId":"1005907","id":"490005907N","lat":51.58851,"lon":-0.34373,"name":"Cunningham Park","parentId":"490G00005907","stationId":"490G00005907","stopLetter":"->N","topMostParentId":"490G00005907","towards":"Hatch End"},{"icsId":"1013383","id":"490013383N","lat":51.592,"lon":-0.34601,"name":"Headstone Drive","parentId":"490G00013383","stationId":"490G00013383","stopLetter":"W","topMostParentId":"490G00013383","towards":"Hatch End Or Harrow Weald"},{"icsId":"1008888","id":"490008888N","lat":51.59585,"lon":-0.34864,"name":"Harrow View West","parentId":"490G00008888","stationId":"490G00008888","stopLetter":"->N","topMostParentId":"490G00008888","towards":"Hatch End"},{"icsId":"1011021","id":"490011021N","lat":51.5976,"lon":-0.34974,"name":"Pinner Park Avenue","parentId":"490G00011021","stationId":"490G00011021","stopLetter":"->N","topMostParentId":"490G00011021","towards":"Hatch End"},{"icsId":"1009301","id":"490009301N","lat":51.60302,"lon":-0.35253,"name":"Long Elmes","parentId":"490G00009301","stationId":"490G00009301","stopLetter":"J","topMostParentId":"490G00009301","towards":"Hatch End"},{"icsId":"1007980","id":"490007980B","lat":51.60378,"lon":-0.35676,"name":"Headstone Lane","parentId":"490G000582","stationId":"490G000582","stopLetter":"B","topMostParentId":"490G000582","towards":"Harrow Or Hatch End"},{"icsId":"1010120","id":"490010120N","lat":51.60591,"lon":-0.35876,"name":"Mullion Close","parentId":"490G00010120","stationId":"490G00010120","stopLetter":"S","topMostParentId":"490G00010120","towards":"Hatch End"},{"icsId":"1007981","id":"490007981W","lat":51.60846,"lon":-0.36065,"name":"Rowlands Avenue","parentId":"490G00007981","stationId":"490G00007981","stopLetter":"T","topMostParentId":"490G00007981","towards":"Pinner"},{"icsId":"1007842","id":"490007842W","lat":51.6088,"lon":-0.36361,"name":"Harrow Arts Centre","parentId":"490G00007842","stationId":"490G00007842","stopLetter":"U","topMostParentId":"490G00007842","towards":"Pinner"},{"icsId":"1001142","id":"490001142A","lat":51.60873,"lon":-0.37007,"name":"Hatch End Station","stopLetter":"V","topMostParentId":"490001142A","towards":"Pinner"},{"icsId":"1007896","id":"490007896W","lat":51.60739,"lon":-0.37526,"name":"Hatch End / Telephone Exchange","parentId":"490G00007896","stationId":"490G00007896","stopLetter":"->W","topMostParentId":"490G00007896","towards":"Pinner"},{"icsId":"1012953","id":"490012953W1","lat":51.60603,"lon":-0.37775,"name":"St Thomas' Drive","parentId":"490G00012953","stationId":"490G00012953","topMostParentId":"490G00012953","towards":"Pinner"}]}]}