{"direction":"inbound","lineId":"h22","lineName":"H22","mode":"bus","stopPointSequences":[{"stopPoint":[{"icsId":"1014493","id":"490014493E","lat":51.47399,"lon":-0.32565,"name":"West Middlesex Hospital","parentId":"490G00014493","stationId":"490G00014493","stopLetter":"HA","topMostParentId":"490G00014493","towards":"Hounslow, Twickenham Or Whitton"},{"icsId":"1014503","id":"490014493S","lat":51.47437,"lon":-0.32706,"name":"Twickenham Rd / West Middlesex Hospital","parentId":"490G00014503","stationId":"490G00014503","stopLetter":"HB","topMostParentId":"490G00014503","towards":"Hounslow, Twickenham Or Whitton"},{"icsId":"1009538","id":"490009538S","lat":51.47227,"lon":-0.32774,"name":"Mandeville Road","parentId":"490G00009538","stationId":"490G00009538","stopLetter":"TF","topMostParentId":"490G00009538","towards":"Hounslow, Twickenham Or Whitton"},{"icsId":"1008512","id":"490008512TH","lat":51.47016,"lon":-0.32818,"name":"Isleworth War Memorial","parentId":"490G00008512","stationId":"490G00008512","stopLetter":"TH","topMostParentId":"490G00008512","towards":"Richmond, Twickenham Or Whitton"},{"icsId":"1008511","id":"490014954TM","lat":51.46694,"lon":-0.32959,"name":"Isleworth Library","parentId":"490G00008511","stationId":"490G00008511","stopLetter":"TM","topMostParentId":"490G00008511","towards":"Twickenham  Ivybridge Or Whitton"},{"icsId":"1004260","id":"490004260S","lat":51.46523,"lon":-0.33047,"name":"Brantwood Avenue","parentId":"490G00004260","stationId":"490G00004260","stopLetter":"->S","topMostParentId":"490G00004260","towards":"Twickenham  Ivybridge Or Whitton"},{"icsId":"1003580","id":"490003580S","lat":51.46292,"lon":-0.33169,"name":"Lynton Close","parentId":"490G00003580","stationId":"490G00003580","stopLetter":"A","topMostParentId":"490G00003580","towards":"Twickenham  Ivybridge Or Whitton"},{"icsId":"1009961","id":"490009961S","lat":51.46019,"lon":-0.3313,"name":"Mogden Lane","parentId":"490G00009961","stationId":"490G00009961","stopLetter":"B","topMostParentId":"490G00009961","towards":"Twickenham"},{"icsId":"1005700","id":"490005700S","lat":51.45848,"lon":-0.33057,"name":"Crane Avenue","parentId":"490G00005700","stationId":"490G00005700","stopLetter":"C","topMostParentId":"490G00005700","towards":"Twickenham"},{"icsId":"1005102","id":"490005102S","lat":51.45658,"lon":-0.33049,"name":"Chertsey Road","parentId":"490G00005102","stationId":"490G00005102","stopLetter":"D","topMostParentId":"490G00005102","towards":"Fulwell Or Whitton"},{"icsId":"1008247","id":"490008247E","lat":51.45422,"lon":-0.32994,"name":"Hill View Road","parentId":"490G00008247","stationId":"490G00008247","stopLetter":"E","topMostParentId":"490G00008247","towards":"Fulwell Or Whitton"},{"icsId":"1014638","id":"490014638E1","lat":51.45101,"lon":-0.33145,"name":"Whitton Road","parentId":"490G00014638","stationId":"490G00014638","stopLetter":"F","topMostParentId":"490G00014638","towards":"Fulwell Or Whitton"},{"icsId":"1001300","id":"490013861C","lat":51.45018,"lon":-0.33088,"name":"Twickenham Station","stopLetter":"C","topMostParentId":"490013861C","towards":"Fulwell"},{"icsId":"1013871","id":"490013871F","lat":51.44852,"lon":-0.32918,"name":"London Road / Twickenham","parentId":"490G00013871","stationId":"490G00013871","stopLetter":"F","topMostParentId":"490G00013871","towards":"Fulwell, Powder Mill Lane Or Teddington"},{"icsId":"1020202","id":"490020202SW","lat":51.4454,"lon":-0.33051,"name":"Heath Road / Twickenham","parentId":"490G00020202","stationId":"490G00020202","stopLetter":"L","topMostParentId":"490G00020202","towards":"Hanworth Or Whitton"},{"icsId":"1008009","id":"490008009W","lat":51.44527,"lon":-0.33632,"name":"Heath Road / Grove Avenue","parentId":"490G00008009","stationId":"490G00008009","stopLetter":"GS","topMostParentId":"490G00008009","towards":"Fulwell Or Hanworth"},{"icsId":"1013869","id":"490013869W","lat":51.44438,"lon":-0.34197,"name":"Twickenham Green","parentId":"490G00013869","stationId":"490G00013869","stopLetter":"GC","topMostParentId":"490G00013869","towards":"Hanworth Or Whitton"},{"icsId":"1013506","id":"490013564W","lat":51.44415,"lon":-0.34592,"name":"First Cross Road","parentId":"490G00013506","stationId":"490G00013506","stopLetter":"GD","topMostParentId":"490G00013506","towards":"Hanworth Or Whitton"},{"icsId":"1009771","id":"490009771E","lat":51.44328,"lon":-0.34927,"name":"Meadway","parentId":"490G00009771","stationId":"490G00009771","stopLetter":"GE","topMostParentId":"490G00009771","towards":"Hanworth Or Whitton"},{"icsId":"1009919","id":"490009919W","lat":51.44137,"lon":-0.35389,"name":"Mill Road","parentId":"490G00009919","stationId":"490G00009919","stopLetter":"GF","topMostParentId":"490G00009919","towards":"Hanworth Or Whitton"},{"icsId":"1012184","id":"490012184W","lat":51.43949,"lon":-0.35996,"name":"Sixth Cross Road","parentId":"490G00012184","stationId":"490G00012184","stopLetter":"T","topMostParentId":"490G00012184","towards":"Feltham Or Whitton"},{"icsId":"1014715","id":"490014715N","lat":51.44127,"lon":-0.36484,"name":"Willow Way","parentId":"490G00014715","stationId":"490G00014715","stopLetter":"N","topMostParentId":"490G00014715","towards":"Whitton"},{"icsId":"1007995","id":"490007995Z","lat":51.44456,"lon":-0.36435,"name":"Whitton Cnr / Health & Social Care Ctr","parentId":"490G00007995","stationId":"490G00007995","stopLetter":"->N","topMostParentId":"490G00007995","towards":"St Margarets"},{"icsId":"1011836","id":"490011836E","lat":51.44557,"lon":-0.36118,"name":"Ryecroft Avenue","parentId":"490G00011836","stationId":"490G00011836","stopLetter":"J","topMostParentId":"490G00011836","towards":"Hounslow"},{"icsId":"1010866","id":"490010866N","lat":51.44698,"lon":-0.35956,"name":"Pauline Crescent","parentId":"490G00010866","stationId":"490G00010866","stopLetter":"K","topMostParentId":"490G00010866","towards":"St Margarets"},{"icsId":"1001336","id":"490001336A","lat":51.44979,"lon":-0.35803,"name":"Whitton Station","stopLetter":"A","topMostParentId":"490001336A","towards":"St Margarets"},{"icsId":"1014636","id":"490014636N","lat":51.45222,"lon":-0.35812,"name":"Whitton High Street","parentId":"490G00014636","stationId":"490G00014636","stopLetter":"L","topMostParentId":"490G00014636","towards":"St Margarets"},{"icsId":"1014629","id":"490014629C","lat":51.45346,"lon":-0.35714,"name":"The Admiral Nelson / Whitton","parentId":"490G00014629","stationId":"490G00014629","stopLetter":"Q","topMostParentId":"490G00014629","towards":"Isleworth, St Margarets Or Twickenham"},{"icsId":"1008870","id":"490008870N","lat":51.45539,"lon":-0.35366,"name":"Kneller Road","parentId":"490G00008870","stationId":"490G00008870","stopLetter":"->N","topMostParentId":"490G00008870","towards":"Hounslow Or Isleworth"},{"icsId":"1008868","id":"490008868N","lat":51.45671,"lon":-0.35281,"name":"Kneller Gardens","parentId":"490G00008868","stationId":"490G00008868","stopLetter":"->N","topMostParentId":"490G00008868","towards":"Hounslow"},{"icsId":"1014633","id":"490014633N","lat":51.45886,"lon":-0.35051,"name":"Whitton Dene","parentId":"490G00014633","stationId":"490G00014633","stopLetter":"->N","topMostParentId":"490G00014633","towards":"Hounslow"},{"icsId":"1004919","id":"490004919N","lat":51.46121,"lon":-0.34933,"name":"Reapers Way","parentId":"490G00004919","stationId":"490G00004919","stopLetter":"->N","topMostParentId":"490G00004919","towards":"Ivybridge Or Hounslow"},{"icsId":"1006392","id":"490006392W","lat":51.46344,"lon":-0.34778,"name":"Eaton Road","parentId":"490G00006392","stationId":"490G00006392","stopLetter":"->N","topMostParentId":"490G00006392","towards":"Ivybridge Or Hounslow"},{"icsId":"1008005","id":"490008005N","lat":51.46571,"lon":-0.34698,"name":"Heath Road","parentId":"490G00008005","stationId":"490G00008005","stopLetter":"->N","topMostParentId":"490G00008005","towards":"Ivybridge Or Hounslow"},{"icsId":"1006760","id":"490006760N","lat":51.46829,"lon":-0.34698,"name":"Farnell Road","parentId":"490G00006760","stationId":"490G00006760","stopLetter":"->N","topMostParentId":"490G00006760","towards":"Hounslow"},{"icsId":"1012528","id":"490012528N","lat":51.47075,"lon":-0.34895,"name":"Stanborough Road","parentId":"490G00012528","stationId":"490G00012528","stopLetter":"->N","topMostParentId":"490G00012528","towards":"Hounslow"},{"icsId":"1004327","id":"490004327W1","lat":51.4716,"lon":-0.35038,"name":"Bridge Road","parentId":"490G00004327","stationId":"490G00004327","stopLetter":"->W","topMostParentId":"490G00004327","towards":"Hounslow Heath, Hounslow West Or Feltham"},{"icsId":"1008392","id":"490008392G","lat":51.47082,"lon":-0.35365,"name":"Hounslow Bus Station","parentId":"490G000601","stationId":"490G000601","stopLetter":"G","topMostParentId":"490G000601","towards":"Hounslow Heath, Hounslow West Or Feltham"},{"icsId":"1007766","id":"490007766L","lat":51.46897,"lon":-0.35883,"name":"Fairfields Road","parentId":"490G00007766","stationId":"490G00007766","stopLetter":"L","topMostParentId":"490G00007766","towards":"Hounslow West Or Heston"},{"icsId":"1013777","id":"490013777R","lat":51.46704,"lon":-0.36369,"name":"Treaty Centre","parentId":"490G00013777","stationId":"490G00013777","stopLetter":"T","topMostParentId":"490G00013777","towards":"Hounslow West Or Heston"},{"icsId":"1008391","id":"490008391X","lat":51.46817,"lon":-0.36691,"name":"Bell Corner / Hounslow Civic Centre","parentId":"490G000600","stationId":"490G000600","stopLetter":"X","topMostParentId":"490G000600","towards":"Hounslow West"}]}]}