{"direction":"inbound","lineId":"h26","lineName":"H26","mode":"bus","stopPointSequences":[{"stopPoint":[{"icsId":"1000103","id":"490000103Z","lat":51.46692,"lon":-0.4232,"name":"Hatton Cross Station","stopLetter":"D","topMostParentId":"490000103Z","zone":"5+6"},{"icsId":"1010142","id":"490010142S","lat":51.46241,"lon":-0.42646,"name":"Myrtle Avenue","parentId":"490G00010142","stationId":"490G00010142","stopLetter":"->S","topMostParentId":"490G00010142","towards":"Ashford Or Feltham"},{"icsId":"1004673","id":"490004673S","lat":51.46039,"lon":-0.42959,"name":"Cains Lane","parentId":"490G00004673","stationId":"490G00004673","stopLetter":"->S","topMostParentId":"490G00004673","towards":"Ashford Or Feltham"},{"icsId":"1007972","id":"490007972S","lat":51.45815,"lon":-0.43312,"name":"Hazelmere Close","parentId":"490G00007972","stationId":"490G00007972","stopLetter":"->S","topMostParentId":"490G00007972","towards":"Ashford Or Feltham"},{"icsId":"1014513","id":"490014513S","lat":51.45493,"lon":-0.43743,"name":"West Road","parentId":"490G00014513","stationId":"490G00014513","stopLetter":"W","topMostParentId":"490G00014513","towards":"Ashford Or Feltham"},{"icsId":"1003784","id":"490003784S","lat":51.45352,"lon":-0.43951,"name":"Bedfont Close","parentId":"490G00003784","stationId":"490G00003784","stopLetter":"Y","topMostParentId":"490G00003784","towards":"Ashford Or Feltham"},{"icsId":"1012792","id":"490012792S","lat":51.45122,"lon":-0.44062,"name":"St Mary's Church","parentId":"490G00012792","stationId":"490G00012792","stopLetter":"T","topMostParentId":"490G00012792","towards":"Feltham"},{"icsId":"1005441","id":"490005439W2","lat":51.44981,"lon":-0.4447,"name":"Spinney Drive","parentId":"490G00005441","stationId":"490G00005441","stopLetter":"P","topMostParentId":"490G00005441","towards":"Ashford Hospital Or Feltham"},{"icsId":"1003787","id":"490003787S","lat":51.44803,"lon":-0.44427,"name":"Bedfont Lakes Commercial Estate","parentId":"490G00003787","stationId":"490G00003787","stopLetter":"Q","topMostParentId":"490G00003787","towards":"Feltham"},{"icsId":"1003801","id":"490003801S","lat":51.44622,"lon":-0.44084,"name":"Bedfont Lakes","parentId":"490G00003801","stationId":"490G00003801","stopLetter":"->S","topMostParentId":"490G00003801","towards":"Feltham"},{"icsId":"1008914","id":"490008914S","lat":51.44438,"lon":-0.43697,"name":"Silverdale Kennels","parentId":"490G00008914","stationId":"490G00008914","stopLetter":"->S","topMostParentId":"490G00008914","towards":"Feltham Town Centre"},{"icsId":"1006788","id":"490006788W","lat":51.44238,"lon":-0.43287,"name":"Feltham Young Offenders Institute","parentId":"490G00006788","stationId":"490G00006788","stopLetter":"->W","topMostParentId":"490G00006788","towards":"Feltham Or Hatton Cross"},{"icsId":"1003785","id":"490003785E","lat":51.44021,"lon":-0.42497,"name":"Chertsey Road","parentId":"490G00003785","stationId":"490G00003785","stopLetter":"->E","topMostParentId":"490G00003785","towards":"Feltham"},{"icsId":"1006786","id":"490006786K","lat":51.44281,"lon":-0.41261,"name":"Feltham Tesco","parentId":"490G00006786","stationId":"490G00006786","stopLetter":"K","topMostParentId":"490G00006786","towards":"Hatton Cross, Sparrow Farm Or Hounslow"},{"icsId":"1003789","id":"490003789G","lat":51.44664,"lon":-0.4098,"name":"Feltham Station  / Victoria Road","parentId":"490G000408","stationId":"490G000408","stopLetter":"G","topMostParentId":"490G000408","towards":"Bedfont Green Or Hounslow"},{"icsId":"1015730","id":"490006781N","lat":51.45071,"lon":-0.40675,"name":"Feltham Assembly Hall","parentId":"490G00015730","stationId":"490G00015730","stopLetter":"T","topMostParentId":"490G00015730","towards":"Hatton Cross, Hounslow Or Sparrow Farm"},{"icsId":"1008400","id":"490008400N","lat":51.45252,"lon":-0.40569,"name":"Harlington Road West","parentId":"490G00008400","stationId":"490G00008400","stopLetter":"U","topMostParentId":"490G00008400","towards":"Hounslow Or Sparrow Farm"},{"icsId":"1013333","id":"490013333S","lat":51.45259,"lon":-0.40294,"name":"The Drive","parentId":"490G00013333","stationId":"490G00013333","stopLetter":"->S","topMostParentId":"490G00013333","towards":"Sparrow Farm"},{"icsId":"1012369","id":"490012369E","lat":51.45051,"lon":-0.3995,"name":"Cygnet Avenue","parentId":"490G00012369","stationId":"490G00012369","stopLetter":"->E","topMostParentId":"490G00012369","towards":"Sparrow Farm"},{"icsId":"1004927","id":"490004927N","lat":51.45212,"lon":-0.39766,"name":"Central Parade","parentId":"490G00004927","stationId":"490G00004927","stopLetter":"->N","topMostParentId":"490G00004927","towards":"Feltham"}]}]}