{"direction":"inbound","lineId":"k3","lineName":"K3","mode":"bus","stopPointSequences":[{"stopPoint":[{"icsId":"1006634","id":"40004405141B","lat":51.375282,"lon":-0.369093,"name":"Trinity School","parentId":"400G4405141A","stationId":"400G4405141A","topMostParentId":"400G4405141A"},{"icsId":"1006635","id":"40004405142A","lat":51.37091,"lon":-0.366375,"name":"Esher Green","parentId":"400G4405142A","stationId":"400G4405142A","stopLetter":"E","topMostParentId":"400G4405142A","towards":"Cobham Or Hersham"},{"icsId":"1006636","id":"40004405076A","lat":51.3699,"lon":-0.364845,"name":"Esher High Street","parentId":"400G4405076B","stationId":"400G4405076B","stopLetter":"C","topMostParentId":"400G4405142A","towards":"Claygate, Cobham, Hersham Or Oxshott"},{"icsId":"1016653","id":"40004405145C","lat":51.363471,"lon":-0.362991,"name":"Bracondale","parentId":"400G4405145C","stationId":"400G4405145C","topMostParentId":"400G4405145C","towards":"Claygate"},{"icsId":"1010623","id":"40004405146A","lat":51.363573,"lon":-0.361235,"name":"Orchard Way","parentId":"400G4405146A","stationId":"400G4405146A","topMostParentId":"400G4405146A","towards":"Hinchley Wood"},{"icsId":"1003356","id":"40004405147A","lat":51.36444,"lon":-0.355113,"name":"Arbrook Lane","parentId":"400G4405147A","stationId":"400G4405147A","topMostParentId":"400G4405147A","towards":"Hinchley Wood"},{"icsId":"1005373","id":"40004405150A","lat":51.363115,"lon":-0.349156,"name":"Loseberry Road","parentId":"400G4405149A","stationId":"400G4405149A","topMostParentId":"910GCLYGATE","towards":"Hinchley Wood"},{"icsId":"1013492","id":"40004405151A","lat":51.361238,"lon":-0.34615,"name":"The Parade / Claygate Station","parentId":"400G4405151A","stationId":"400G4405151A","topMostParentId":"910GCLYGATE","towards":"Hinchley Wood"},{"icsId":"1005371","id":"40004405153A","lat":51.360333,"lon":-0.338756,"name":"St Leonard's Road","topMostParentId":"40004405153A","towards":"Esher Or Hinchley Wood"},{"icsId":"1012764","id":"40004405154A","lat":51.360839,"lon":-0.336397,"name":"Red Lane","stopLetter":"26","topMostParentId":"40004405154A","towards":"Esher Or Hinchley Wood"},{"icsId":"1005527","id":"40004405155A","lat":51.359339,"lon":-0.334598,"name":"Common Road","stopLetter":"33","topMostParentId":"40004405155A","towards":"Esher Or Hinchley Wood"},{"icsId":"1013284","id":"40004405156A","lat":51.357683,"lon":-0.337043,"name":"The Causeway","topMostParentId":"40004405156A","towards":"Esher Or Hinchley Wood"},{"icsId":"1013522","id":"40004405160A","lat":51.357958,"lon":-0.337995,"name":"The Recreation Ground","topMostParentId":"40004405160A","towards":"Esher Or Surbiton"},{"icsId":"1005374","id":"40004405161A","lat":51.359427,"lon":-0.339522,"name":"Claygate Village Hall","topMostParentId":"40004405161A","towards":"Esher Or Surbiton"},{"icsId":"1010480","id":"40004405162B","lat":51.36316,"lon":-0.342805,"name":"Oaken Lane","parentId":"400G4405162A","stationId":"400G4405162A","topMostParentId":"400G4405162A","towards":"Surbiton"},{"icsId":"1009591","id":"40004405163B","lat":51.368341,"lon":-0.34542,"name":"Manor Road South / Oaken Lane","parentId":"400G4405163A","stationId":"400G4405163A","topMostParentId":"400G4405163A","towards":"Surbiton"},{"icsId":"1000777","id":"40004406966B","lat":51.370325,"lon":-0.343236,"name":"Greenways","topMostParentId":"40004406966B","towards":"Surbiton"},{"icsId":"1000867","id":"40004405811A","lat":51.372709,"lon":-0.340148,"name":"Hinchley Wood / Kingston By-Pass","topMostParentId":"40004405811A","towards":"Surbiton"},{"icsId":"1001518","id":"40004405164B","lat":51.37526,"lon":-0.338029,"name":"Hinchley Wood Station","parentId":"400G4405164A","stationId":"400G4405164A","topMostParentId":"910GHNCHLYW","towards":"Surbiton"},{"icsId":"1005372","id":"40004405165B","lat":51.379239,"lon":-0.334537,"name":"Claygate Lane","parentId":"400G4405165B","stationId":"400G4405165B","topMostParentId":"400G4405165B","towards":"Surbiton"},{"icsId":"1009737","id":"40004405166B","lat":51.382475,"lon":-0.326875,"name":"Mayfield Close","parentId":"400G4405166A","stationId":"400G4405166A","topMostParentId":"400G4405166A","towards":"Surbiton"},{"icsId":"1011465","id":"40004405167B","lat":51.384042,"lon":-0.321386,"name":"Rectory Lane","parentId":"400G4405167A","stationId":"400G4405167A","topMostParentId":"400G4405167A","towards":"Kingston"},{"icsId":"1014765","id":"40004405168A","lat":51.386605,"lon":-0.32076,"name":"Windmill Lane","parentId":"400G4405168A","stationId":"400G4405168A","topMostParentId":"400G4405168A","towards":"Kingston"},{"icsId":"1012801","id":"40004405169B","lat":51.387924,"lon":-0.317421,"name":"St Mary's Road","parentId":"400G4405169A","stationId":"400G4405169A","topMostParentId":"400G4405169A","towards":"Kingston"},{"icsId":"1014056","id":"490014056E","lat":51.38985,"lon":-0.31471,"name":"Victoria Recreation Ground","parentId":"490G00014056","stationId":"490G00014056","stopLetter":"->E","topMostParentId":"490G00014056","towards":"Kingston"},{"icsId":"1003552","id":"490003552N","lat":51.39152,"lon":-0.31196,"name":"Electric Parade","parentId":"490G00003552","stationId":"490G00003552","stopLetter":"NT","topMostParentId":"490G00003552","towards":"Kingston"},{"icsId":"1013036","id":"490013036H","lat":51.3916,"lon":-0.30865,"name":"Surbiton Sainsbury's","parentId":"490G00013036","stationId":"490G00013036","stopLetter":"NA","topMostParentId":"490G00013036","towards":"Kingston"},{"icsId":"1001285","id":"490001285C","lat":51.39291,"lon":-0.30542,"name":"Surbiton Station","stopLetter":"NB","topMostParentId":"490001285C","towards":"Kingston"},{"icsId":"1019769","id":"490015165A","lat":51.39391,"lon":-0.30462,"name":"Claremont Road / Surbiton Station","parentId":"490G000949","stationId":"490G000949","stopLetter":"NC","topMostParentId":"490G000949","towards":"Kingston"},{"icsId":"1013315","id":"490013315N","lat":51.39626,"lon":-0.30415,"name":"The Crescent","parentId":"490G00013315","stationId":"490G00013315","stopLetter":"ND","topMostParentId":"490G00013315","towards":"Kingston Or Hampton Wick"},{"icsId":"1009627","id":"490009627N","lat":51.39861,"lon":-0.30458,"name":"Maple Road","parentId":"490G00009627","stationId":"490G00009627","stopLetter":"D","topMostParentId":"490G00009627","towards":"Kingston Or Hampton Wick"},{"icsId":"1013035","id":"490013035N","lat":51.40124,"lon":-0.30402,"name":"Surbiton Road / Penrhyn Road","parentId":"490G00013035","stationId":"490G00013035","stopLetter":"UE","topMostParentId":"490G00013035","towards":"Kingston Or Hampton Wick"},{"icsId":"1008830","id":"490008830N","lat":51.40327,"lon":-0.30451,"name":"Kingston University / County Hall","parentId":"490G00008830","stationId":"490G00008830","stopLetter":"UF","topMostParentId":"490G00008830","towards":"Kingston Or Teddington"},{"icsId":"1005498","id":"490005498N","lat":51.40621,"lon":-0.30417,"name":"Kingston Crown Court / Kingston College","parentId":"490G00005498","stationId":"490G00005498","stopLetter":"UJ","topMostParentId":"490G00005498","towards":"Kingston Or Teddington"},{"icsId":"1004478","id":"490004478G","lat":51.40851,"lon":-0.30374,"name":"Brook Street","parentId":"490G00004478","stationId":"490G00004478","stopLetter":"G","topMostParentId":"490G00004478","towards":"Teddington, Kingston Hospital Or Ham"},{"icsId":"1006412","id":"490006412E2","lat":51.41015,"lon":-0.30251,"name":"Eden Street","parentId":"490G00006412","stationId":"490G00006412","stopLetter":"E2","topMostParentId":"490G00006412","towards":"Kingston Hospital Or New Malden"},{"icsId":"1005800","id":"490005800A1","lat":51.41235,"lon":-0.29938,"name":"Cromwell Road Bus Station","parentId":"490G000476","stationId":"490G000476","stopLetter":"A1","topMostParentId":"490G000476","towards":"Kingston Hospital, New Malden Or Ham"},{"icsId":"1013664","id":"490013664C1","lat":51.41075,"lon":-0.29599,"name":"Tiffin School / London Road","parentId":"490G00013664","stationId":"490G00013664","stopLetter":"B","topMostParentId":"490G00013664","towards":"Kingston Vale, New Malden Or Raynes Park"},{"icsId":"1010295","id":"490010295E","lat":51.41097,"lon":-0.29312,"name":"Norbiton Church","parentId":"490G00010295","stationId":"490G00010295","stopLetter":"->E","topMostParentId":"490G00010295","towards":"Ham, Kingston Vale Or New Malden"},{"icsId":"1018701","id":"490009282NT","lat":51.41219,"lon":-0.28922,"name":"Gordon Road","parentId":"490G00018701","stationId":"490G00018701","stopLetter":"NT","topMostParentId":"490G00018701","towards":"New Malden Or Robin Hood Estate"},{"icsId":"1009282","id":"490018922E","lat":51.41265,"lon":-0.28657,"name":"Station Road","parentId":"490G00009282","stationId":"490G00009282","stopLetter":"NY","topMostParentId":"490G00009282","towards":"New Malden Or Robin Hood Estate"},{"icsId":"1001208","id":"490008823NB","lat":51.41299,"lon":-0.28174,"name":"Norbiton Station","stopLetter":"NB","topMostParentId":"490008823NB","towards":"New Malden Or Robin Hood Estate"},{"icsId":"1015315","id":"490015315NH","lat":51.41574,"lon":-0.28112,"name":"Kingston Hospital","parentId":"490G00015315","stationId":"490G00015315","stopLetter":"NH","topMostParentId":"490G00015315","towards":"Kingston Or Robin Hood Estate"},{"icsId":"1008825","id":"490008825N","lat":51.41838,"lon":-0.28015,"name":"George Road","parentId":"490G00008825","stationId":"490G00008825","stopLetter":"->N","topMostParentId":"490G00008825","towards":"Roehampton Or Robin Hood Estate"},{"icsId":"1011445","id":"490011445N","lat":51.42218,"lon":-0.27684,"name":"Ravenswood Court","parentId":"490G00011445","stationId":"490G00011445","stopLetter":"->N","topMostParentId":"490G00011445","towards":"Roehampton Or Robin Hood Estate"},{"icsId":"1014239","id":"490014239N","lat":51.42542,"lon":-0.27437,"name":"Warren Road","parentId":"490G00014239","stationId":"490G00014239","stopLetter":"A","topMostParentId":"490G00014239","towards":"Roehampton Or Robin Hood Estate"},{"icsId":"1007101","id":"490007101E","lat":51.42754,"lon":-0.27234,"name":"Galsworthy House","parentId":"490G00007101","stationId":"490G00007101","stopLetter":"B","topMostParentId":"490G00007101","towards":"Roehampton Or Robin Hood Estate"},{"icsId":"1008831","id":"490008831N","lat":51.42906,"lon":-0.26943,"name":"Kingston University","parentId":"490G00008831","stationId":"490G00008831","stopLetter":"C","topMostParentId":"490G00008831","towards":"Roehampton Or Robin Hood Estate"},{"icsId":"1014914","id":"490014914N","lat":51.43233,"lon":-0.26403,"name":"Woodview Close / Dorich House Museum","parentId":"490G00014914","stationId":"490G00014914","stopLetter":"D","topMostParentId":"490G00014914","towards":"Roehampton Or Robin Hood Estate"},{"icsId":"1013535","id":"490013535N","lat":51.4347,"lon":-0.25915,"name":"Robin Hood Lane","parentId":"490G00013535","stationId":"490G00013535","stopLetter":"E","topMostParentId":"490G00013535","towards":"Roehampton"},{"icsId":"1013892","id":"490013892W","lat":51.42935,"lon":-0.25857,"name":"Windermere Road","parentId":"490G00013892","stationId":"490G00013892","stopLetter":"H","topMostParentId":"490G00013892","towards":"Kingston Or Roehampton Vale"},{"icsId":"1004219","id":"490004219S","lat":51.42729,"lon":-0.25857,"name":"Bowness Crescent","parentId":"490G00004219","stationId":"490G00004219","stopLetter":"J","topMostParentId":"490G00004219","towards":"Kingston Or Roehampton Vale"},{"icsId":"1008686","id":"490008686N","lat":51.42776,"lon":-0.25646,"name":"Keswick Avenue","parentId":"490G00008686","stationId":"490G00008686","stopLetter":"K","topMostParentId":"490G00008686","towards":"Kingston Or Roehampton"},{"icsId":"1007379","id":"490007379N","lat":51.43174,"lon":-0.25707,"name":"Grasmere Avenue","parentId":"490G00007379","stationId":"490G00007379","stopLetter":"L","topMostParentId":"490G00007379","towards":"Roehampton Or Kingston"},{"icsId":"1013982","id":"490013982N","lat":51.43502,"lon":-0.25679,"name":"Vale Crescent / Robin Hood","parentId":"490G00013982","stationId":"490G00013982","stopLetter":"M","topMostParentId":"490G00013982","towards":"Kingston Or Roehampton"},{"icsId":"1008832","id":"490008832S2","lat":51.43879,"lon":-0.2477,"name":"Roehampton Vale / Asda","parentId":"490G00008832","stationId":"490G00008832","stopLetter":"PA","topMostParentId":"490G00008832","towards":"Norbiton"}]}]}