{"direction":"inbound","lineId":"n1","lineName":"N1","mode":"bus","stopPointSequences":[{"stopPoint":[{"icsId":"1013459","id":"490013459W","lat":51.50291,"lon":0.11664,"name":"Titmuss Avenue","parentId":"490G00013459","stationId":"490G00013459","stopLetter":"SF","topMostParentId":"490G00013459","towards":"Woolwich"},{"icsId":"1012364","id":"490012364N","lat":51.50213,"lon":0.11272,"name":"Southwood Road","parentId":"490G00012364","stationId":"490G00012364","stopLetter":"SG","topMostParentId":"490G00012364","towards":"Thamesmead Town Centre Or Woolwich"},{"icsId":"1007923","id":"490007923N","lat":51.50414,"lon":0.11125,"name":"Hawksmoor School","parentId":"490G00007923","stationId":"490G00007923","stopLetter":"SH","topMostParentId":"490G00007923","towards":"Woolwich"},{"icsId":"1007092","id":"490007092F","lat":51.50611,"lon":0.11003,"name":"Gallions Reach Health Centre","parentId":"490G00007092","stationId":"490G00007092","stopLetter":"F","topMostParentId":"490G00007092","towards":"Woolwich"},{"icsId":"1013214","id":"490013214A","lat":51.50743,"lon":0.10897,"name":"Thamesmead Town Centre","parentId":"490G00013214","stationId":"490G00013214","stopLetter":"A","topMostParentId":"490G00013214","towards":"Abbey Wood, Belvedere Or Woolwich"},{"icsId":"1009198","id":"490009198D","lat":51.50747,"lon":0.11276,"name":"Linton Mead Primary School","parentId":"490G00009198","stationId":"490G00009198","stopLetter":"D","topMostParentId":"490G00009198","towards":"Abbey Wood, Belvedere Or Woolwich"},{"icsId":"1008405","id":"490008405E","lat":51.50932,"lon":0.11638,"name":"Hoveton Road","parentId":"490G00008405","stationId":"490G00008405","topMostParentId":"490G00008405","towards":"Abbey Wood, Belvedere Or Woolwich"},{"icsId":"1010268","id":"490010268E","lat":51.50952,"lon":0.12006,"name":"Nickelby Close","parentId":"490G00010268","stationId":"490G00010268","stopLetter":"NE","topMostParentId":"490G00010268","towards":"Abbey Wood, Belvedere Or Woolwich"},{"icsId":"1006355","id":"490006355S","lat":51.50899,"lon":0.12618,"name":"Eastgate Close","parentId":"490G00006355","stationId":"490G00006355","stopLetter":"NG","topMostParentId":"490G00006355","towards":"Abbey Wood, Belvedere Or Woolwich"},{"icsId":"1009206","id":"490009206W","lat":51.50665,"lon":0.1266,"name":"Lister Walk","parentId":"490G00009206","stationId":"490G00009206","stopLetter":"NH","topMostParentId":"490G00009206","towards":"Abbey Wood, Belvedere Or Woolwich"},{"icsId":"1011113","id":"490011113W","lat":51.50606,"lon":0.12137,"name":"Poplar Place","parentId":"490G00011113","stationId":"490G00011113","stopLetter":"SE","topMostParentId":"490G00011113","towards":"Abbey Wood, Belvedere Or Woolwich"},{"icsId":"1004130","id":"490004130S","lat":51.50373,"lon":0.1192,"name":"Thamesmead / Carlyle Road","parentId":"490G00004130","stationId":"490G00004130","stopLetter":"SJ","topMostParentId":"490G00004130","towards":"Abbey Wood Or Belvedere"},{"icsId":"1010190","id":"490010190S","lat":51.49873,"lon":0.12165,"name":"Southmere Lake","parentId":"490G00010190","stationId":"490G00010190","stopLetter":"->S","topMostParentId":"490G00010190","towards":"Erith Or Plumstead"},{"icsId":"1013257","id":"490013257B","lat":51.49517,"lon":0.1212,"name":"Harrow Manorway / Yarnton Way","parentId":"490G00013257","stationId":"490G00013257","stopLetter":"B","topMostParentId":"490G00013257","towards":"Bexleyheath Or Erith"},{"icsId":"1010675","id":"490010675BA","lat":51.49348,"lon":0.12129,"name":"Overton Road","parentId":"490G00010675","stationId":"490G00010675","stopLetter":"BA","topMostParentId":"490G00010675","towards":"Bexleyheath Or Erith"},{"icsId":"1019855","id":"490001001D","lat":51.4906,"lon":0.12232,"name":"Harrow Manorway / Abbey Wood Station","parentId":"490G000957","stationId":"490G000957","stopLetter":"D","topMostParentId":"490G000957","towards":"Bexleyheath Or Erith"},{"icsId":"1005546","id":"490005546K","lat":51.4885,"lon":0.12021,"name":"Conference Road","parentId":"490G00005546","stationId":"490G00005546","stopLetter":"K","topMostParentId":"490G00005546","towards":"Woolwich"},{"icsId":"1007459","id":"490007459W","lat":51.48811,"lon":0.11719,"name":"Greening Street","parentId":"490G00007459","stationId":"490G00007459","stopLetter":"->W","topMostParentId":"490G00007459","towards":"Woolwich"},{"icsId":"1004164","id":"490004164W","lat":51.48748,"lon":0.11307,"name":"Mcleod Road / Bostall Lane","parentId":"490G00004164","stationId":"490G00004164","stopLetter":"->W","topMostParentId":"490G00004164","towards":"Woolwich"},{"icsId":"1004162","id":"490004162W","lat":51.48707,"lon":0.11048,"name":"Bostall Gardens","parentId":"490G00004162","stationId":"490G00004162","stopLetter":"->W","topMostParentId":"490G00004162","towards":"Woolwich"},{"icsId":"1004835","id":"490004835S","lat":51.48652,"lon":0.10741,"name":"Cassilda Road","parentId":"490G00004835","stationId":"490G00004835","stopLetter":"->S","topMostParentId":"490G00004835","towards":"Woolwich"},{"icsId":"1004163","id":"490004163S","lat":51.48487,"lon":0.10673,"name":"Basildon Road / Bostall Hill","parentId":"490G00004163","stationId":"490G00004163","stopLetter":"->S","topMostParentId":"490G00004163","towards":"Woolwich"},{"icsId":"1011075","id":"490011075W1","lat":51.48566,"lon":0.1007,"name":"Plumstead Corner / Rockmount Road","parentId":"490G00011075","stationId":"490G00011075","stopLetter":"WE","topMostParentId":"490G00011075","towards":"Woolwich"},{"icsId":"1001969","id":"490011077W","lat":51.48661,"lon":0.09601,"name":"Plumstead High St / the Plumstead Centre","parentId":"490G000293","stationId":"490G000293","stopLetter":"WH","topMostParentId":"490G000293","towards":"Woolwich"},{"icsId":"1003584","id":"490003584O","lat":51.48719,"lon":0.0932,"name":"Bannockburn Road","parentId":"490G00003584","stationId":"490G00003584","stopLetter":"WJ","topMostParentId":"490G00003584","towards":"Woolwich"},{"icsId":"1008908","id":"490008908S","lat":51.48784,"lon":0.09045,"name":"Lakedale Road","parentId":"490G00008908","stationId":"490G00008908","stopLetter":"WK","topMostParentId":"490G00008908","towards":"Woolwich"},{"icsId":"1019871","id":"490001227E","lat":51.49036,"lon":0.08353,"name":"Plumstead Road / Plumstead Station","parentId":"490G000959","stationId":"490G000959","stopLetter":"WM","topMostParentId":"490G000959","towards":"Woolwich"},{"icsId":"1014924","id":"490014924D","lat":51.4909,"lon":0.08027,"name":"Greenwich Community College","parentId":"490G00014924","stationId":"490G00014924","stopLetter":"WP","topMostParentId":"490G00014924","towards":"Queen Elizabeth Hosp, Charlton Or Shooters Hill"},{"icsId":"1009723","id":"490009723W","lat":51.49087,"lon":0.07687,"name":"Maxey Road","parentId":"490G00009723","stationId":"490G00009723","stopLetter":"->W","topMostParentId":"490G00009723","towards":"Queen Elizabeth Hosp, Charlton Or Shooters Hill"},{"icsId":"1002162","id":"490014934W1","lat":51.49111,"lon":0.07114,"name":"Woolwich Station","parentId":"910GWOLWXR","stationId":"910GWOLWXR","stopLetter":"D","topMostParentId":"910GWOLWXR","towards":"Greenwich Or North Greenwich"},{"icsId":"1003917","id":"490003917D","lat":51.49193,"lon":0.06812,"name":"Beresford Sq / Woolwich Arsenal Stn","parentId":"490G000411","stationId":"490G000411","stopLetter":"U","topMostParentId":"490G000411","towards":"Greenwich Or North Greenwich"},{"icsId":"1014928","id":"490014928A","lat":51.49346,"lon":0.06222,"name":"Woolwich Ferry","parentId":"490G00014928","stationId":"490G00014928","stopLetter":"A","topMostParentId":"490G00014928","towards":"Greenwich Or North Greenwich"},{"icsId":"1006982","id":"490006982DG","lat":51.49277,"lon":0.05562,"name":"Kingsman Street","parentId":"490G00006982","stationId":"490G00006982","stopLetter":"DG","topMostParentId":"490G00006982","towards":"Greenwich Or North Greenwich"},{"icsId":"1011247","id":"490011247DC","lat":51.49209,"lon":0.05101,"name":"Prospect Vale","parentId":"490G00011247","stationId":"490G00011247","stopLetter":"DC","topMostParentId":"490G00011247","towards":"North Greenwich, Blackheath Or Greenwich"},{"icsId":"1014247","id":"490014247W","lat":51.4924,"lon":0.04683,"name":"Warspite Road","parentId":"490G00014247","stationId":"490G00014247","stopLetter":"U","topMostParentId":"490G00014247","towards":"Greenwich Or North Greenwich"},{"icsId":"1020099","id":"490014923W","lat":51.49141,"lon":0.04227,"name":"Cleveley Close","parentId":"490G00020099","stationId":"490G00020099","stopLetter":"V","topMostParentId":"490G00020099","towards":"Greenwich Or North Greenwich"},{"icsId":"1013207","id":"490013207W","lat":51.49026,"lon":0.03988,"name":"Greenwich Trust School","parentId":"490G00013207","stationId":"490G00013207","stopLetter":"W","topMostParentId":"490G00013207","towards":"Greenwich Or North Greenwich"},{"icsId":"1010911","id":"490015556W","lat":51.4896,"lon":0.03807,"name":"Woolwich Road / Charlton Lane","parentId":"490G00010911","stationId":"490G00010911","stopLetter":"B","topMostParentId":"490G00010911","towards":"Greenwich Or North Greenwich"},{"icsId":"1012854","id":"490012854W","lat":51.48869,"lon":0.03523,"name":"Stone Lake Retail Park","parentId":"490G00012854","stationId":"490G00012854","stopLetter":"D","topMostParentId":"490G00012854","towards":"Greenwich Or North Greenwich"},{"icsId":"1019754","id":"490001058F","lat":51.48808,"lon":0.03249,"name":"Charlton Station  / Woolwich Road","parentId":"490G000946","stationId":"490G000946","stopLetter":"F","topMostParentId":"490G000946","towards":"Greenwich Or North Greenwich"},{"icsId":"1007093","id":"490007093W1","lat":51.48742,"lon":0.02793,"name":"Woolwich Road / Gallions Road","parentId":"490G00007093","stationId":"490G00007093","stopLetter":"->W","topMostParentId":"490G00007093","towards":"Greenwich Or North Greenwich"},{"icsId":"1011704","id":"490011704W","lat":51.48718,"lon":0.0254,"name":"Woolwich Road / Victoria Way","parentId":"490G00011704","stationId":"490G00011704","stopLetter":"->W","topMostParentId":"490G00011704","towards":"Greenwich Or North Greenwich"},{"icsId":"1011398","id":"490011398J","lat":51.48663,"lon":0.02258,"name":"Rainton Road","parentId":"490G00011398","stationId":"490G00011398","stopLetter":"J","topMostParentId":"490G00011398","towards":"Greenwich Or North Greenwich"},{"icsId":"1006356","id":"490006356W","lat":51.48627,"lon":0.01631,"name":"Kemsing Road","parentId":"490G00006356","stationId":"490G00006356","stopLetter":"D","topMostParentId":"490G00006356","towards":"North Greenwich, Deptford Or Kidbrooke"},{"icsId":"1009685","id":"490009685W","lat":51.4861,"lon":0.01296,"name":"Marlton Street","parentId":"490G00009685","stationId":"490G00009685","stopLetter":"Q","topMostParentId":"490G00009685","towards":"North Greenwich, Deptford Or Kidbrooke"},{"icsId":"1003334","id":"490003334W","lat":51.48614,"lon":0.01102,"name":"Calvert Road","parentId":"490G00003334","stationId":"490G00003334","stopLetter":"->W","topMostParentId":"490G00003334","towards":"North Greenwich, Deptford Or Kidbrooke"},{"icsId":"1015332","id":"490007510A","lat":51.48623,"lon":0.00885,"name":"Vanbrugh Hill","parentId":"490G00015332","stationId":"490G00015332","stopLetter":"A","topMostParentId":"490G00015332","towards":"Deptford Or Kidbrooke"},{"icsId":"1004081","id":"490005224L","lat":51.48528,"lon":0.00559,"name":"Tyler Street","parentId":"490G00004081","stationId":"490G00004081","stopLetter":"L","topMostParentId":"490G00004081","towards":"Blackheath Village, Deptford Or Lewisham"},{"icsId":"1009754","id":"490009754G","lat":51.48363,"lon":0.00011,"name":"Trafalgar Road / Maze Hill","parentId":"490G000663","stationId":"490G000663","stopLetter":"G","topMostParentId":"490G000663","towards":"Blackheath Village, Deptford Or Lewisham"},{"icsId":"1013764","id":"490013764T","lat":51.48293,"lon":-0.00275,"name":"Trafalgar Estate","parentId":"490G00013764","stationId":"490G00013764","stopLetter":"T","topMostParentId":"490G00013764","towards":"Blackheath Village, Deptford Or Lewisham"},{"icsId":"1006196","id":"490006196G","lat":51.48146,"lon":-0.00712,"name":"National Maritime Museum","parentId":"490G000489","stationId":"490G000489","stopLetter":"G","topMostParentId":"490G000489","towards":"Blackheath Village, Deptford Or Lewisham"},{"icsId":"1007507","id":"490007507B","lat":51.4812,"lon":-0.00998,"name":"Greenwich Church Street","parentId":"490G000547","stationId":"490G000547","stopLetter":"B","topMostParentId":"490G000547","towards":"Surrey Quays and Central London"},{"icsId":"1010309","id":"490010309W","lat":51.48136,"lon":-0.01393,"name":"Creek Road / Norman Road","parentId":"490G00010309","stationId":"490G00010309","stopLetter":"W","topMostParentId":"490G00010309","towards":"Surrey Quays"},{"icsId":"1005736","id":"490005736W","lat":51.48122,"lon":-0.01815,"name":"Creekside","parentId":"490G00005736","stationId":"490G00005736","stopLetter":"G","topMostParentId":"490G00005736","towards":"Surrey Quays"},{"icsId":"1011687","id":"490011687H","lat":51.4808,"lon":-0.02205,"name":"Macmillan Students Village","parentId":"490G00011687","stationId":"490G00011687","stopLetter":"H","topMostParentId":"490G00011687","towards":"Surrey Quays"},{"icsId":"1006050","id":"490006050A","lat":51.48179,"lon":-0.02763,"name":"Deptford High Street","parentId":"490G00006050","stationId":"490G00006050","stopLetter":"A","topMostParentId":"490G00006050","towards":"Surrey Quays"},{"icsId":"1007585","id":"490007585W","lat":51.48364,"lon":-0.03149,"name":"Abinger Grove","parentId":"490G00007585","stationId":"490G00007585","stopLetter":"N","topMostParentId":"490G00007585","towards":"Surrey Quays"},{"icsId":"1006049","id":"490006049N","lat":51.48534,"lon":-0.03433,"name":"Deptford Fire Station","parentId":"490G00006049","stationId":"490G00006049","stopLetter":"P","topMostParentId":"490G00006049","towards":"Surrey Quays"},{"icsId":"1006052","id":"490006052W","lat":51.48793,"lon":-0.03844,"name":"Deptford Park School","parentId":"490G00006052","stationId":"490G00006052","stopLetter":"Q","topMostParentId":"490G00006052","towards":"Rotherhithe"},{"icsId":"1003944","id":"490003944N","lat":51.48976,"lon":-0.04189,"name":"Bestwood Street","parentId":"490G00003944","stationId":"490G00003944","stopLetter":"->N","topMostParentId":"490G00003944","towards":"Rotherhithe"},{"icsId":"1004655","id":"490004655N","lat":51.49107,"lon":-0.04517,"name":"Bush Road","parentId":"490G00004655","stationId":"490G00004655","stopLetter":"N","topMostParentId":"490G00004655","towards":"London Bridge Or Elephant & Castle"},{"icsId":"1011722","id":"490011722Q","lat":51.49113,"lon":-0.04918,"name":"Warndon Street","parentId":"490G00011722","stationId":"490G00011722","stopLetter":"Q","topMostParentId":"490G00011722","towards":"Elephant & Castle Or Peckham"},{"icsId":"1005603","id":"490005603W","lat":51.49064,"lon":-0.05404,"name":"Corbetts Lane","parentId":"490G00005603","stationId":"490G00005603","stopLetter":"RE","topMostParentId":"490G00005603","towards":"Elephant & Castle Or Peckham"},{"icsId":"1011719","id":"490011719A","lat":51.48892,"lon":-0.05731,"name":"Rotherhithe New Rd / Sth Bermondsey Stn","parentId":"490G000728","stationId":"490G000728","stopLetter":"RF","topMostParentId":"490G000728","towards":"Elephant & Castle Or Peckham"},{"icsId":"1009482","id":"490009482N","lat":51.4902,"lon":-0.05978,"name":"Lynton Road","parentId":"490G00009482","stationId":"490G00009482","stopLetter":"GP","topMostParentId":"490G00009482","towards":"Elephant & Castle Or Peckham"},{"icsId":"1003311","id":"490003311N","lat":51.49158,"lon":-0.06062,"name":"Anchor Street","parentId":"490G00003311","stationId":"490G00003311","stopLetter":"GQ","topMostParentId":"490G00003311","towards":"Elephant & Castle Or Peckham"},{"icsId":"1012353","id":"490012353W","lat":51.49225,"lon":-0.06487,"name":"Southwark Park Road / St James's Road","parentId":"490G00012353","stationId":"490G00012353","stopLetter":"PG","topMostParentId":"490G00012353","towards":"Elephant & Castle Or Peckham"},{"icsId":"1011538","id":"490011538W","lat":51.49269,"lon":-0.06952,"name":"Reverdy Road","parentId":"490G00011538","stationId":"490G00011538","stopLetter":"PH","topMostParentId":"490G00011538","towards":"Elephant & Castle"},{"icsId":"1003275","id":"490003275W","lat":51.49362,"lon":-0.07444,"name":"Alscot Road","parentId":"490G00003275","stationId":"490G00003275","stopLetter":"U","topMostParentId":"490G00003275","towards":"Elephant & Castle Or Tower Bridge"},{"icsId":"1012367","id":"490012367W","lat":51.49537,"lon":-0.07766,"name":"Spa Road","parentId":"490G00012367","stationId":"490G00012367","stopLetter":"V","topMostParentId":"490G00012367","towards":"Elephant & Castle Or Tower Bridge"},{"icsId":"1007362","id":"490007362S","lat":51.4964,"lon":-0.08227,"name":"Grange Road / Caledonian Market","parentId":"490G00007362","stationId":"490G00007362","stopLetter":"J","topMostParentId":"490G00007362","towards":"Elephant & Castle"},{"icsId":"1019012","id":"490015272BJ","lat":51.49515,"lon":-0.08396,"name":"Bricklayer's Arms / Tower Bridge Road","parentId":"490G00019012","stationId":"490G00019012","stopLetter":"BJ","topMostParentId":"490G00019012","towards":"Camberwell Or Elephant & Castle"},{"icsId":"1003658","id":"490003658BS","lat":51.49403,"lon":-0.09024,"name":"Bricklayer's Arms / New Kent Road","parentId":"490G00003658","stationId":"490G00003658","stopLetter":"BS","topMostParentId":"490G00003658","towards":"Elephant & Castle"},{"icsId":"1011632","id":"490011632BT","lat":51.49417,"lon":-0.09467,"name":"Rodney Place","parentId":"490G00011632","stationId":"490G00011632","stopLetter":"BT","topMostParentId":"490G00011632","towards":"Blackfriars, Waterloo Or Westminster"},{"icsId":"1009298","id":"490000073N","lat":51.49498,"lon":-0.09923,"name":"Elephant & Castle / New Kent Road","parentId":"490G000645","stationId":"490G000645","stopLetter":"N","topMostParentId":"HUBEPH","towards":"Blackfriars, Kennington Or Waterloo"},{"icsId":"1009281","id":"490009281A","lat":51.49613,"lon":-0.10171,"name":"Elephant & Castle / London Road","parentId":"490G000642","stationId":"490G000642","stopLetter":"A","topMostParentId":"490G000642","towards":"Blackfriars Or Waterloo"},{"icsId":"1012693","id":"490012693N1","lat":51.49967,"lon":-0.10724,"name":"St George's Circus","parentId":"490G00012693","stationId":"490G00012693","stopLetter":"P","topMostParentId":"490G00012693","towards":"Aldwych"},{"icsId":"1013485","id":"490013485N","lat":51.50129,"lon":-0.10909,"name":"The Old Vic","parentId":"490G00013485","stationId":"490G00013485","stopLetter":"Q","topMostParentId":"490G00013485","towards":"Aldwych"},{"icsId":"1003713","id":"490000254K","lat":51.50436,"lon":-0.11374,"name":"Waterloo Station / Tenison Way","parentId":"490G000402","stationId":"490G000402","stopLetter":"K","topMostParentId":"HUBWAT","towards":"Holborn, Russell Square Or Euston"},{"icsId":"1014271","id":"490014270P","lat":51.50626,"lon":-0.115,"name":"Waterloo Bridge / South Bank","parentId":"490G000819","stationId":"490G000819","stopLetter":"P","topMostParentId":"490G000819","towards":"Trafalgar Square, Fleet Street Or Holborn"},{"icsId":"1008932","id":"490008932T","lat":51.51045,"lon":-0.11872,"name":"Lancaster Place","parentId":"490G00008932","stationId":"490G00008932","stopLetter":"T","topMostParentId":"490G00008932","towards":"Trafalgar Square, Fleet Street Or Holborn"},{"icsId":"1003195","id":"490003191F","lat":51.51314,"lon":-0.11795,"name":"Aldwych / Kingsway","parentId":"490G00003195","stationId":"490G00003195","stopLetter":"F","topMostParentId":"490G00003195","towards":"Russell Square Or Tottenham Court Road"},{"icsId":"1000112","id":"490000112P","lat":51.51693,"lon":-0.12021,"name":"Holborn Station","stopLetter":"P","topMostParentId":"490000112P","towards":"Holborn Circus Or Old Street","zone":"1"},{"icsId":"1006203","id":"490006203RA","lat":51.51636,"lon":-0.12384,"name":"Drury Lane","parentId":"490G00006203","stationId":"490G00006203","stopLetter":"S","topMostParentId":"490G00006203","towards":"Tottenham Court Road"},{"icsId":"1000235","id":"490000235N","lat":51.51602,"lon":-0.12874,"name":"Tottenham Court Road","stopLetter":"T","topMostParentId":"490000235N","zone":"1"}]}]}