{"direction":"inbound","lineId":"n109","lineName":"N109","mode":"bus","stopPointSequences":[{"stopPoint":[{"icsId":"1010697","id":"490000173RF","lat":51.51594,"lon":-0.14222,"name":"Oxford Circus Stn  / Margaret Street","parentId":"490G000694","stationId":"490G000694","stopLetter":"RF","topMostParentId":"490G000694","towards":"Trafalgar Square Or Green Park"},{"icsId":"1000173","id":"490000173RG","lat":51.51459,"lon":-0.14167,"name":"Oxford Circus Station","stopLetter":"RG","topMostParentId":"490000173RG","towards":"Trafalgar Square Or Green Park","zone":"1"},{"icsId":"1004810","id":"490004810RJ","lat":51.51234,"lon":-0.13986,"name":"Conduit Street / Hamleys Toy Store","parentId":"490G00004810","stationId":"490G00004810","stopLetter":"T","topMostParentId":"490G00004810","towards":"Parliament Square"},{"icsId":"1000179","id":"490000179F","lat":51.50996,"lon":-0.13689,"name":"Piccadilly Circus","stopLetter":"F","topMostParentId":"490000179F","towards":"Aldwych Or Parliament Square","zone":"1"},{"icsId":"1007960","id":"490007960P","lat":51.50898,"lon":-0.1321,"name":"Haymarket / Charles Il Street","parentId":"490G00007960","stationId":"490G00007960","stopLetter":"P","topMostParentId":"490G00007960","towards":"Parliament Square"},{"icsId":"1013767","id":"490013767A","lat":51.50763,"lon":-0.1298,"name":"Trafalgar Sq / Charing Cross Stn","parentId":"490G000804","stationId":"490G000804","stopLetter":"A","topMostParentId":"490G000804","towards":"Lambeth Or Vauxhall"},{"icsId":"1014585","id":"490014585M","lat":51.50648,"lon":-0.12714,"name":"Whitehall / Trafalgar Square","parentId":"490G000832","stationId":"490G000832","stopLetter":"M","topMostParentId":"490G000832","towards":"Brixton"},{"icsId":"1019475","id":"490019475P","lat":51.50529,"lon":-0.12646,"name":"Whitehall / Horseguards Avenue","parentId":"490G00019475","stationId":"490G00019475","stopLetter":"P","topMostParentId":"490G00019475","towards":"Kennington Or Elephant & Castle"},{"icsId":"1008376","id":"490008376S","lat":51.50432,"lon":-0.12609,"name":"Horse Guards Parade","parentId":"490G00008376","stationId":"490G00008376","stopLetter":"->S","topMostParentId":"490G00008376","towards":"Elephant & Castle, Vauxhall Or Victoria"},{"icsId":"1020361","id":"490000266G","lat":51.5016,"lon":-0.12599,"name":"Westminster Stn  / Parliament Square","parentId":"490G00020361","stationId":"490G00020361","stopLetter":"G","topMostParentId":"HUBWSM","towards":"Kennington Or Elephant & Castle"},{"icsId":"1018956","id":"490005646E","lat":51.50083,"lon":-0.11802,"name":"St Thomas' Hospital / County Hall","parentId":"490G00018956","stationId":"490G00018956","stopLetter":"E","topMostParentId":"490G00018956","towards":"Elephant & Castle, Kennington Or Waterloo"},{"icsId":"1009420","id":"490009420E","lat":51.50014,"lon":-0.11468,"name":"Lower Marsh","parentId":"490G00009420","stationId":"490G00009420","stopLetter":"K","topMostParentId":"490G00009420","towards":"Aldwych, Elephant & Castle Or Kennington"},{"icsId":"1000132","id":"490000132A","lat":51.49811,"lon":-0.11197,"name":"Lambeth North Station","stopLetter":"A","topMostParentId":"490000132A","towards":"Kennington","zone":"1"},{"icsId":"1008476","id":"490008473S","lat":51.49474,"lon":-0.11077,"name":"Kennington Road / Imperial War Museum","parentId":"490G000608","stationId":"490G000608","stopLetter":"S","topMostParentId":"490G000608","towards":"Brixton Or Pimlico"},{"icsId":"1006864","id":"490006864S1","lat":51.49203,"lon":-0.11091,"name":"Fitzalan Street","parentId":"490G00006864","stationId":"490G00006864","stopLetter":"KF","topMostParentId":"490G00006864","towards":"Brixton Or Pimlico"},{"icsId":"1008643","id":"490008643KE","lat":51.4898,"lon":-0.11091,"name":"Kennington Lane","parentId":"490G00008643","stationId":"490G00008643","stopLetter":"KE","topMostParentId":"490G00008643","towards":"Brixton"},{"icsId":"1014773","id":"490014773KQ","lat":51.48757,"lon":-0.11124,"name":"Windmill Row","parentId":"490G00014773","stationId":"490G00014773","stopLetter":"KQ","topMostParentId":"490G00014773","towards":"Brixton"},{"icsId":"1008645","id":"490008645X","lat":51.48505,"lon":-0.11039,"name":"Kennington Park Post Office","parentId":"490G00008645","stationId":"490G00008645","stopLetter":"X","topMostParentId":"490G00008645","towards":"Brixton"},{"icsId":"1008642","id":"490008642J","lat":51.48018,"lon":-0.11127,"name":"St Mark's Church","parentId":"490G00008642","stationId":"490G00008642","stopLetter":"J","topMostParentId":"490G00008642","towards":"Streatham Hill"},{"icsId":"1014013","id":"490014013S","lat":51.47606,"lon":-0.11242,"name":"Vassall Road","parentId":"490G00014013","stationId":"490G00014013","stopLetter":"RH","topMostParentId":"490G00014013","towards":"Herne Hill, Streatham Hill Or Tulse Hill"},{"icsId":"1007587","id":"490007587S","lat":51.47354,"lon":-0.11265,"name":"Groveway","parentId":"490G00007587","stationId":"490G00007587","stopLetter":"RJ","topMostParentId":"490G00007587","towards":"Herne Hill, Streatham Hill Or Tulse Hill"},{"icsId":"1009373","id":"490009373S1","lat":51.46975,"lon":-0.11243,"name":"Loughborough Road","parentId":"490G00009373","stationId":"490G00009373","stopLetter":"RK","topMostParentId":"490G00009373","towards":"Herne Hill, Streatham Hill Or Tulse Hill"},{"icsId":"1014085","id":"490014085S","lat":51.4675,"lon":-0.11271,"name":"Villa Road","parentId":"490G00014085","stationId":"490G00014085","stopLetter":"RL","topMostParentId":"490G00014085","towards":"Herne Hill, Streatham Hill Or Tulse Hill"},{"icsId":"1007523","id":"490007523G","lat":51.46539,"lon":-0.11372,"name":"Brixton Road / Brixton Police Station","parentId":"490G000549","stationId":"490G000549","stopLetter":"G","topMostParentId":"490G000549","towards":"Streatham Hill"},{"icsId":"1000031","id":"490000031P","lat":51.46198,"lon":-0.11522,"name":"Brixton Station","stopLetter":"P","topMostParentId":"490000031P","towards":"Streatham Hill","zone":"2"},{"icsId":"1011793","id":"490011793S","lat":51.45879,"lon":-0.11693,"name":"Rush Common","parentId":"490G00011793","stationId":"490G00011793","stopLetter":"BA","topMostParentId":"490G00011793","towards":"Clapham Park Or Streatham"},{"icsId":"1004362","id":"490004362S1","lat":51.45634,"lon":-0.11833,"name":"Brixton Water Lane","parentId":"490G00004362","stationId":"490G00004362","stopLetter":"BB","topMostParentId":"490G00004362","towards":"Clapham Park Or Streatham"},{"icsId":"1004101","id":"490004101S","lat":51.45406,"lon":-0.12,"name":"Blenheim Gardens","parentId":"490G00004101","stationId":"490G00004101","stopLetter":"BC","topMostParentId":"490G00004101","towards":"Streatham"},{"icsId":"1008544","id":"490008544S","lat":51.45221,"lon":-0.1212,"name":"Jebb Avenue / Brixton Prison","parentId":"490G00008544","stationId":"490G00008544","stopLetter":"BD","topMostParentId":"490G00008544","towards":"Clapham Park Or Streatham"},{"icsId":"1015218","id":"490015218S","lat":51.44882,"lon":-0.12366,"name":"New Park Road","parentId":"490G00015218","stationId":"490G00015218","stopLetter":"BE","topMostParentId":"490G00015218","towards":"Clapham Park Or Streatham"},{"icsId":"1008310","id":"490008310S","lat":51.44706,"lon":-0.12421,"name":"Holmewood Road","parentId":"490G00008310","stationId":"490G00008310","stopLetter":"BF","topMostParentId":"490G00008310","towards":"Clapham Park, Streatham Common Or Tooting"},{"icsId":"1019763","id":"490005234S","lat":51.44429,"lon":-0.12442,"name":"Streatham Hill / Christchurch Road","parentId":"490G00019763","stationId":"490G00019763","stopLetter":"BH","topMostParentId":"490G00019763","towards":"Crystal Palace, Norbury Or Tooting"},{"icsId":"1013186","id":"490013186S","lat":51.44202,"lon":-0.12438,"name":"Telford Avenue","parentId":"490G00013186","stationId":"490G00013186","stopLetter":"W","topMostParentId":"490G00013186","towards":"Crystal Palace, Norbury Or Tooting"},{"icsId":"1019944","id":"490001281D","lat":51.4394,"lon":-0.12583,"name":"Streatham Hill Stn  / Streatham Hill","parentId":"490G000969","stationId":"490G000969","stopLetter":"D","topMostParentId":"490G000969","towards":"Crystal Palace, Norbury Or Tooting"},{"icsId":"1009076","id":"490009076F","lat":51.43718,"lon":-0.12717,"name":"Leigham Court Road","parentId":"490G000632","stationId":"490G000632","stopLetter":"F","topMostParentId":"490G000632","towards":"Norbury"},{"icsId":"1010078","id":"490010078J","lat":51.43593,"lon":-0.12774,"name":"Mount Ephraim Road","parentId":"490G00010078","stationId":"490G00010078","stopLetter":"J","topMostParentId":"490G00010078","towards":"Mitcham, Norbury Or Tooting"},{"icsId":"1008765","id":"490008765L","lat":51.43444,"lon":-0.12796,"name":"Kingscourt Road","parentId":"490G00008765","stationId":"490G00008765","stopLetter":"L","topMostParentId":"490G00008765","towards":"Mitcham, Norbury Or Tooting"},{"icsId":"1003758","id":"490003758N","lat":51.43235,"lon":-0.12885,"name":"Becmead Avenue","parentId":"490G00003758","stationId":"490G00003758","stopLetter":"N","topMostParentId":"490G00003758","towards":"Norbury"},{"icsId":"1012761","id":"490012761U","lat":51.42856,"lon":-0.1308,"name":"St Leonard's Church","parentId":"490G00012761","stationId":"490G00012761","stopLetter":"SA","topMostParentId":"490G00012761","towards":"Crystal Palace, Norbury Or Pollards Hill"},{"icsId":"1001279","id":"490001279S2","lat":51.4253,"lon":-0.13064,"name":"Streatham Station","stopLetter":"SC","topMostParentId":"490001279S2","towards":"Norbury"},{"icsId":"1012929","id":"490012929S5","lat":51.42401,"lon":-0.12998,"name":"Streatham United Reformed Church","parentId":"490G00012929","stationId":"490G00012929","stopLetter":"SD","topMostParentId":"490G00012929","towards":"Norbury"},{"icsId":"1012924","id":"490012924S","lat":51.42111,"lon":-0.12849,"name":"Streatham Common / Greyhound Lane","parentId":"490G00012924","stationId":"490G00012924","stopLetter":"CH","topMostParentId":"490G00012924","towards":"Pollards Hill Or Thornton Heath"},{"icsId":"1003389","id":"490003389S","lat":51.41711,"lon":-0.12615,"name":"Arragon Gardens","parentId":"490G00003389","stationId":"490G00003389","stopLetter":"CJ","topMostParentId":"490G00003389","towards":"Pollards Hill Or Thornton Heath"},{"icsId":"1008080","id":"490008080L","lat":51.41487,"lon":-0.12383,"name":"Hermitage Lane","parentId":"490G00008080","stationId":"490G00008080","stopLetter":"L","topMostParentId":"490G00008080","towards":"Pollards Hill Or Thornton Heath"},{"icsId":"1001209","id":"490001209A","lat":51.41307,"lon":-0.12423,"name":"Norbury Station","stopLetter":"A","topMostParentId":"490001209A","towards":"Pollards Hill Or Thornton Heath"},{"icsId":"1009285","id":"490012715D","lat":51.40992,"lon":-0.1223,"name":"St Helen's Road","parentId":"490G00009285","stationId":"490G00009285","stopLetter":"D","topMostParentId":"490G00009285","towards":"Pollards Hill Or Croydon"},{"icsId":"1013884","id":"490013884F","lat":51.40822,"lon":-0.12174,"name":"Tylecroft Road","parentId":"490G00013884","stationId":"490G00013884","stopLetter":"F","topMostParentId":"490G00013884","towards":"Croydon"},{"icsId":"1006414","id":"490006414S","lat":51.40458,"lon":-0.11968,"name":"Ederline Avenue","parentId":"490G00006414","stationId":"490G00006414","stopLetter":"U","topMostParentId":"490G00006414","towards":"Croydon"},{"icsId":"1019843","id":"490007099S","lat":51.40041,"lon":-0.11769,"name":"London Road / Galpins Road","parentId":"490G00019843","stationId":"490G00019843","stopLetter":"F","topMostParentId":"490G00019843","towards":"Croydon"},{"icsId":"1008030","id":"490008030S","lat":51.39853,"lon":-0.11643,"name":"Heathview Road","parentId":"490G00008030","stationId":"490G00008030","stopLetter":"U","topMostParentId":"490G00008030","towards":"Croydon"},{"icsId":"1008939","id":"490008939S","lat":51.39719,"lon":-0.11562,"name":"Langdale Road","parentId":"490G00008939","stationId":"490G00008939","stopLetter":"V","topMostParentId":"490G00008939","towards":"Croydon"},{"icsId":"1005501","id":"490005501T","lat":51.39539,"lon":-0.11476,"name":"Colliers Water Lane","parentId":"490G00005501","stationId":"490G00005501","stopLetter":"T","topMostParentId":"490G00005501","towards":"Croydon"},{"icsId":"1013632","id":"490013632G","lat":51.39236,"lon":-0.11334,"name":"Thornton Heath Pond","parentId":"490G00013632","stationId":"490G00013632","stopLetter":"G","topMostParentId":"490G00013632","towards":"Croydon"},{"icsId":"1006250","id":"490006250E","lat":51.39128,"lon":-0.11252,"name":"Dunheved Road North","parentId":"490G00006250","stationId":"490G00006250","stopLetter":"E","topMostParentId":"490G00006250","towards":"Croydon Town Centre"},{"icsId":"1009732","id":"490009732C","lat":51.38877,"lon":-0.11137,"name":"Croydon University Hospital","parentId":"490G00009732","stationId":"490G00009732","stopLetter":"C","topMostParentId":"490G00009732","towards":"Croydon Town Centre"},{"icsId":"1004368","id":"490004368S","lat":51.38545,"lon":-0.1098,"name":"Broad Green Avenue","parentId":"490G00004368","stationId":"490G00004368","stopLetter":"LA","topMostParentId":"490G00004368","towards":"Croydon Town Centre"},{"icsId":"1004367","id":"490004367S","lat":51.3827,"lon":-0.10696,"name":"Sumner Road","parentId":"490G00004367","stationId":"490G00004367","stopLetter":"LB","topMostParentId":"490G00004367","towards":"Croydon Town Centre"},{"icsId":"1005856","id":"490005856W4","lat":51.38127,"lon":-0.10554,"name":"Montague Road","parentId":"490G00005856","stationId":"490G00005856","stopLetter":"LC","topMostParentId":"490G00005856","towards":"Croydon Town Centre"},{"icsId":"1001324","id":"490001324W6","lat":51.37875,"lon":-0.10313,"name":"West Croydon Station","stopLetter":"WB","topMostParentId":"490001324W6","towards":"Addiscombe Or South Croydon"},{"icsId":"1011116","id":"490011116W8","lat":51.3781,"lon":-0.10125,"name":"Poplar Walk","parentId":"490G000709","stationId":"490G000709","stopLetter":"WE","topMostParentId":"490G000709","towards":"Addiscombe Or South Croydon"},{"icsId":"1014614","id":"490014614E10","lat":51.3769,"lon":-0.09844,"name":"Whitgift Centre","parentId":"490G00014614","stationId":"490G00014614","stopLetter":"WK","topMostParentId":"490G00014614","towards":"South Croydon"},{"icsId":"1010839","id":"490010839C4","lat":51.37343,"lon":-0.09822,"name":"Park Street","parentId":"490G00010839","stationId":"490G00010839","stopLetter":"KJ","topMostParentId":"490G00010839","towards":"South Croydon"}]}]}