{"direction":"inbound","lineId":"n11","lineName":"N11","mode":"bus","stopPointSequences":[{"stopPoint":[{"icsId":"1014585","id":"490014585N","lat":51.50627,"lon":-0.12699,"name":"Whitehall / Trafalgar Square","parentId":"490G000832","stationId":"490G000832","stopLetter":"N","topMostParentId":"490G000832","towards":"Victoria Or Vauxhall"},{"icsId":"1008376","id":"490008376S","lat":51.50432,"lon":-0.12609,"name":"Horse Guards Parade","parentId":"490G00008376","stationId":"490G00008376","stopLetter":"->S","topMostParentId":"490G00008376","towards":"Elephant & Castle, Vauxhall Or Victoria"},{"icsId":"1020361","id":"490015048T","lat":51.50248,"lon":-0.126,"name":"Westminster Stn  / Parliament Square","parentId":"490G00020361","stationId":"490G00020361","stopLetter":"F","topMostParentId":"HUBWSM","towards":"Kennington, Vauxhall Or Victoria"},{"icsId":"1019865","id":"490014495V","lat":51.49869,"lon":-0.13144,"name":"Great Smith Street / Westminster Abbey","parentId":"490G00019865","stationId":"490G00019865","stopLetter":"V","topMostParentId":"490G00019865","towards":"Victoria"},{"icsId":"1000221","id":"490010260SD","lat":51.49758,"lon":-0.1348,"name":"St James's Park Station","stopLetter":"SD","topMostParentId":"490010260SD","towards":"Pimlico, Sloane Square Or Marble Arch","zone":"1"},{"icsId":"1003384","id":"490003384SB","lat":51.49715,"lon":-0.13745,"name":"Westminster City Hall","parentId":"490G000394","stationId":"490G000394","stopLetter":"SB","topMostParentId":"490G000394","towards":"Marble Arch, Pimlico Or Sloane Square"},{"icsId":"1014502","id":"490014496M","lat":51.4966,"lon":-0.1411,"name":"Westminster Cathedral / Victoria Stn","parentId":"490G000830","stationId":"490G000830","stopLetter":"M","topMostParentId":"490G000830","towards":"Marble Arch, Pimlico Or Sloane Square"},{"icsId":"1000248","id":"490014050R","lat":51.49577,"lon":-0.14539,"name":"Victoria Station","stopLetter":"R","topMostParentId":"490014050R","towards":"Sloane Square","zone":"1"},{"icsId":"1014051","id":"490014051V","lat":51.49209,"lon":-0.14804,"name":"Victoria Coach Station","parentId":"490G000813","stationId":"490G000813","stopLetter":"V","topMostParentId":"490G000813","towards":"Chelsea Bridge, Sloane Square Or Pimlico"},{"icsId":"1020327","id":"490006399W","lat":51.49074,"lon":-0.15163,"name":"Pimlico Road / Ebury Bridge Road","parentId":"490G00020327","stationId":"490G00020327","stopLetter":"Q","topMostParentId":"490G00020327","towards":"Battersea Or Chelsea"},{"icsId":"1011764","id":"490011763N","lat":51.48995,"lon":-0.15647,"name":"Royal Hospital Road","parentId":"490G00011764","stationId":"490G00011764","stopLetter":"L","topMostParentId":"490G00011764","towards":"South Kensington, Fulham Or Knightsbridge"},{"icsId":"1000206","id":"490000206K","lat":51.49145,"lon":-0.15749,"name":"Sloane Square Station","stopLetter":"K","topMostParentId":"490000206K","towards":"South Kensington, Fulham Or Knightsbridge","zone":"1"},{"icsId":"1006224","id":"490006224G","lat":51.49114,"lon":-0.1605,"name":"Duke of York Square","parentId":"490G00006224","stationId":"490G00006224","stopLetter":"G","topMostParentId":"490G00006224","towards":"Battersea, Putney Or Fulham"},{"icsId":"1014150","id":"490014150KA","lat":51.4902,"lon":-0.16227,"name":"Walpole Street","parentId":"490G00014150","stationId":"490G00014150","stopLetter":"KA","topMostParentId":"490G00014150","towards":"Battersea, Putney Or Fulham Broadway"},{"icsId":"1009666","id":"490009666KB","lat":51.489,"lon":-0.16476,"name":"Markham Street","parentId":"490G00009666","stationId":"490G00009666","stopLetter":"KB","topMostParentId":"490G00009666","towards":"Battersea, Putney Or Fulham Broadway"},{"icsId":"1005073","id":"490005073KC","lat":51.48831,"lon":-0.16663,"name":"Chelsea Old Town Hall","parentId":"490G00005073","stationId":"490G00005073","stopLetter":"KC","topMostParentId":"490G00005073","towards":"Battersea, Putney Or Fulham Broadway"},{"icsId":"1004809","id":"490004809KD","lat":51.48643,"lon":-0.17132,"name":"Carlyle Square","parentId":"490G00004809","stationId":"490G00004809","stopLetter":"KD","topMostParentId":"490G00004809","towards":"Battersea, Putney Or Fulham Broadway"},{"icsId":"1003682","id":"490015145W","lat":51.48473,"lon":-0.1751,"name":"Beaufort Street","parentId":"490G00003682","stationId":"490G00003682","stopLetter":"QN","topMostParentId":"490G00003682","towards":"Fulham Broadway Or Putney Bridge"},{"icsId":"1005076","id":"490005076W","lat":51.48226,"lon":-0.17923,"name":"Edith Grove / Worlds End","parentId":"490G00005076","stationId":"490G00005076","stopLetter":"QR","topMostParentId":"490G00005076","towards":"Earls Court, Fulham Or Putney"},{"icsId":"1009370","id":"490009370W","lat":51.48057,"lon":-0.18483,"name":"Worlds End Health Centre","parentId":"490G00009370","stationId":"490G00009370","stopLetter":"GH","topMostParentId":"490G00009370","towards":"Putney, Sands End Or Fulham Broadway"},{"icsId":"1011788","id":"490011788W","lat":51.47853,"lon":-0.18864,"name":"Rumbold Road","parentId":"490G00011788","stationId":"490G00011788","stopLetter":"GJ","topMostParentId":"490G00011788","towards":"Fulham Broadway Or Putney"},{"icsId":"1013888","id":"490013888N","lat":51.47747,"lon":-0.19231,"name":"Tyrawley Road","parentId":"490G00013888","stationId":"490G00013888","stopLetter":"GK","topMostParentId":"490G00013888","towards":"Hammersmith, Fulham Or Olympia"},{"icsId":"1007057","id":"490007057T","lat":51.47897,"lon":-0.19477,"name":"Fulham Town Hall","parentId":"490G000526","stationId":"490G000526","stopLetter":"T","topMostParentId":"490G000526"},{"icsId":"1000352","id":"490008547F","lat":51.48023,"lon":-0.19812,"name":"Fulham Broadway","parentId":"490G00000352","stationId":"490G00000352","stopLetter":"F","topMostParentId":"490G00000352","towards":"Hammersmith, Olympia Or Putney Bridge"},{"icsId":"1007875","id":"490007875C","lat":51.48036,"lon":-0.20114,"name":"North End Road","parentId":"490G00007875","stationId":"490G00007875","stopLetter":"C","topMostParentId":"490G00007875","towards":"Hammersmith"},{"icsId":"1012117","id":"490012117W","lat":51.4804,"lon":-0.20411,"name":"Shorrolds Road","parentId":"490G00012117","stationId":"490G00012117","stopLetter":"D","topMostParentId":"490G00012117","towards":"Hammersmith"},{"icsId":"1013556","id":"490013548W","lat":51.48096,"lon":-0.20812,"name":"Sherbrooke Road","parentId":"490G00013556","stationId":"490G00013556","stopLetter":"->W","topMostParentId":"490G00013556","towards":"Hammersmith"},{"icsId":"1007759","id":"490007754W","lat":51.48139,"lon":-0.21228,"name":"Munster Road","parentId":"490G00007759","stationId":"490G00007759","stopLetter":"HK","topMostParentId":"490G00007759","towards":"Hammersmith"},{"icsId":"1007050","id":"490007050W","lat":51.48291,"lon":-0.21527,"name":"Fulham Cross","parentId":"490G00007050","stationId":"490G00007050","stopLetter":"HE","topMostParentId":"490G00007050","towards":"Hammersmith Or Putney"},{"icsId":"1007530","id":"490007530N","lat":51.48426,"lon":-0.2199,"name":"Greyhound Road","parentId":"490G00007530","stationId":"490G00007530","stopLetter":"HS","topMostParentId":"490G00007530","towards":"Chiswick Or Shepherd's Bush"},{"icsId":"1004991","id":"490004991N","lat":51.48711,"lon":-0.22153,"name":"Charing Cross Hospital","parentId":"490G00004991","stationId":"490G00004991","stopLetter":"HT","topMostParentId":"490G00004991","towards":"Chiswick Or Shepherd's Bush"},{"icsId":"1007702","id":"490007702Y","lat":51.48998,"lon":-0.22339,"name":"Hammersmith Broadway","parentId":"490G000563","stationId":"490G000563","stopLetter":"N","topMostParentId":"490G000563","towards":"Chiswick Or Shepherd's Bush"},{"icsId":"1007705","id":"490007705C","lat":51.49228,"lon":-0.22388,"name":"Hammersmith Bus Station","parentId":"490G000565","stationId":"490G000565","stopLetter":"B","topMostParentId":"HUBHMS","towards":"Chiswick"},{"icsId":"1008801","id":"490008801P","lat":51.49266,"lon":-0.22728,"name":"Livat Hammersmith Shopping Centre","parentId":"490G000625","stationId":"490G000625","stopLetter":"U","topMostParentId":"490G000625","towards":"Acton Or Chiswick"},{"icsId":"1007711","id":"490007711WA","lat":51.49251,"lon":-0.23286,"name":"Hammersmith Town Hall","parentId":"490G00007711","stationId":"490G00007711","stopLetter":"WA","topMostParentId":"490G00007711","towards":"Chiswick Or Acton"},{"icsId":"1000188","id":"490011594W","lat":51.4929,"lon":-0.23583,"name":"Ravenscourt Park Station","stopLetter":"D","topMostParentId":"490011594W","towards":"Chiswick Bridge Or Gunnersbury","zone":"2"},{"icsId":"1012533","id":"490012533W","lat":51.49346,"lon":-0.24042,"name":"Ravenscourt Park","parentId":"490G00012533","stationId":"490G00012533","stopLetter":"G","topMostParentId":"490G00012533","towards":"Gunnersbury Or Chiswick Bridge"},{"icsId":"1007272","id":"490007272H","lat":51.49337,"lon":-0.24409,"name":"Goldhawk Road","parentId":"490G00007272","stationId":"490G00007272","stopLetter":"H","topMostParentId":"490G00007272","towards":"Gunnersbury Or Chiswick Bridge"},{"icsId":"1012521","id":"490012521PP","lat":51.49335,"lon":-0.24778,"name":"Stamford Brook Bus Garage","parentId":"490G00012521","stationId":"490G00012521","stopLetter":"PP","topMostParentId":"490G00012521","towards":"Kew Bridge, Osterley Or Richmond"},{"icsId":"1013850","id":"490013850RR","lat":51.49274,"lon":-0.25348,"name":"Chiswick Lane","parentId":"490G00013850","stationId":"490G00013850","stopLetter":"RR","topMostParentId":"490G00013850","towards":"Brentford, Kew Or Osterley"},{"icsId":"1000240","id":"490000240JJ","lat":51.49465,"lon":-0.25539,"name":"Turnham Green Station","stopLetter":"JJ","topMostParentId":"490000240JJ","towards":"Acton","zone":"2+3"},{"icsId":"1003797","id":"490003797N","lat":51.49665,"lon":-0.25588,"name":"Bedford Road","parentId":"490G00003797","stationId":"490G00003797","stopLetter":"J","topMostParentId":"490G00003797","towards":"Acton"},{"icsId":"1009673","id":"490009673N","lat":51.49886,"lon":-0.25642,"name":"Marlborough Crescent","parentId":"490G00009673","stationId":"490G00009673","stopLetter":"E","topMostParentId":"490G00009673","towards":"Acton"},{"icsId":"1011777","id":"490011777N","lat":51.50177,"lon":-0.25754,"name":"Rugby Road","parentId":"490G00011777","stationId":"490G00011777","stopLetter":"F","topMostParentId":"490G00011777","towards":"Acton Town"},{"icsId":"1012889","id":"490012889W","lat":51.50253,"lon":-0.26159,"name":"St Peter's Church","parentId":"490G00012889","stationId":"490G00012889","stopLetter":"G","topMostParentId":"490G00012889","towards":"Acton Town"},{"icsId":"1019207","id":"490001254A","lat":51.50245,"lon":-0.26511,"name":"Wilkinson Way","parentId":"490G00019207","stationId":"490G00019207","stopLetter":"H","topMostParentId":"490G00019207","towards":"Acton Town"},{"icsId":"1010968","id":"490010968W","lat":51.50431,"lon":-0.26706,"name":"Meon Road","parentId":"490G00010968","stationId":"490G00010968","stopLetter":"W","topMostParentId":"490G00010968","towards":"Acton Town"},{"icsId":"1003083","id":"490003083G","lat":51.5067,"lon":-0.26891,"name":"Acton Old Town Hall","parentId":"490G00003083","stationId":"490G00003083","stopLetter":"G","topMostParentId":"490G00003083","towards":"Ealing Broadway Or North Acton"},{"icsId":"1007604","id":"490007604C","lat":51.508,"lon":-0.27394,"name":"Steyne Road","parentId":"490G00007604","stationId":"490G00007604","stopLetter":"C","topMostParentId":"490G00007604","towards":"Ealing Broadway Or North Acton"},{"icsId":"1003077","id":"490003077P","lat":51.50606,"lon":-0.27829,"name":"Mill Hill Road","parentId":"490G00003077","stationId":"490G00003077","stopLetter":"P","topMostParentId":"490G00003077","towards":"Northfields Or Chiswick Business Park"},{"icsId":"1000002","id":"490000002A","lat":51.50273,"lon":-0.28101,"name":"Acton Town Station","stopLetter":"R","topMostParentId":"490000002A","towards":"Northfields","zone":"3"},{"icsId":"1007602","id":"490007602W","lat":51.50122,"lon":-0.28438,"name":"Gunnersbury Avenue","parentId":"490G000555","stationId":"490G000555","stopLetter":"->W","topMostParentId":"490G000555","towards":"Northfields"},{"icsId":"1010522","id":"490010522W","lat":51.50091,"lon":-0.28894,"name":"Gunnersbury Park","parentId":"490G00010522","stationId":"490G00010522","stopLetter":"->W","topMostParentId":"490G00010522","towards":"Hanwell"},{"icsId":"1008874","id":"490008874W","lat":51.50129,"lon":-0.29499,"name":"Knights Avenue","parentId":"490G00008874","stationId":"490G00008874","stopLetter":"S","topMostParentId":"490G00008874","towards":"Hanwell"},{"icsId":"1009201","id":"490009201W","lat":51.49916,"lon":-0.30059,"name":"Lionel Road North","parentId":"490G00009201","stationId":"490G00009201","stopLetter":"T","topMostParentId":"490G00009201","towards":"Hanwell"},{"icsId":"1012276","id":"490012276W","lat":51.49842,"lon":-0.30496,"name":"South Ealing Road","parentId":"490G00012276","stationId":"490G00012276","stopLetter":"U","topMostParentId":"490G00012276","towards":"Hanwell"},{"icsId":"1008591","id":"490008591N","lat":51.49754,"lon":-0.3132,"name":"Julien Road","parentId":"490G00008591","stationId":"490G00008591","stopLetter":"F","topMostParentId":"490G00008591","towards":"Ealing Broadway Or Hanwell"},{"icsId":"1000159","id":"490000159B","lat":51.49957,"lon":-0.31504,"name":"Northfields Station","stopLetter":"G","topMostParentId":"490000159B","towards":"Ealing Broadway Or Hanwell","zone":"3"},{"icsId":"1007333","id":"490007333N","lat":51.50359,"lon":-0.31772,"name":"Graham Avenue","parentId":"490G00007333","stationId":"490G00007333","stopLetter":"H","topMostParentId":"490G00007333","towards":"Ealing Broadway Or Hanwell"},{"icsId":"1008110","id":"490008110N","lat":51.50542,"lon":-0.31954,"name":"Hessel Road","parentId":"490G00008110","stationId":"490G00008110","stopLetter":"->N","topMostParentId":"490G00008110","towards":"Ealing Broadway Or Hanwell"},{"icsId":"1015589","id":"490015589N","lat":51.50813,"lon":-0.31922,"name":"Sherwood Close","parentId":"490G00015589","stationId":"490G00015589","stopLetter":"->N","topMostParentId":"490G00015589","towards":"Ealing Broadway Or Hanwell"},{"icsId":"1013447","id":"490013447G","lat":51.51058,"lon":-0.31943,"name":"Dean Gardens / Mattock Lane","parentId":"490G00013447","stationId":"490G00013447","stopLetter":"G","topMostParentId":"490G00013447","towards":"Ealing Broadway Or Hanwell"},{"icsId":"1015251","id":"490004500N","lat":51.51142,"lon":-0.31646,"name":"Dane Road","parentId":"490G00015251","stationId":"490G00015251","stopLetter":"N","topMostParentId":"490G00015251","towards":"Greenford Or Perivale"},{"icsId":"1012763","id":"490012763E","lat":51.51208,"lon":-0.31252,"name":"St Leonards Road","parentId":"490G00012763","stationId":"490G00012763","stopLetter":"U","topMostParentId":"490G00012763","towards":"Ealing Common Or Hanger Lane"},{"icsId":"1004143","id":"490019653E","lat":51.51301,"lon":-0.30655,"name":"Bond Street","parentId":"490G00004143","stationId":"490G00004143","stopLetter":"W","topMostParentId":"490G00004143","towards":"Acton Or Hanger Lane"},{"icsId":"1007939","id":"490000062A","lat":51.51565,"lon":-0.30225,"name":"Ealing Broadway Station   / Haven Green","stopLetter":"A","topMostParentId":"490000062A"}]}]}