{"direction":"inbound","lineId":"n137","lineName":"N137","mode":"bus","stopPointSequences":[{"stopPoint":[{"icsId":"1010692","id":"490000173JC","lat":51.51551,"lon":-0.14281,"name":"John Prince's Street / Oxford Circus","parentId":"490G000692","stationId":"490G000692","stopLetter":"JC","topMostParentId":"490G000692","towards":"Hyde Park Corner"},{"icsId":"1015200","id":"490015196R","lat":51.51479,"lon":-0.14532,"name":"Oxford Street / John Lewis","parentId":"490G00015200","stationId":"490G00015200","stopLetter":"OR","topMostParentId":"490G00015200","towards":"Baker Street, Bayswater Or Victoria"},{"icsId":"1011985","id":"490011985BX","lat":51.51399,"lon":-0.15234,"name":"Selfridges","parentId":"490G000738","stationId":"490G000738","stopLetter":"BX","topMostParentId":"490G000738","towards":"Baker Street, Bayswater Or Victoria"},{"icsId":"1000399","id":"490000144R","lat":51.51231,"lon":-0.15774,"name":"Marble Arch Station  / Park Lane","parentId":"490G00000399","stationId":"490G00000399","stopLetter":"R","topMostParentId":"490G00000399","towards":"Knightsbridge, Piccadilly Or Victoria"},{"icsId":"1006111","id":"490006111S1","lat":51.50842,"lon":-0.1541,"name":"Dorchester Hotel","parentId":"490G00006111","stationId":"490G00006111","stopLetter":"S","topMostParentId":"490G00006111","towards":"Knightsbridge, Piccadilly Or Victoria"},{"icsId":"1009277","id":"490009277S","lat":51.50574,"lon":-0.15124,"name":"London Hilton Hotel","parentId":"490G00009277","stationId":"490G00009277","stopLetter":"A","topMostParentId":"490G00009277","towards":"Knightsbridge"},{"icsId":"1000119","id":"490000119P","lat":51.5026,"lon":-0.15376,"name":"Hyde Park Corner Station","stopLetter":"P","topMostParentId":"490000119P","towards":"Sloane Square","zone":"1"},{"icsId":"1007843","id":"490000130K2","lat":51.50041,"lon":-0.15984,"name":"Sloane Street / Knightsbridge Station","parentId":"490G000573","stationId":"490G000573","stopLetter":"KK","topMostParentId":"490G000573","towards":"Battersea Park, Chelsea Or Victoria"},{"icsId":"1011097","id":"490011097S","lat":51.49769,"lon":-0.15904,"name":"Pont Street","parentId":"490G00011097","stationId":"490G00011097","stopLetter":"KL","topMostParentId":"490G00011097","towards":"Battersea Park, Chelsea Or Victoria"},{"icsId":"1000206","id":"490015175C","lat":51.49309,"lon":-0.15787,"name":"Sloane Square","stopLetter":"C","topMostParentId":"490015175C","towards":"Battersea Park, Chelsea Or Victoria","zone":"1"},{"icsId":"1011763","id":"490000206M","lat":51.49166,"lon":-0.15732,"name":"Sloane Square Stn  / Lower Sloane St","parentId":"490G00011763","stationId":"490G00011763","stopLetter":"M","topMostParentId":"490G00011763","towards":"Battersea Park, Vauxhall Or Victoria"},{"icsId":"1005063","id":"490011763S","lat":51.48911,"lon":-0.15499,"name":"Royal Hospital Chelsea","parentId":"490G00005063","stationId":"490G00005063","stopLetter":"S","topMostParentId":"490G00005063","towards":"Pimlico Or Clapham Common"},{"icsId":"1002219","id":"490002219Z","lat":51.4877,"lon":-0.15266,"name":"Ebury Bridge Road","parentId":"490G00002219","stationId":"490G00002219","stopLetter":"->S","topMostParentId":"490G00002219","towards":"Battersea Or Pimlico"},{"icsId":"1009205","id":"490009205E","lat":51.48618,"lon":-0.15034,"name":"Lister Hospital","parentId":"490G00009205","stationId":"490G00009205","stopLetter":"CB","topMostParentId":"490G00009205","towards":"Clapham Common, Pimlico Or Wandsworth"},{"icsId":"1005064","id":"490005064S","lat":51.48261,"lon":-0.14936,"name":"Battersea Park / Chelsea Gate","parentId":"490G00005064","stationId":"490G00005064","stopLetter":"CC","topMostParentId":"490G00005064","towards":"Clapham Common Or Wandsworth"},{"icsId":"1012235","id":"490012235S","lat":51.4795,"lon":-0.14878,"name":"Sopwith Way","parentId":"490G00012235","stationId":"490G00012235","stopLetter":"F","topMostParentId":"490G00012235","towards":"Clapham Common Or Wandsworth"},{"icsId":"1001016","id":"490001016C","lat":51.47691,"lon":-0.14828,"name":"Battersea Park Station","stopLetter":"C","topMostParentId":"490001016C","towards":"Clapham Common Or Wandsworth"},{"icsId":"1001234","id":"490001234S","lat":51.47413,"lon":-0.14733,"name":"Queenstown Road Station","stopLetter":"L","topMostParentId":"490001234S","towards":"Clapham Common Or Clapham Junction"},{"icsId":"1012161","id":"490012161S2","lat":51.47256,"lon":-0.14849,"name":"Silverthorne Road","parentId":"490G00012161","stationId":"490G00012161","stopLetter":"T","topMostParentId":"490G00012161","towards":"Clapham Common Or Clapham Junction"},{"icsId":"1011163","id":"490011163S","lat":51.46972,"lon":-0.14964,"name":"Prairie Street","parentId":"490G00011163","stationId":"490G00011163","stopLetter":"U","topMostParentId":"490G00011163","towards":"Clapham Common Or Clapham Junction"},{"icsId":"1014192","id":"490014192S","lat":51.46672,"lon":-0.15051,"name":"Queenstown Road / Wandsworth Road","parentId":"490G00014192","stationId":"490G00014192","stopLetter":"V","topMostParentId":"490G00014192","towards":"Clapham Common Or Clapham Junction"},{"icsId":"1005919","id":"490005919S","lat":51.46358,"lon":-0.14957,"name":"Sacred Heart House","parentId":"490G00005919","stationId":"490G00005919","stopLetter":"W","topMostParentId":"490G00005919","towards":"Stockwell Or Streatham Hill"},{"icsId":"1004912","id":"490004912S","lat":51.4623,"lon":-0.14915,"name":"Cedars Road / Clapham Common North Side","parentId":"490G00004912","stationId":"490G00004912","stopLetter":"R","topMostParentId":"490G00004912","towards":"Stockwell Or Streatham Hill"},{"icsId":"1013803","id":"490013803E","lat":51.46172,"lon":-0.14593,"name":"Royal Trinity Hospice","parentId":"490G00013803","stationId":"490G00013803","stopLetter":"S","topMostParentId":"490G00013803","towards":"Streatham Hill"},{"icsId":"1005328","id":"490005328V","lat":51.46305,"lon":-0.1427,"name":"Clapham Common Old Town","parentId":"490G000460","stationId":"490G000460","stopLetter":"W","topMostParentId":"490G000460","towards":"Streatham Hill"},{"icsId":"1020135","id":"490020135E","lat":51.46269,"lon":-0.14081,"name":"The Pavement","parentId":"490G00020135","stationId":"490G00020135","stopLetter":"T","topMostParentId":"490G00020135","towards":"Brixton Or Streatham"},{"icsId":"1000050","id":"490015234A","lat":51.46188,"lon":-0.13867,"name":"Clapham Common Station","stopLetter":"A","topMostParentId":"490015234A","towards":"Streatham Hill","zone":"2"},{"icsId":"1010776","id":"490010776E","lat":51.4595,"lon":-0.13356,"name":"Park Hill","parentId":"490G00010776","stationId":"490G00010776","stopLetter":"H","topMostParentId":"490G00010776","towards":"Brixton Or Streatham Hill"},{"icsId":"1003796","id":"490003796E","lat":51.45972,"lon":-0.13044,"name":"Bedford Road","parentId":"490G00003796","stationId":"490G00003796","stopLetter":"E","topMostParentId":"490G00003796","towards":"Brixton Or Streatham Hill"},{"icsId":"1009460","id":"490009460S","lat":51.4576,"lon":-0.12894,"name":"Lyham Road","parentId":"490G00009460","stationId":"490G00009460","stopLetter":"K","topMostParentId":"490G00009460","towards":"Clapham South Or Streatham Hill"},{"icsId":"1005350","id":"490005350S","lat":51.45575,"lon":-0.12918,"name":"Clarence Avenue","parentId":"490G00005350","stationId":"490G00005350","stopLetter":"A","topMostParentId":"490G00005350","towards":"Clapham South Or Streatham Hill"},{"icsId":"1016810","id":"490016810S","lat":51.45342,"lon":-0.12972,"name":"Rosebery Road","parentId":"490G00016810","stationId":"490G00016810","stopLetter":"B","topMostParentId":"490G00016810","towards":"Clapham South Or Streatham Hill"},{"icsId":"1013621","id":"490013621S","lat":51.45094,"lon":-0.13064,"name":"Thorncliffe Road","parentId":"490G00013621","stationId":"490G00013621","stopLetter":"C","topMostParentId":"490G00013621","towards":"Clapham South Or Streatham Hill"},{"icsId":"1003472","id":"490003472S","lat":51.44872,"lon":-0.13148,"name":"Kings Avenue / Atkins Road","parentId":"490G00003472","stationId":"490G00003472","stopLetter":"D","topMostParentId":"490G00003472","towards":"Clapham South Or Streatham Hill"},{"icsId":"1010243","id":"490010243E","lat":51.44716,"lon":-0.12905,"name":"Atkins Road / New Park Road","parentId":"490G00010243","stationId":"490G00010243","stopLetter":"E","topMostParentId":"490G00010243","towards":"Brixton Or Streatham"},{"icsId":"1012931","id":"490012931E","lat":51.44609,"lon":-0.12626,"name":"Streatham Place","parentId":"490G00012931","stationId":"490G00012931","stopLetter":"BQ","topMostParentId":"490G00012931","towards":"Brixton Or Streatham"},{"icsId":"1019763","id":"490005234S","lat":51.44429,"lon":-0.12442,"name":"Streatham Hill / Christchurch Road","parentId":"490G00019763","stationId":"490G00019763","stopLetter":"BH","topMostParentId":"490G00019763","towards":"Crystal Palace, Norbury Or Tooting"},{"icsId":"1013186","id":"490013186S","lat":51.44202,"lon":-0.12438,"name":"Telford Avenue","parentId":"490G00013186","stationId":"490G00013186","stopLetter":"W","topMostParentId":"490G00013186","towards":"Crystal Palace, Norbury Or Tooting"},{"icsId":"1019944","id":"490001281D","lat":51.4394,"lon":-0.12583,"name":"Streatham Hill Stn  / Streatham Hill","parentId":"490G000969","stationId":"490G000969","stopLetter":"D","topMostParentId":"490G000969","towards":"Crystal Palace, Norbury Or Tooting"},{"icsId":"1019942","id":"490001281H","lat":51.43773,"lon":-0.12643,"name":"Leigham Court Rd / Streatham Hill Stn","parentId":"490G000968","stationId":"490G000968","stopLetter":"H","topMostParentId":"490G000968","towards":"Crown Point"},{"icsId":"1018820","id":"490018820SE","lat":51.4363,"lon":-0.12505,"name":"Streatham Close","parentId":"490G00018820","stationId":"490G00018820","topMostParentId":"490G00018820","towards":"Crown Point"},{"icsId":"1006259","id":"490006259S","lat":51.43462,"lon":-0.1229,"name":"Dunraven School","parentId":"490G00006259","stationId":"490G00006259","stopLetter":"->S","topMostParentId":"490G00006259","towards":"Crown Point"},{"icsId":"1013999","id":"490013999S","lat":51.43272,"lon":-0.11661,"name":"Leigham Court Road / Valley Road","parentId":"490G00013999","stationId":"490G00013999","stopLetter":"->S","topMostParentId":"490G00013999","towards":"Crown Point Or West Norwood"},{"icsId":"1012886","id":"490012886S","lat":51.43145,"lon":-0.11476,"name":"St Peters Church","parentId":"490G00012886","stationId":"490G00012886","stopLetter":"->S","topMostParentId":"490G00012886","towards":"Crown Point Or West Norwood"},{"icsId":"1008590","id":"490008590S","lat":51.42893,"lon":-0.11438,"name":"Julian's Primary School","parentId":"490G00008590","stationId":"490G00008590","stopLetter":"CE","topMostParentId":"490G00008590","towards":"Crown Point"},{"icsId":"1009038","id":"490009038S","lat":51.42646,"lon":-0.11412,"name":"Leaf Grove","parentId":"490G00009038","stationId":"490G00009038","stopLetter":"CF","topMostParentId":"490G00009038","towards":"Crystal Palace"},{"icsId":"1014789","id":"490014789S","lat":51.4239,"lon":-0.11431,"name":"Leigham Court Road / Streatham Common","parentId":"490G00014789","stationId":"490G00014789","stopLetter":"CH","topMostParentId":"490G00014789","towards":"Crystal Palace"},{"icsId":"1011837","id":"490011837E","lat":51.4232,"lon":-0.10999,"name":"Ryecroft Road","parentId":"490G00011837","stationId":"490G00011837","stopLetter":"CJ","topMostParentId":"490G00011837","towards":"Crystal Palace"},{"icsId":"1015314","id":"490015314E","lat":51.42281,"lon":-0.10729,"name":"Crown Lane / Crown Point","parentId":"490G00015314","stationId":"490G00015314","stopLetter":"CK","topMostParentId":"490G00015314","towards":"Crystal Palace"},{"icsId":"1013686","id":"490013686E","lat":51.42268,"lon":-0.10305,"name":"Tivoli Road","parentId":"490G00013686","stationId":"490G00013686","topMostParentId":"490G00013686","towards":"Crystal Palace"},{"icsId":"1010452","id":"490010452W1","lat":51.42268,"lon":-0.09857,"name":"Norwood School","parentId":"490G00010452","stationId":"490G00010452","stopLetter":"E","topMostParentId":"490G00010452","towards":"Crystal Palace"},{"icsId":"1011876","id":"490011876S","lat":51.42281,"lon":-0.09377,"name":"Salter's Hill","parentId":"490G00011876","stationId":"490G00011876","stopLetter":"C","topMostParentId":"490G00011876","towards":"Crystal Palace"},{"icsId":"1015338","id":"490015338S","lat":51.42163,"lon":-0.09109,"name":"Hermitage Road","parentId":"490G00015338","stationId":"490G00015338","stopLetter":"D","topMostParentId":"490G00015338","towards":"Crystal Palace"},{"icsId":"1015346","id":"490015346S","lat":51.4198,"lon":-0.08781,"name":"Rockmount Road","parentId":"490G00015346","stationId":"490G00015346","stopLetter":"->S","topMostParentId":"490G00015346","towards":"Crystal Palace"},{"icsId":"1014510","id":"490014510K","lat":51.41973,"lon":-0.08006,"name":"Westow Hill","parentId":"490G00014510","stationId":"490G00014510","stopLetter":"K","topMostParentId":"490G00014510","towards":"Anerley Or Sydenham"},{"icsId":"1005869","id":"490005869C","lat":51.42083,"lon":-0.07812,"name":"Crystal Palace Parade","parentId":"490G00005869","stationId":"490G00005869","stopLetter":"C","topMostParentId":"490G00005869"}]}]}