{"direction":"inbound","lineId":"n250","lineName":"N250","mode":"bus","stopPointSequences":[{"stopPoint":[{"icsId":"1006706","id":"490006706C9","lat":51.37322,"lon":-0.09682,"name":"Fairfield Halls","parentId":"490G00006706","stationId":"490G00006706","stopLetter":"KD","topMostParentId":"490G00006706","towards":"West Croydon"},{"icsId":"1001089","id":"490001089E6","lat":51.37465,"lon":-0.09291,"name":"East Croydon Station","stopLetter":"E6","topMostParentId":"490001089E6","towards":"West Croydon"},{"icsId":"1014614","id":"490014614E15","lat":51.3761,"lon":-0.0984,"name":"Whitgift Centre","parentId":"490G00014614","stationId":"490G00014614","stopLetter":"WL","topMostParentId":"490G00014614","towards":"Thornton Heath"},{"icsId":"1014420","id":"490014420Y","lat":51.37907,"lon":-0.10148,"name":"West Croydon Bus Station","parentId":"490G000824","stationId":"490G000824","stopLetter":"B4","topMostParentId":"HUBWCY"},{"icsId":"1001324","id":"490001324W1","lat":51.37838,"lon":-0.10313,"name":"West Croydon Station","stopLetter":"WS","topMostParentId":"490001324W1","towards":"Thornton Heath"},{"icsId":"1005856","id":"490005856W3","lat":51.38033,"lon":-0.10531,"name":"Montague Road","parentId":"490G00005856","stationId":"490G00005856","stopLetter":"LD","topMostParentId":"490G00005856","towards":"Thornton Heath"},{"icsId":"1004367","id":"490004367N","lat":51.38377,"lon":-0.10843,"name":"Sumner Road","parentId":"490G00004367","stationId":"490G00004367","stopLetter":"LE","topMostParentId":"490G00004367","towards":"Norbury, Pollards Hill Or Waddon"},{"icsId":"1004368","id":"490004368N","lat":51.3848,"lon":-0.10942,"name":"Broad Green Avenue","parentId":"490G00004368","stationId":"490G00004368","stopLetter":"LF","topMostParentId":"490G00004368","towards":"Norbury, Pollards Hill Or Waddon"},{"icsId":"1009743","id":"490009732B","lat":51.3869,"lon":-0.11105,"name":"Canterbury Road","parentId":"490G00009743","stationId":"490G00009743","stopLetter":"B","topMostParentId":"490G00009743","towards":"Norbury, Pollards Hill Or Waddon"},{"icsId":"1009732","id":"490006250D","lat":51.39028,"lon":-0.11234,"name":"Croydon University Hospital","parentId":"490G00009732","stationId":"490G00009732","stopLetter":"D","topMostParentId":"490G00009732","towards":"Norbury, Pollards Hill Or Waddon"},{"icsId":"1013632","id":"490013632H","lat":51.39298,"lon":-0.1143,"name":"Thornton Heath Pond","parentId":"490G00013632","stationId":"490G00013632","stopLetter":"H","topMostParentId":"490G00013632","towards":"Pollards Hill Or Thornton Heath High Street"},{"icsId":"1004343","id":"490004343P","lat":51.39365,"lon":-0.11335,"name":"Brigstock Road / London Road","parentId":"490G00004343","stationId":"490G00004343","stopLetter":"P","topMostParentId":"490G00004343","towards":"Norbury"},{"icsId":"1004342","id":"490004342E","lat":51.39503,"lon":-0.11025,"name":"Whitehorse Manor-Brigstock Site","parentId":"490G00004342","stationId":"490G00004342","stopLetter":"R","topMostParentId":"490G00004342","towards":"Norbury"},{"icsId":"1010465","id":"490010465E","lat":51.39611,"lon":-0.1074,"name":"Nutfield Road","parentId":"490G00010465","stationId":"490G00010465","stopLetter":"Q","topMostParentId":"490G00010465","towards":"Norbury"},{"icsId":"1019036","id":"490003905E","lat":51.3969,"lon":-0.10506,"name":"Thornton Heath Library","parentId":"490G00019036","stationId":"490G00019036","stopLetter":"Z","topMostParentId":"490G00019036","towards":"Norbury Or Upper Norwood"},{"icsId":"1004471","id":"490004471B","lat":51.39806,"lon":-0.10202,"name":"Brook Road","parentId":"490G00004471","stationId":"490G00004471","stopLetter":"B","topMostParentId":"490G00004471","towards":"Norbury Or Upper Norwood"},{"icsId":"1001294","id":"490001294D","lat":51.39866,"lon":-0.09964,"name":"Thornton Heath Station","stopLetter":"D","topMostParentId":"490001294D","towards":"Norbury Or Upper Norwood"},{"icsId":"1020368","id":"490010744N","lat":51.40166,"lon":-0.10027,"name":"Parchmore Methodist Church","parentId":"490G00020368","stationId":"490G00020368","stopLetter":"->N","topMostParentId":"490G00020368","towards":"Norbury Or Upper Norwood"},{"icsId":"1011901","id":"490011901N2","lat":51.40457,"lon":-0.10242,"name":"Sandfield Road","parentId":"490G00011901","stationId":"490G00011901","stopLetter":"->N","topMostParentId":"490G00011901","towards":"Norbury"},{"icsId":"1010790","id":"490010790N","lat":51.40568,"lon":-0.10377,"name":"Park Lawn","parentId":"490G00010790","stationId":"490G00010790","stopLetter":"->N","topMostParentId":"490G00010790","towards":"Norbury"},{"icsId":"1005647","id":"490005647N","lat":51.40783,"lon":-0.10562,"name":"County Road","parentId":"490G00005647","stationId":"490G00005647","stopLetter":"->N","topMostParentId":"490G00005647","towards":"Streatham"},{"icsId":"1007474","id":"490007474N","lat":51.40977,"lon":-0.10711,"name":"Green Lane Post Office","parentId":"490G00007474","stationId":"490G00007474","stopLetter":"->N","topMostParentId":"490G00007474","towards":"Streatham"},{"icsId":"1008650","id":"490008650N","lat":51.41181,"lon":-0.11008,"name":"Kensington Avenue","parentId":"490G00008650","stationId":"490G00008650","topMostParentId":"490G00008650","towards":"Streatham"},{"icsId":"1010300","id":"490010300N","lat":51.41341,"lon":-0.1134,"name":"Norbury Hill","parentId":"490G00010300","stationId":"490G00010300","stopLetter":"->N","topMostParentId":"490G00010300","towards":"Streatham"},{"icsId":"1005663","id":"490005663W","lat":51.41499,"lon":-0.11915,"name":"Courtland Avenue","parentId":"490G00005663","stationId":"490G00005663","stopLetter":"T","topMostParentId":"490G00005663","towards":"Streatham"},{"icsId":"1008080","id":"490008080M","lat":51.41522,"lon":-0.12373,"name":"Hermitage Lane","parentId":"490G00008080","stationId":"490G00008080","stopLetter":"M","topMostParentId":"490G00008080","towards":"Streatham Hill"},{"icsId":"1003389","id":"490003389N","lat":51.41669,"lon":-0.12598,"name":"Arragon Gardens","parentId":"490G00003389","stationId":"490G00003389","stopLetter":"CK","topMostParentId":"490G00003389","towards":"Streatham Hill Or Tooting"},{"icsId":"1008618","id":"490008618N","lat":51.41903,"lon":-0.12797,"name":"Kempshott Road","parentId":"490G00008618","stationId":"490G00008618","stopLetter":"CL","topMostParentId":"490G00008618","towards":"Streatham Hill Or Tooting"},{"icsId":"1012924","id":"490012924N","lat":51.42116,"lon":-0.12882,"name":"Streatham Common / Greyhound Lane","parentId":"490G00012924","stationId":"490G00012924","stopLetter":"CM","topMostParentId":"490G00012924","towards":"Streatham Hill Or Tooting"},{"icsId":"1001279","id":"490001279S3","lat":51.42512,"lon":-0.13092,"name":"Streatham Station","stopLetter":"SJ","topMostParentId":"490001279S3","towards":"Streatham Hill"},{"icsId":"1012761","id":"490012761SQ","lat":51.42838,"lon":-0.13133,"name":"St Leonard's Church","parentId":"490G00012761","stationId":"490G00012761","stopLetter":"SK","topMostParentId":"490G00012761","towards":"Balham, Streatham Hill Or Tooting"},{"icsId":"1003758","id":"490003758OA","lat":51.43282,"lon":-0.12898,"name":"Becmead Avenue","parentId":"490G00003758","stationId":"490G00003758","stopLetter":"OA","topMostParentId":"490G00003758","towards":"Brixton Or Tulse Hill"},{"icsId":"1008765","id":"490008765M","lat":51.43449,"lon":-0.12862,"name":"Kingscourt Road","parentId":"490G00008765","stationId":"490G00008765","stopLetter":"M","topMostParentId":"490G00008765","towards":"Clapham Common, Brixton Or Tulse Hill"},{"icsId":"1010078","id":"490010078K","lat":51.43594,"lon":-0.12819,"name":"Mount Ephraim Road","parentId":"490G00010078","stationId":"490G00010078","stopLetter":"K","topMostParentId":"490G00010078","towards":"Clapham Common, Brixton Or Tulse Hill"},{"icsId":"1019944","id":"490001281A","lat":51.43941,"lon":-0.12626,"name":"Streatham Hill Stn  / Streatham Hill","parentId":"490G000969","stationId":"490G000969","stopLetter":"A","topMostParentId":"490G000969","towards":"Brixton"},{"icsId":"1003598","id":"490003598S","lat":51.44078,"lon":-0.12557,"name":"Barrhill Road","parentId":"490G00003598","stationId":"490G00003598","stopLetter":"S","topMostParentId":"490G00003598","towards":"Clapham Common, Brixton Or Tulse Hill"},{"icsId":"1013186","id":"490013186T","lat":51.44298,"lon":-0.12502,"name":"Telford Avenue","parentId":"490G00013186","stationId":"490G00013186","stopLetter":"T","topMostParentId":"490G00013186","towards":"Brixton Or Tulse Hill"},{"icsId":"1005234","id":"490005234N","lat":51.44459,"lon":-0.12475,"name":"Christchurch Road","parentId":"490G00005234","stationId":"490G00005234","stopLetter":"BS","topMostParentId":"490G00005234","towards":"Brixton Or Clapham Common"},{"icsId":"1008310","id":"490008310N","lat":51.44692,"lon":-0.12479,"name":"Holmewood Road","parentId":"490G00008310","stationId":"490G00008310","stopLetter":"BT","topMostParentId":"490G00008310","towards":"Camberwell Or Kennington Church"},{"icsId":"1015218","id":"490015218N","lat":51.44886,"lon":-0.12385,"name":"New Park Road","parentId":"490G00015218","stationId":"490G00015218","stopLetter":"BU","topMostParentId":"490G00015218","towards":"Camberwell Or Kennington Church"},{"icsId":"1008544","id":"490008544N","lat":51.45108,"lon":-0.12214,"name":"Jebb Avenue / Brixton Prison","parentId":"490G00008544","stationId":"490G00008544","stopLetter":"BV","topMostParentId":"490G00008544","towards":"Camberwell Or Kennington Church"},{"icsId":"1004101","id":"490004101N","lat":51.45428,"lon":-0.12014,"name":"Blenheim Gardens","parentId":"490G00004101","stationId":"490G00004101","stopLetter":"BW","topMostParentId":"490G00004101","towards":"Camberwell Or Kennington Church"},{"icsId":"1011793","id":"490011793N","lat":51.45767,"lon":-0.11799,"name":"Rush Common","parentId":"490G00011793","stationId":"490G00011793","stopLetter":"BY","topMostParentId":"490G00011793","towards":"Camberwell Or Kennington Church"},{"icsId":"1008919","id":"490008919W","lat":51.46033,"lon":-0.11664,"name":"Lambeth Town Hall","parentId":"490G000627","stationId":"490G000627","stopLetter":"W","topMostParentId":"490G000627","towards":"Stockwell"},{"icsId":"1000031","id":"490000031T","lat":51.46197,"lon":-0.11538,"name":"Brixton Station","stopLetter":"T","topMostParentId":"490000031T","towards":"Stockwell Or Loughborough Junction","zone":"2"}]}]}