{"direction":"inbound","lineId":"n253","lineName":"N253","mode":"bus","stopPointSequences":[{"stopPoint":[{"icsId":"1000235","id":"490000235C","lat":51.51767,"lon":-0.13154,"name":"Tottenham Court Road Station","stopLetter":"C","topMostParentId":"490000235C","towards":"Warren Street Station","zone":"1"},{"icsId":"1000089","id":"490000089A","lat":51.52113,"lon":-0.13505,"name":"Goodge Street Station","stopLetter":"A","topMostParentId":"490000089A","towards":"Camden Town Or Kings Cross","zone":"1"},{"icsId":"1000252","id":"490000252X","lat":51.52411,"lon":-0.13765,"name":"Warren Street Station","stopLetter":"X","topMostParentId":"490000252X","towards":"Camden Town Or Kings Cross","zone":"1"},{"icsId":"1000078","id":"490000078Q","lat":51.5256,"lon":-0.13685,"name":"Euston Square Station","stopLetter":"Q","topMostParentId":"490000078Q","towards":"Euston Or Kings Cross","zone":"1"},{"icsId":"1009504","id":"490000077G","lat":51.52761,"lon":-0.13229,"name":"Euston Bus Station","parentId":"490G000652","stationId":"490G000652","stopLetter":"G","topMostParentId":"HUBEUS"},{"icsId":"1009503","id":"490000077A","lat":51.52918,"lon":-0.13294,"name":"Euston Station  / Eversholt Street","parentId":"490G000651","stationId":"490G000651","stopLetter":"A","topMostParentId":"HUBEUS","towards":"Camden Town"},{"icsId":"1003174","id":"490003174N","lat":51.53158,"lon":-0.13554,"name":"Aldenham Street","parentId":"490G00003174","stationId":"490G00003174","stopLetter":"T","topMostParentId":"490G00003174","towards":"Camden Town"},{"icsId":"1000152","id":"490000152F","lat":51.53416,"lon":-0.13836,"name":"Mornington Cres Stn / Camden Tn Library","stopLetter":"F","topMostParentId":"490000152F","towards":"Chalk Farm Or Holloway","zone":"2"},{"icsId":"1004714","id":"490004714J","lat":51.53651,"lon":-0.14057,"name":"Camden High Street","parentId":"490G000437","stationId":"490G000437","stopLetter":"J","topMostParentId":"490G000437","towards":"Hampstead Heath Or Finsbury Park"},{"icsId":"1000036","id":"490015041Y","lat":51.53794,"lon":-0.14193,"name":"Camden Town Station","stopLetter":"Y","topMostParentId":"490015041Y","towards":"Finsbury Park Or Kentish Town","zone":"2"},{"icsId":"1019166","id":"490000036N","lat":51.54037,"lon":-0.14042,"name":"Camden Town / Camden Road","parentId":"490G00019166","stationId":"490G00019166","stopLetter":"N","topMostParentId":"490G00019166","towards":"Finsbury Park Or Caledonian Road"},{"icsId":"1001045","id":"490001045G","lat":51.54124,"lon":-0.13897,"name":"Camden Road Station","stopLetter":"G","topMostParentId":"490001045G","towards":"Finsbury Park Or Caledonian Road"},{"icsId":"1012455","id":"490012455E","lat":51.54317,"lon":-0.13717,"name":"St Pancras Way","parentId":"490G00012455","stationId":"490G00012455","stopLetter":"E","topMostParentId":"490G00012455","towards":"Finsbury Park"},{"icsId":"1011616","id":"490011616E","lat":51.54427,"lon":-0.13566,"name":"Murray Street","parentId":"490G00011616","stationId":"490G00011616","stopLetter":"->E","topMostParentId":"490G00011616","towards":"Finsbury Park"},{"icsId":"1011887","id":"490011887N","lat":51.54553,"lon":-0.13388,"name":"Sandall Road","parentId":"490G00011887","stationId":"490G00011887","stopLetter":"E","topMostParentId":"490G00011887","towards":"Finsbury Park"},{"icsId":"1019170","id":"490004715E","lat":51.54674,"lon":-0.13222,"name":"Torriano Avenue","parentId":"490G00019170","stationId":"490G00019170","stopLetter":"F","topMostParentId":"490G00019170","towards":"Finsbury Park"},{"icsId":"1004278","id":"490004278N","lat":51.54945,"lon":-0.12852,"name":"Brecknock Road","parentId":"490G00004278","stationId":"490G00004278","stopLetter":"G","topMostParentId":"490G00004278","towards":"Finsbury Park"},{"icsId":"1015052","id":"490015052N","lat":51.55108,"lon":-0.12661,"name":"Hilldrop Road","parentId":"490G00015052","stationId":"490G00015052","stopLetter":"H","topMostParentId":"490G00015052","towards":"Finsbury Park"},{"icsId":"1007614","id":"490007614N","lat":51.55328,"lon":-0.12404,"name":"Hillmarton Road","parentId":"490G00007614","stationId":"490G00007614","stopLetter":"K","topMostParentId":"490G00007614","towards":"Finsbury Park"},{"icsId":"1004971","id":"490004971N","lat":51.55497,"lon":-0.12258,"name":"Chambers Road","parentId":"490G00004971","stationId":"490G00004971","stopLetter":"L","topMostParentId":"490G00004971","towards":"Archway, Hornsey Or Finsbury Park"},{"icsId":"1008296","id":"490008296C","lat":51.55728,"lon":-0.12037,"name":"Holloway / Nags Head","parentId":"490G00008296","stationId":"490G00008296","stopLetter":"C","topMostParentId":"490G00008296","towards":"Finsbury Park"},{"icsId":"1019152","id":"490008296H","lat":51.55857,"lon":-0.11828,"name":"Seven Sisters Road / Nags Head","parentId":"490G00019152","stationId":"490G00019152","stopLetter":"H","topMostParentId":"490G00019152","towards":"Finsbury Park Or Hornsey Rise"},{"icsId":"1008367","id":"490008367J","lat":51.55981,"lon":-0.11595,"name":"Hornsey Road","parentId":"490G00008367","stationId":"490G00008367","stopLetter":"NP","topMostParentId":"490G00008367","towards":"Finsbury Park Or Hornsey Rise"},{"icsId":"1006272","id":"490006272E","lat":51.56208,"lon":-0.11094,"name":"Durham Road","parentId":"490G00006272","stationId":"490G00006272","stopLetter":"NT","topMostParentId":"490G00006272","towards":"Manor House Or Highbury"},{"icsId":"1006891","id":"490000083X","lat":51.56317,"lon":-0.10795,"name":"Fonthill Road","parentId":"490G00006891","stationId":"490G00006891","stopLetter":"X","topMostParentId":"490G00006891","towards":"Manor House Or Highbury Corner"},{"icsId":"1000083","id":"490000083R","lat":51.564,"lon":-0.10624,"name":"Finsbury Park Station","stopLetter":"R","topMostParentId":"490000083R","towards":"Manor House Or Highbury Corner","zone":"2"},{"icsId":"1015078","id":"490015078L","lat":51.56547,"lon":-0.10348,"name":"Finsbury Park / Blackstock Road","parentId":"490G000858","stationId":"490G000858","stopLetter":"L","topMostParentId":"HUBFPK","towards":"Wood Green, Tottenham Or Stamford Hill"},{"icsId":"1003208","id":"490003208E","lat":51.568,"lon":-0.09975,"name":"Alexandra Grove","parentId":"490G00003208","stationId":"490G00003208","stopLetter":"Q","topMostParentId":"490G00003208","towards":"Wood Green, Tottenham Or Stamford Hill"},{"icsId":"1000142","id":"490000142D","lat":51.5714,"lon":-0.09429,"name":"Manor House Station","stopLetter":"D","topMostParentId":"490000142D","towards":"Stamford Hill","zone":"2+3"},{"icsId":"1014812","id":"490014812E","lat":51.57234,"lon":-0.09151,"name":"Woodberry Grove","parentId":"490G00014812","stationId":"490G00014812","stopLetter":"G","topMostParentId":"490G00014812","towards":"Tottenham Or Stamford Hill"},{"icsId":"1003304","id":"490003304E","lat":51.57462,"lon":-0.08519,"name":"Bethune Road","parentId":"490G00003304","stationId":"490G00003304","stopLetter":"T","topMostParentId":"490G00003304","towards":"Upper Clapton"},{"icsId":"1005718","id":"490005718E","lat":51.57482,"lon":-0.08276,"name":"Cranwich Road","parentId":"490G00005718","stationId":"490G00005718","stopLetter":"CP","topMostParentId":"490G00005718","towards":"Upper Clapton"},{"icsId":"1001265","id":"490001265A","lat":51.5746,"lon":-0.07799,"name":"Stamford Hill Station","stopLetter":"CQ","topMostParentId":"490001265A","towards":"Upper Clapton"},{"icsId":"1002375","id":"490012524D","lat":51.57369,"lon":-0.07305,"name":"Stamford Hill","parentId":"490G00002375","stationId":"490G00002375","stopLetter":"CR","topMostParentId":"490G00002375","towards":"Upper Clapton"},{"icsId":"1012524","id":"490012524G","lat":51.57315,"lon":-0.07141,"name":"Stamford Hill Broadway","parentId":"490G00012524","stationId":"490G00012524","stopLetter":"CS","topMostParentId":"490G00012524","towards":"Clapton Pond"},{"icsId":"1005339","id":"490005339S","lat":51.57132,"lon":-0.06563,"name":"Clapton Common","parentId":"490G00005339","stationId":"490G00005339","stopLetter":"CT","topMostParentId":"490G00005339","towards":"Clapton Pond"},{"icsId":"1010645","id":"490010645S","lat":51.56994,"lon":-0.06318,"name":"Osbaldeston Road","parentId":"490G00010645","stationId":"490G00010645","stopLetter":"UA","topMostParentId":"490G00010645","towards":"Clapton Pond"},{"icsId":"1006833","id":"490006833S","lat":51.56769,"lon":-0.06099,"name":"Jessam Avenue","parentId":"490G00006833","stationId":"490G00006833","stopLetter":"UB","topMostParentId":"490G00006833","towards":"Clapton Pond"},{"icsId":"1011710","id":"490011710S","lat":51.5645,"lon":-0.05964,"name":"Rossington Street","parentId":"490G00011710","stationId":"490G00011710","stopLetter":"UD","topMostParentId":"490G00011710","towards":"Lower Clapton"},{"icsId":"1001070","id":"490001070S","lat":51.56228,"lon":-0.05746,"name":"Clapton Station","stopLetter":"A","topMostParentId":"490001070S","towards":"Hackney Central"},{"icsId":"1009035","id":"490004459B","lat":51.55933,"lon":-0.05613,"name":"Lea Bridge Roundabout","parentId":"490G00009035","stationId":"490G00009035","stopLetter":"B","topMostParentId":"490G00009035","towards":"Homerton Hospital Or Hackney Central"},{"icsId":"1005340","id":"490009035E","lat":51.5568,"lon":-0.05569,"name":"Clapton Pond","parentId":"490G00005340","stationId":"490G00005340","stopLetter":"E","topMostParentId":"490G00005340","towards":"Homerton Hospital, Dalston Or Hackney"},{"icsId":"1009896","id":"490009896G","lat":51.55497,"lon":-0.05451,"name":"Millfields Road","parentId":"490G00009896","stationId":"490G00009896","stopLetter":"G","topMostParentId":"490G00009896","towards":"Homerton Hospital, Dalston Or Cambridge Heath"},{"icsId":"1009195","id":"490009195S1","lat":51.55285,"lon":-0.05284,"name":"Clapton Girls' Academy","parentId":"490G00009195","stationId":"490G00009195","stopLetter":"N","topMostParentId":"490G00009195","towards":"Cambridge Heath"},{"icsId":"1007619","id":"490007619V","lat":51.55054,"lon":-0.05242,"name":"Hackney Baths","parentId":"490G00007619","stationId":"490G00007619","stopLetter":"V","topMostParentId":"490G00007619","towards":"Cambridge Heath"},{"icsId":"1005341","id":"490005341S","lat":51.54984,"lon":-0.05381,"name":"Clapton Square","parentId":"490G00005341","stationId":"490G00005341","stopLetter":"S","topMostParentId":"490G00005341","towards":"Cambridge Heath Or Dalston"},{"icsId":"1010154","id":"490010154Y","lat":51.54947,"lon":-0.05858,"name":"Pembury Circus","parentId":"490G00010154","stationId":"490G00010154","stopLetter":"Y","topMostParentId":"490G00010154","towards":"Cambridge Heath Or Dalston"},{"icsId":"1001127","id":"4900001127H","lat":51.54796,"lon":-0.05664,"name":"Hackney Central Station","stopLetter":"H","topMostParentId":"4900001127H","towards":"Cambridge Heath"},{"icsId":"1007626","id":"490007626B","lat":51.54528,"lon":-0.0552,"name":"Hackney Town Hall","parentId":"490G000560","stationId":"490G000560","stopLetter":"B","topMostParentId":"490G000560","towards":"Bethnal Green, Shoreditch Or Mile End"},{"icsId":"1012462","id":"490012462S","lat":51.54247,"lon":-0.05519,"name":"St Thomas's Square","parentId":"490G000758","stationId":"490G000758","stopLetter":"LZ","topMostParentId":"490G000758","towards":"Bethnal Green Or Shoreditch"},{"icsId":"1014377","id":"490014373LB","lat":51.53926,"lon":-0.05633,"name":"Well Street","parentId":"490G00014377","stationId":"490G00014377","stopLetter":"LB","topMostParentId":"490G00014377","towards":"Whitechapel Or Dalston"},{"icsId":"1008739","id":"490008739S","lat":51.53737,"lon":-0.05685,"name":"King Edward's Road","parentId":"490G00008739","stationId":"490G00008739","stopLetter":"LE","topMostParentId":"490G00008739","towards":"Shoreditch, Mile End Or Whitechapel"},{"icsId":"1003314","id":"490007624S","lat":51.53493,"lon":-0.05714,"name":"Mare Street / Victoria Park Road","parentId":"490G00003314","stationId":"490G00003314","stopLetter":"Q","topMostParentId":"490G00003314","towards":"Shoreditch, Mile End Or Whitechapel"},{"icsId":"1001044","id":"490001044P","lat":51.53317,"lon":-0.05718,"name":"Cambridge Heath Station","stopLetter":"P","topMostParentId":"490001044P","towards":"Liverpool Street, Whitechapel Or Mile End"},{"icsId":"1010555","id":"490010555H","lat":51.52978,"lon":-0.05594,"name":"Old Ford Road","parentId":"490G00010555","stationId":"490G00010555","stopLetter":"H","topMostParentId":"490G00010555","towards":"Liverpool Street, Whitechapel Or Mile End"},{"icsId":"1000022","id":"490000022A","lat":51.52813,"lon":-0.05511,"name":"Bethnal Green Station","stopLetter":"A","topMostParentId":"490000022A","towards":"Liverpool Street, Whitechapel Or Mile End","zone":"2"},{"icsId":"1013648","id":"490013648T","lat":51.5252,"lon":-0.05487,"name":"Three Colts Lane","parentId":"490G00013648","stationId":"490G00013648","stopLetter":"T","topMostParentId":"490G00013648","towards":"Aldgate"},{"icsId":"1004945","id":"490004945S","lat":51.52312,"lon":-0.05483,"name":"Cephas Street","parentId":"490G00004945","stationId":"490G00004945","stopLetter":"P","topMostParentId":"490G00004945","towards":"Aldgate"},{"icsId":"1005965","id":"490005965S","lat":51.52138,"lon":-0.05587,"name":"Darling Row","parentId":"490G00005965","stationId":"490G00005965","stopLetter":"R","topMostParentId":"490G00005965","towards":"Aldgate"},{"icsId":"1013541","id":"490013541A","lat":51.51892,"lon":-0.06043,"name":"Whitechapel Stn  / Royal London Hosp","parentId":"490G000793","stationId":"490G000793","stopLetter":"A","topMostParentId":"490G000793","towards":"Aldgate Or Wapping"},{"icsId":"1010258","id":"490010258K","lat":51.51785,"lon":-0.06504,"name":"The East London Mosque","parentId":"490G00010258","stationId":"490G00010258","stopLetter":"K","topMostParentId":"490G00010258","towards":"Aldgate"},{"icsId":"1006827","id":"490006827W","lat":51.51694,"lon":-0.06778,"name":"Altab Ali Park","parentId":"490G000514","stationId":"490G000514","stopLetter":"K","topMostParentId":"490G000514","towards":"Bank Or Liverpool Street"},{"icsId":"1000004","id":"490000004W","lat":51.51465,"lon":-0.07321,"name":"Aldgate East Station","stopLetter":"J","topMostParentId":"490000004W","towards":"Bank, Tower Hill Or Liverpool Street","zone":"1"},{"icsId":"1000003","id":"490000003R","lat":51.51408,"lon":-0.07493,"name":"Aldgate Station","stopLetter":"R","topMostParentId":"490000003R","towards":"Bank, London Bridge Or Tower Bridge","zone":"1"}]}]}