{"direction":"inbound","lineId":"n266","lineName":"N266","mode":"bus","stopPointSequences":[{"stopPoint":[{"icsId":"1004282","id":"490004282B","lat":51.57574,"lon":-0.22326,"name":"Brent Cross Shopping Centre","parentId":"490G00004282","stationId":"490G00004282","stopLetter":"B","topMostParentId":"490G00004282","towards":"Staples Corner"},{"icsId":"1013675","id":"490013675S","lat":51.57267,"lon":-0.22555,"name":"Tilling Road","parentId":"490G00013675","stationId":"490G00013675","stopLetter":"S","topMostParentId":"490G00013675","towards":"Colindale, Cricklewood Or Neasden"},{"icsId":"1012590","id":"490012590S","lat":51.5691,"lon":-0.22963,"name":"Staples Corner Retail Park","parentId":"490G00012590","stationId":"490G00012590","stopLetter":"SB","topMostParentId":"490G00012590","towards":"Kilburn Or Willesden"},{"icsId":"1008421","id":"490008421S","lat":51.56638,"lon":-0.22604,"name":"Humber Road","parentId":"490G00008421","stationId":"490G00008421","stopLetter":"SC","topMostParentId":"490G00008421","towards":"Kilburn Or Willesden"},{"icsId":"1000945","id":"490006096S","lat":51.56361,"lon":-0.22262,"name":"Gladstone Park Gardens","parentId":"490G000254","stationId":"490G000254","stopLetter":"SD","topMostParentId":"490G000254","towards":"Golders Green, Kilburn Or Willesden"},{"icsId":"1015033","id":"490015033S","lat":51.56217,"lon":-0.22101,"name":"Cricklewood Bus Garage","parentId":"490G00015033","stationId":"490G00015033","stopLetter":"BA","topMostParentId":"490G00015033","towards":"Golders Green, Kilburn Or Willesden"},{"icsId":"1010015","id":"490010015S2","lat":51.56001,"lon":-0.21904,"name":"Mora Road","parentId":"490G00010015","stationId":"490G00010015","stopLetter":"BB","topMostParentId":"490G00010015","towards":"Golders Green Or Willesden"},{"icsId":"1005776","id":"490005776B","lat":51.55729,"lon":-0.21587,"name":"Cricklewood Lane","parentId":"490G000474","stationId":"490G000474","stopLetter":"BD","topMostParentId":"490G000474","towards":"Golders Green, Kilburn Or Willesden"},{"icsId":"1005771","id":"490005771E","lat":51.55537,"lon":-0.21613,"name":"Sheldon Road","parentId":"490G000472","stationId":"490G000472","stopLetter":"CX","topMostParentId":"490G000472","towards":"Willesden"},{"icsId":"1003338","id":"490003338S","lat":51.55337,"lon":-0.21768,"name":"Anson Road","parentId":"490G00003338","stationId":"490G00003338","stopLetter":"CZ","topMostParentId":"490G00003338","towards":"Harlesden"},{"icsId":"1000270","id":"490000270A","lat":51.54911,"lon":-0.22089,"name":"Willesden Green Station","stopLetter":"A","topMostParentId":"490000270A","towards":"Harlesden","zone":"2+3"},{"icsId":"1014706","id":"490014693D","lat":51.54776,"lon":-0.22378,"name":"Willesden Lane","parentId":"490G00014706","stationId":"490G00014706","stopLetter":"C","topMostParentId":"490G00014706","towards":"Harlesden"},{"icsId":"1014691","id":"490014691W1","lat":51.54723,"lon":-0.22806,"name":"Willesden Green Library","parentId":"490G00014691","stationId":"490G00014691","stopLetter":"K","topMostParentId":"490G00014691","towards":"Harlesden"},{"icsId":"1014088","id":"490014088W","lat":51.5473,"lon":-0.23393,"name":"Villiers Road","parentId":"490G00014088","stationId":"490G00014088","stopLetter":"T","topMostParentId":"490G00014088","towards":"Harlesden Or Neasden"},{"icsId":"1014687","id":"490014687W","lat":51.54831,"lon":-0.2379,"name":"Willesden Bus Garage","parentId":"490G00014687","stationId":"490G00014687","stopLetter":"WO","topMostParentId":"490G00014687","towards":"Harlesden"},{"icsId":"1014701","id":"490014687W1","lat":51.5486,"lon":-0.23995,"name":"Pound Lane","parentId":"490G00014701","stationId":"490G00014701","stopLetter":"WU","topMostParentId":"490G00014701","towards":"Harlesden"},{"icsId":"1003711","id":"490003711W","lat":51.54906,"lon":-0.24372,"name":"Beaconsfield Road","parentId":"490G00003711","stationId":"490G00003711","stopLetter":"WS","topMostParentId":"490G00003711","towards":"Harlesden Or Neasden"},{"icsId":"1014694","id":"490014694W","lat":51.54914,"lon":-0.24646,"name":"Willesden Magistrates Court","parentId":"490G00014694","stationId":"490G00014694","stopLetter":"->W","topMostParentId":"490G00014694","towards":"Harlesden Or Neasden"},{"icsId":"1008462","id":"490008462S","lat":51.54837,"lon":-0.2478,"name":"Ilex Road","parentId":"490G00008462","stationId":"490G00008462","stopLetter":"->S","topMostParentId":"490G00008462","towards":"Harlesden"},{"icsId":"1011732","id":"490011732S","lat":51.54744,"lon":-0.24968,"name":"Roundwood Road","parentId":"490G00011732","stationId":"490G00011732","stopLetter":"->S","topMostParentId":"490G00011732","towards":"Harlesden"},{"icsId":"1005302","id":"490005302S","lat":51.54549,"lon":-0.25197,"name":"Curzon Crescent","parentId":"490G00005302","stationId":"490G00005302","stopLetter":"B","topMostParentId":"490G00005302","towards":"North Acton"},{"icsId":"1005255","id":"490005255S","lat":51.54276,"lon":-0.25423,"name":"Dixon Way","parentId":"490G00005255","stationId":"490G00005255","stopLetter":"C","topMostParentId":"490G00005255","towards":"North Acton"},{"icsId":"1007804","id":"490007804S","lat":51.54121,"lon":-0.25434,"name":"Harlesden Police Station","parentId":"490G00007804","stationId":"490G00007804","stopLetter":"D","topMostParentId":"490G00007804","towards":"North Acton"},{"icsId":"1012803","id":"490012803E","lat":51.53919,"lon":-0.25126,"name":"St Mary's Road","parentId":"490G00012803","stationId":"490G00012803","stopLetter":"E","topMostParentId":"490G00012803","towards":"Acton Or Kensal Green"},{"icsId":"1009571","id":"490009571A","lat":51.53713,"lon":-0.24627,"name":"Tavistock Road","parentId":"490G00009571","stationId":"490G00009571","stopLetter":"A","topMostParentId":"490G00009571","towards":"Acton Or Kensal Green"},{"icsId":"1007803","id":"490007803W","lat":51.53481,"lon":-0.24816,"name":"Harlesden Jubilee Clock","parentId":"490G00007803","stationId":"490G00007803","stopLetter":"W","topMostParentId":"490G00007803","towards":"Acton Or East Acton"},{"icsId":"1000271","id":"490000271M","lat":51.53261,"lon":-0.24649,"name":"Willesden Junction Station","stopLetter":"M","topMostParentId":"490000271M","towards":"Acton Or East Acton","zone":"2+3"},{"icsId":"1014331","id":"490014331S","lat":51.53062,"lon":-0.24818,"name":"Webb Place","parentId":"490G00014331","stationId":"490G00014331","stopLetter":"S","topMostParentId":"490G00014331","towards":"Acton Or East Acton"},{"icsId":"1010569","id":"490010569S","lat":51.52783,"lon":-0.25181,"name":"Old Oak Common Lane","parentId":"490G00010569","stationId":"490G00010569","stopLetter":"U","topMostParentId":"490G00010569","towards":"Acton"},{"icsId":"1012028","id":"490012028S","lat":51.52707,"lon":-0.25319,"name":"Shaftesbury Gardens","parentId":"490G00012028","stationId":"490G00012028","stopLetter":"V","topMostParentId":"490G00012028","towards":"Acton"},{"icsId":"1004981","id":"490004981S","lat":51.52572,"lon":-0.25526,"name":"Chandos Road","parentId":"490G00004981","stationId":"490G00004981","stopLetter":"->S","topMostParentId":"490G00004981","towards":"Acton"},{"icsId":"1000157","id":"490000157B","lat":51.52302,"lon":-0.25796,"name":"North Acton Station","stopLetter":"B","topMostParentId":"490000157B","towards":"Acton and Hammersmith","zone":"2+3"},{"icsId":"1015032","id":"490014130C","lat":51.5212,"lon":-0.26016,"name":"Wales Farm Road","parentId":"490G000847","stationId":"490G000847","stopLetter":"C","topMostParentId":"490G000847","towards":"Acton, Alperton Or East Acton"},{"icsId":"1007188","id":"490015319D","lat":51.51962,"lon":-0.26342,"name":"Gypsy Corner","parentId":"490G00007188","stationId":"490G00007188","stopLetter":"D","topMostParentId":"490G00007188","towards":"Acton"},{"icsId":"1010291","id":"490010291L","lat":51.51957,"lon":-0.26484,"name":"Noel Road","parentId":"490G00010291","stationId":"490G00010291","stopLetter":"L","topMostParentId":"490G00010291","towards":"Chiswick Or Hammersmith"},{"icsId":"1001003","id":"490001003H","lat":51.51759,"lon":-0.26592,"name":"Acton Main Line Station","stopLetter":"H","topMostParentId":"490001003H","towards":"Chiswick Or Hammersmith"},{"icsId":"1006737","id":"490015046S","lat":51.51468,"lon":-0.26885,"name":"Faraday Road","parentId":"490G00006737","stationId":"490G00006737","stopLetter":"->S","topMostParentId":"490G00006737","towards":"Chiswick Or Hammersmith"},{"icsId":"1003063","id":"490003063S","lat":51.51305,"lon":-0.27003,"name":"Acacia Road","parentId":"490G00003063","stationId":"490G00003063","stopLetter":"->S","topMostParentId":"490G00003063","towards":"Chiswick Or Hammersmith"},{"icsId":"1005761","id":"490005761S","lat":51.51162,"lon":-0.27066,"name":"Creswick Road","parentId":"490G00005761","stationId":"490G00005761","stopLetter":"->S","topMostParentId":"490G00005761","towards":"Chiswick Or Hammersmith"},{"icsId":"1012681","id":"490012681N","lat":51.50933,"lon":-0.27299,"name":"Rosemont Road","parentId":"490G00012681","stationId":"490G00012681","stopLetter":"N","topMostParentId":"490G00012681","towards":"Chiswick Or Hammersmith"},{"icsId":"1008835","id":"490008835D","lat":51.50789,"lon":-0.2731,"name":"King Street","parentId":"490G00008835","stationId":"490G00008835","stopLetter":"D","topMostParentId":"490G00008835","towards":"Shepherd's Bush, Hammersmith, Chiswick Or E Acton"},{"icsId":"1003083","id":"490003083F","lat":51.50675,"lon":-0.26725,"name":"Acton Old Town Hall","parentId":"490G00003083","stationId":"490G00003083","stopLetter":"F","topMostParentId":"490G00003083","towards":"Shepherd's Bush, Hammersmith, Chiswick Or E Acton"},{"icsId":"1001002","id":"490001002H","lat":51.50655,"lon":-0.26287,"name":"Acton Central Station","stopLetter":"H","topMostParentId":"490001002H","towards":"East Acton, Hammersmith Or Shepherd's Bush"},{"icsId":"1003084","id":"490003084E","lat":51.5066,"lon":-0.2603,"name":"Acton Park","parentId":"490G00003084","stationId":"490G00003084","stopLetter":"VP","topMostParentId":"490G00003084","towards":"East Acton, Hammersmith Or Shepherd's Bush"},{"icsId":"1006312","id":"490006312E","lat":51.50666,"lon":-0.25782,"name":"East Acton Lane","parentId":"490G00006312","stationId":"490G00006312","stopLetter":"VR","topMostParentId":"490G00006312","towards":"Hammersmith Or Shepherd's Bush"},{"icsId":"1008976","id":"490008976E","lat":51.50669,"lon":-0.25442,"name":"Larden Road","parentId":"490G00008976","stationId":"490G00008976","stopLetter":"VS","topMostParentId":"490G00008976","towards":"Hammersmith Or Shepherd's Bush"},{"icsId":"1004438","id":"490004438E","lat":51.50679,"lon":-0.25241,"name":"Acton Vale / Bromyard Avenue","parentId":"490G00004438","stationId":"490G00004438","stopLetter":"VT","topMostParentId":"490G00004438","towards":"East Acton, Hammersmith Or Shepherd's Bush"},{"icsId":"1011970","id":"490011970E","lat":51.50685,"lon":-0.24856,"name":"Second Avenue","parentId":"490G00011970","stationId":"490G00011970","stopLetter":"VU","topMostParentId":"490G00011970","towards":"East Acton, Hammersmith Or Shepherd's Bush"},{"icsId":"1018990","id":"490003456E","lat":51.50684,"lon":-0.24634,"name":"First Avenue","parentId":"490G00018990","stationId":"490G00018990","stopLetter":"VV","topMostParentId":"490G00018990","towards":"Shepherd's Bush, Hammersmith Or East Acton"},{"icsId":"1018989","id":"490003456S","lat":51.50628,"lon":-0.24484,"name":"Uxbridge Road","parentId":"490G00018989","stationId":"490G00018989","stopLetter":"AC","topMostParentId":"490G00018989","towards":"Hammersmith"},{"icsId":"1007145","id":"490007145S","lat":51.50364,"lon":-0.24338,"name":"Askew Road Library / Gayford Road","parentId":"490G00007145","stationId":"490G00007145","stopLetter":"AD","topMostParentId":"490G00007145","towards":"Hammersmith"},{"icsId":"1003424","id":"490003424S","lat":51.50188,"lon":-0.24183,"name":"Ashchurch Terrace","parentId":"490G00003424","stationId":"490G00003424","stopLetter":"SW","topMostParentId":"490G00003424","towards":"Hammersmith"},{"icsId":"1012595","id":"490012595S","lat":51.50032,"lon":-0.23943,"name":"Kelmscott Gardens","parentId":"490G00012595","stationId":"490G00012595","stopLetter":"SX","topMostParentId":"490G00012595","towards":"Hammersmith"},{"icsId":"1012004","id":"490012004S","lat":51.49924,"lon":-0.23761,"name":"Goldhawk Road","parentId":"490G00012004","stationId":"490G00012004","stopLetter":"SY","topMostParentId":"490G00012004","towards":"Hammersmith"},{"icsId":"1008559","id":"490008559S","lat":51.49674,"lon":-0.23525,"name":"John Betts School","parentId":"490G00008559","stationId":"490G00008559","stopLetter":"SZ","topMostParentId":"490G00008559","towards":"Hammersmith"},{"icsId":"1000188","id":"490000188B","lat":51.49492,"lon":-0.23452,"name":"Ravenscourt Park Station","stopLetter":"B","topMostParentId":"490000188B","towards":"Hammersmith","zone":"2"},{"icsId":"1015588","id":"490015588E","lat":51.49443,"lon":-0.23261,"name":"Lamington Street","parentId":"490G00015588","stationId":"490G00015588","stopLetter":"->E","topMostParentId":"490G00015588","towards":"Hammersmith"},{"icsId":"1007239","id":"490007239E","lat":51.49457,"lon":-0.23012,"name":"Iffley Road","parentId":"490G00007239","stationId":"490G00007239","stopLetter":"->E","topMostParentId":"490G00007239","towards":"Fulham Or Kensington"},{"icsId":"1000097","id":"490000097T","lat":51.49334,"lon":-0.22521,"name":"Hammersmith Stn / H&c and Circle Lines","stopLetter":"W","topMostParentId":"490000097T","towards":"Fulham, Kensington Or West Brompton","zone":"2"},{"icsId":"1007705","id":"490007705F","lat":51.49216,"lon":-0.22352,"name":"Hammersmith Bus Station","parentId":"490G000565","stationId":"490G000565","stopLetter":"E","topMostParentId":"HUBHMS"}]}]}