{"direction":"inbound","lineId":"n279","lineName":"N279","mode":"bus","stopPointSequences":[{"stopPoint":[{"icsId":"1013767","id":"490013767C","lat":51.50826,"lon":-0.12734,"name":"Trafalgar Sq / Charing Cross Stn","parentId":"490G000804","stationId":"490G000804","stopLetter":"C","topMostParentId":"490G000804","towards":"Tottenham Court Road"},{"icsId":"1000135","id":"490000135A","lat":51.51055,"lon":-0.12847,"name":"Leicester Square Station","stopLetter":"L","topMostParentId":"490000135A","towards":"Tottenham Court Road","zone":"1"},{"icsId":"1004695","id":"490004695N","lat":51.51251,"lon":-0.12871,"name":"Cambridge Circus","parentId":"490G00004695","stationId":"490G00004695","stopLetter":"M","topMostParentId":"490G00004695","towards":"Warren Street"},{"icsId":"1019157","id":"490004695A","lat":51.51434,"lon":-0.1298,"name":"Denmark Street","parentId":"490G00019157","stationId":"490G00019157","stopLetter":"A","topMostParentId":"490G00019157","towards":"Warren Street Or Holborn"},{"icsId":"1000235","id":"490000235C","lat":51.51767,"lon":-0.13154,"name":"Tottenham Court Road Station","stopLetter":"C","topMostParentId":"490000235C","towards":"Warren Street Station","zone":"1"},{"icsId":"1000089","id":"490000089A","lat":51.52113,"lon":-0.13505,"name":"Goodge Street Station","stopLetter":"A","topMostParentId":"490000089A","towards":"Camden Town Or Kings Cross","zone":"1"},{"icsId":"1000252","id":"490000252X","lat":51.52411,"lon":-0.13765,"name":"Warren Street Station","stopLetter":"X","topMostParentId":"490000252X","towards":"Camden Town Or Kings Cross","zone":"1"},{"icsId":"1015042","id":"490000252S","lat":51.52594,"lon":-0.13868,"name":"Hampstead Road / Drummond Street","parentId":"490G000850","stationId":"490G000850","stopLetter":"S","topMostParentId":"490G000850","towards":"Camden Town"},{"icsId":"1010158","id":"490010158N","lat":51.52737,"lon":-0.13874,"name":"Robert Street","parentId":"490G00010158","stationId":"490G00010158","stopLetter":"J","topMostParentId":"490G00010158","towards":"Hampstead Heath, Archway Or Finsbury Park"},{"icsId":"1000152","id":"490000152A","lat":51.53403,"lon":-0.13932,"name":"Mornington Crescent Station","stopLetter":"A","topMostParentId":"490000152A","towards":"Chalk Farm, Holloway Or Kentish Town","zone":"2"},{"icsId":"1004714","id":"490004714J","lat":51.53651,"lon":-0.14057,"name":"Camden High Street","parentId":"490G000437","stationId":"490G000437","stopLetter":"J","topMostParentId":"490G000437","towards":"Hampstead Heath Or Finsbury Park"},{"icsId":"1000036","id":"490015041Y","lat":51.53794,"lon":-0.14193,"name":"Camden Town Station","stopLetter":"Y","topMostParentId":"490015041Y","towards":"Finsbury Park Or Kentish Town","zone":"2"},{"icsId":"1019166","id":"490000036N","lat":51.54037,"lon":-0.14042,"name":"Camden Town / Camden Road","parentId":"490G00019166","stationId":"490G00019166","stopLetter":"N","topMostParentId":"490G00019166","towards":"Finsbury Park Or Caledonian Road"},{"icsId":"1001045","id":"490001045G","lat":51.54124,"lon":-0.13897,"name":"Camden Road Station","stopLetter":"G","topMostParentId":"490001045G","towards":"Finsbury Park Or Caledonian Road"},{"icsId":"1012455","id":"490012455E","lat":51.54317,"lon":-0.13717,"name":"St Pancras Way","parentId":"490G00012455","stationId":"490G00012455","stopLetter":"E","topMostParentId":"490G00012455","towards":"Finsbury Park"},{"icsId":"1011616","id":"490011616E","lat":51.54427,"lon":-0.13566,"name":"Murray Street","parentId":"490G00011616","stationId":"490G00011616","stopLetter":"->E","topMostParentId":"490G00011616","towards":"Finsbury Park"},{"icsId":"1011887","id":"490011887N","lat":51.54553,"lon":-0.13388,"name":"Sandall Road","parentId":"490G00011887","stationId":"490G00011887","stopLetter":"E","topMostParentId":"490G00011887","towards":"Finsbury Park"},{"icsId":"1019170","id":"490004715E","lat":51.54674,"lon":-0.13222,"name":"Torriano Avenue","parentId":"490G00019170","stationId":"490G00019170","stopLetter":"F","topMostParentId":"490G00019170","towards":"Finsbury Park"},{"icsId":"1004278","id":"490004278N","lat":51.54945,"lon":-0.12852,"name":"Brecknock Road","parentId":"490G00004278","stationId":"490G00004278","stopLetter":"G","topMostParentId":"490G00004278","towards":"Finsbury Park"},{"icsId":"1015052","id":"490015052N","lat":51.55108,"lon":-0.12661,"name":"Hilldrop Road","parentId":"490G00015052","stationId":"490G00015052","stopLetter":"H","topMostParentId":"490G00015052","towards":"Finsbury Park"},{"icsId":"1007614","id":"490007614N","lat":51.55328,"lon":-0.12404,"name":"Hillmarton Road","parentId":"490G00007614","stationId":"490G00007614","stopLetter":"K","topMostParentId":"490G00007614","towards":"Finsbury Park"},{"icsId":"1004971","id":"490004971N","lat":51.55497,"lon":-0.12258,"name":"Chambers Road","parentId":"490G00004971","stationId":"490G00004971","stopLetter":"L","topMostParentId":"490G00004971","towards":"Archway, Hornsey Or Finsbury Park"},{"icsId":"1008296","id":"490008296C","lat":51.55728,"lon":-0.12037,"name":"Holloway / Nags Head","parentId":"490G00008296","stationId":"490G00008296","stopLetter":"C","topMostParentId":"490G00008296","towards":"Finsbury Park"},{"icsId":"1019152","id":"490008296H","lat":51.55857,"lon":-0.11828,"name":"Seven Sisters Road / Nags Head","parentId":"490G00019152","stationId":"490G00019152","stopLetter":"H","topMostParentId":"490G00019152","towards":"Finsbury Park Or Hornsey Rise"},{"icsId":"1008367","id":"490008367J","lat":51.55981,"lon":-0.11595,"name":"Hornsey Road","parentId":"490G00008367","stationId":"490G00008367","stopLetter":"NP","topMostParentId":"490G00008367","towards":"Finsbury Park Or Hornsey Rise"},{"icsId":"1006272","id":"490006272E","lat":51.56208,"lon":-0.11094,"name":"Durham Road","parentId":"490G00006272","stationId":"490G00006272","stopLetter":"NT","topMostParentId":"490G00006272","towards":"Manor House Or Highbury"},{"icsId":"1006891","id":"490000083X","lat":51.56317,"lon":-0.10795,"name":"Fonthill Road","parentId":"490G00006891","stationId":"490G00006891","stopLetter":"X","topMostParentId":"490G00006891","towards":"Manor House Or Highbury Corner"},{"icsId":"1000083","id":"490000083R","lat":51.564,"lon":-0.10624,"name":"Finsbury Park Station","stopLetter":"R","topMostParentId":"490000083R","towards":"Manor House Or Highbury Corner","zone":"2"},{"icsId":"1015078","id":"490015078L","lat":51.56547,"lon":-0.10348,"name":"Finsbury Park / Blackstock Road","parentId":"490G000858","stationId":"490G000858","stopLetter":"L","topMostParentId":"HUBFPK","towards":"Wood Green, Tottenham Or Stamford Hill"},{"icsId":"1003208","id":"490003208E","lat":51.568,"lon":-0.09975,"name":"Alexandra Grove","parentId":"490G00003208","stationId":"490G00003208","stopLetter":"Q","topMostParentId":"490G00003208","towards":"Wood Green, Tottenham Or Stamford Hill"},{"icsId":"1000142","id":"490000142F","lat":51.5715,"lon":-0.09408,"name":"Manor House Station","stopLetter":"F","topMostParentId":"490000142F","towards":"Tottenham","zone":"2+3"},{"icsId":"1014812","id":"490014812E","lat":51.57234,"lon":-0.09151,"name":"Woodberry Grove","parentId":"490G00014812","stationId":"490G00014812","stopLetter":"G","topMostParentId":"490G00014812","towards":"Tottenham Or Stamford Hill"},{"icsId":"1019705","id":"490003306E","lat":51.57374,"lon":-0.08758,"name":"Amhurst Park","parentId":"490G00019705","stationId":"490G00019705","stopLetter":"S","topMostParentId":"490G00019705","towards":"Tottenham"},{"icsId":"1014012","id":"490014012E","lat":51.57561,"lon":-0.08522,"name":"Vartry Road","parentId":"490G00014012","stationId":"490G00014012","topMostParentId":"490G00014012","towards":"Tottenham"},{"icsId":"1008123","id":"490008123N","lat":51.57728,"lon":-0.08349,"name":"Heysham Road","parentId":"490G00008123","stationId":"490G00008123","stopLetter":"TV","topMostParentId":"490G00008123","towards":"Tottenham"},{"icsId":"1012432","id":"490012432N","lat":51.57888,"lon":-0.08169,"name":"St Ann's Road","parentId":"490G00012432","stationId":"490G00012432","stopLetter":"TW","topMostParentId":"490G00012432","towards":"Tottenham"},{"icsId":"1007439","id":"490015855N","lat":51.58091,"lon":-0.07745,"name":"Elizabeth Road","parentId":"490G000543","stationId":"490G000543","stopLetter":"TX","topMostParentId":"490G000543","towards":"Tottenham"},{"icsId":"1004037","id":"490004037BE","lat":51.5818,"lon":-0.07539,"name":"Birstall Road / Seven Sisters Stn","parentId":"490G000419","stationId":"490G000419","stopLetter":"B","topMostParentId":"490G000419","towards":"Tottenham"},{"icsId":"1000201","id":"490000201J","lat":51.58359,"lon":-0.07247,"name":"Seven Sisters Station","stopLetter":"D","topMostParentId":"490000201J","towards":"Wood Green Or Northumberland Park","zone":"3"},{"icsId":"1013739","id":"490015083E","lat":51.58502,"lon":-0.07199,"name":"College of North East London","parentId":"490G00013739","stationId":"490G00013739","stopLetter":"G","topMostParentId":"490G00013739","towards":"Northumberland Park Or Edmonton"},{"icsId":"1015083","id":"490013739M","lat":51.58799,"lon":-0.07093,"name":"Tottenham Town Hall","parentId":"490G000860","stationId":"490G000860","stopLetter":"V","topMostParentId":"490G000860","towards":"Northumberland Park Or Edmonton"},{"icsId":"1013736","id":"490013736N","lat":51.59039,"lon":-0.07026,"name":"Tottenham Police Station","parentId":"490G00013736","stationId":"490G00013736","stopLetter":"F","topMostParentId":"490G00013736","towards":"Edmonton, Wood Green Or Northumberland Park"},{"icsId":"1018845","id":"490018845N","lat":51.59207,"lon":-0.06998,"name":"St Loys Road","parentId":"490G00018845","stationId":"490G00018845","stopLetter":"G","topMostParentId":"490G00018845","towards":"Turnpike Lane Or Wood Green"},{"icsId":"1009360","id":"490009360N","lat":51.59789,"lon":-0.06811,"name":"Lordship Lane","parentId":"490G00009360","stationId":"490G00009360","stopLetter":"R","topMostParentId":"490G00009360","towards":"Northumberland Park Or Edmonton"},{"icsId":"1013738","id":"490013738N","lat":51.60202,"lon":-0.06791,"name":"Tottenham Sports Centre","parentId":"490G00013738","stationId":"490G00013738","stopLetter":"S","topMostParentId":"490G00013738","towards":"Edmonton Green"},{"icsId":"1013733","id":"490013733R","lat":51.60367,"lon":-0.06807,"name":"Tottenham Hotspur Football Club","parentId":"490G00013733","stationId":"490G00013733","stopLetter":"T","topMostParentId":"490G00013733","towards":"Edmonton Green"},{"icsId":"1001335","id":"490001335S","lat":51.60509,"lon":-0.06827,"name":"White Hart Lane Station","stopLetter":"U","topMostParentId":"490001335S","towards":"Edmonton Green"},{"icsId":"1004262","id":"490004262C","lat":51.60823,"lon":-0.06788,"name":"Brantwood Road","parentId":"490G00004262","stationId":"490G00004262","stopLetter":"V","topMostParentId":"490G00004262","towards":"Edmonton Green"},{"icsId":"1005690","id":"490005690N","lat":51.60976,"lon":-0.06638,"name":"Nutfield Close","parentId":"490G00005690","stationId":"490G00005690","stopLetter":"W","topMostParentId":"490G00005690","towards":"Ponders End"},{"icsId":"1005520","id":"490005520L","lat":51.61312,"lon":-0.06484,"name":"Colyton Way","parentId":"490G00005520","stationId":"490G00005520","stopLetter":"L","topMostParentId":"490G00005520","towards":"Ponders End"},{"icsId":"1003322","id":"490010801H","lat":51.61614,"lon":-0.06404,"name":"Angel Corner","parentId":"490G00003322","stationId":"490G00003322","stopLetter":"H","topMostParentId":"490G00003322","towards":"Ponders End"},{"icsId":"1010801","id":"490010801Z","lat":51.6178,"lon":-0.06341,"name":"Brettenham Road","topMostParentId":"490010801Z","towards":"Ponders End"},{"icsId":"1011968","id":"490011968N","lat":51.6209,"lon":-0.06212,"name":"Shrubbery Road","parentId":"490G00011968","stationId":"490G00011968","stopLetter":"L","topMostParentId":"490G00011968","towards":"Ponders End"},{"icsId":"1006445","id":"490006445B","lat":51.6227,"lon":-0.06157,"name":"Edmonton Police Station","parentId":"490G00006445","stationId":"490G00006445","stopLetter":"M","topMostParentId":"490G00006445","towards":"Bush Hill Park Or Ponders End"},{"icsId":"1001092","id":"490006442R","lat":51.62451,"lon":-0.06074,"name":"Edmonton Green Station","stopLetter":"N","topMostParentId":"490006442R","towards":"Ponders End Or Bush Hill Park"},{"icsId":"1009983","id":"490009983B","lat":51.62533,"lon":-0.05854,"name":"Edmonton Green Bus Station","parentId":"490G00009983","stationId":"490G00009983","stopLetter":"B","topMostParentId":"490G00009983","towards":"Ponders End Or Bush Hill Park"},{"icsId":"1004181","id":"490009983P","lat":51.62666,"lon":-0.05725,"name":"Monmouth Road","parentId":"490G00004181","stationId":"490G00004181","stopLetter":"P","topMostParentId":"490G00004181","towards":"Bush Hill Park Or Ponders End"},{"icsId":"1004180","id":"490004180N1","lat":51.62789,"lon":-0.05648,"name":"Bounces Road","parentId":"490G00004180","stationId":"490G00004180","stopLetter":"LJ","topMostParentId":"490G00004180","towards":"Ponders End Or Bush Hill Park"},{"icsId":"1006043","id":"490006043N","lat":51.63145,"lon":-0.0553,"name":"Bury Street","parentId":"490G00006043","stationId":"490G00006043","stopLetter":"LL","topMostParentId":"490G00006043","towards":"Ponders End"},{"icsId":"1006933","id":"490008387N","lat":51.6335,"lon":-0.05378,"name":"Forest Road / Jubilee Park","parentId":"490G00006933","stationId":"490G00006933","stopLetter":"LM","topMostParentId":"490G00006933","towards":"Ponders End"},{"icsId":"1013770","id":"490013770N","lat":51.63578,"lon":-0.05191,"name":"Tramway Avenue","parentId":"490G00013770","stationId":"490G00013770","stopLetter":"LN","topMostParentId":"490G00013770","towards":"Ponders End Or Waltham Cross"},{"icsId":"1005881","id":"490005881N","lat":51.63788,"lon":-0.0501,"name":"Cuckoo Hall Lane","parentId":"490G00005881","stationId":"490G00005881","stopLetter":"LP","topMostParentId":"490G00005881","towards":"Waltham Cross"},{"icsId":"1007087","id":"490007087N","lat":51.64047,"lon":-0.0478,"name":"Nightingale Road","parentId":"490G00007087","stationId":"490G00007087","stopLetter":"LR","topMostParentId":"490G00007087","towards":"Enfield Town Or Waltham Cross"},{"icsId":"1010364","id":"490012335N","lat":51.64278,"lon":-0.04695,"name":"Orchard Road","parentId":"490G00010364","stationId":"490G00010364","stopLetter":"M","topMostParentId":"490G00010364","towards":"Enfield Town Or Waltham Cross"},{"icsId":"1011367","id":"490011367K","lat":51.64597,"lon":-0.04686,"name":"Ponders End Park","parentId":"490G00011367","stationId":"490G00011367","stopLetter":"K","topMostParentId":"490G00011367","towards":"Enfield Island Village Or Waltham Cross"},{"icsId":"1015442","id":"490015441H","lat":51.64783,"lon":-0.04666,"name":"Southbury Road","parentId":"490G00015442","stationId":"490G00015442","stopLetter":"H","topMostParentId":"490G00015442","towards":"Enfield Island Village Or Waltham Cross"},{"icsId":"1015441","id":"490015441G","lat":51.65032,"lon":-0.04673,"name":"Durants Road","parentId":"490G000895","stationId":"490G000895","stopLetter":"G","topMostParentId":"490G000895","towards":"Brimsdown, Enfield Lock Or Waltham Cross"},{"icsId":"1006579","id":"490006579N","lat":51.65272,"lon":-0.04794,"name":"Enfield College","parentId":"490G00006579","stationId":"490G00006579","stopLetter":"EJ","topMostParentId":"490G00006579","towards":"Brimsdown, Enfield Lock Or Waltham Cross"},{"icsId":"1004314","id":"490013883N","lat":51.6562,"lon":-0.0476,"name":"Green Street","parentId":"490G00004314","stationId":"490G00004314","stopLetter":"EK","topMostParentId":"490G00004314","towards":"Brimsdown, Enfield Lock Or Waltham Cross"},{"icsId":"1004828","id":"490004314N","lat":51.65915,"lon":-0.04712,"name":"Carterhatch Lane","parentId":"490G00004828","stationId":"490G00004828","stopLetter":"EL","topMostParentId":"490G00004828","towards":"Enfield Lock Or Waltham Cross"},{"icsId":"1003254","id":"490004828N","lat":51.66128,"lon":-0.04624,"name":"Oatlands Road","parentId":"490G00003254","stationId":"490G00003254","stopLetter":"EM","topMostParentId":"490G00003254","towards":"Brimsdown, Enfield Lock Or Waltham Cross"},{"icsId":"1012493","id":"490012493N","lat":51.66328,"lon":-0.04525,"name":"Durants School","parentId":"490G00012493","stationId":"490G00012493","stopLetter":"EN","topMostParentId":"490G00012493","towards":"Brimsdown, Enfield Lock Or Waltham Cross"},{"icsId":"1005757","id":"490005757N","lat":51.66526,"lon":-0.04387,"name":"Ingersoll Road","parentId":"490G00005757","stationId":"490G00005757","stopLetter":"E","topMostParentId":"490G00005757","towards":"Brimsdown, Enfield Lock Or Waltham Cross"},{"icsId":"1003140","id":"490003136N","lat":51.66791,"lon":-0.04179,"name":"Albany Leisure Centre","parentId":"490G00003140","stationId":"490G00003140","stopLetter":"F","topMostParentId":"490G00003140","towards":"Enfield Lock Or Waltham Cross"},{"icsId":"1001299","id":"490001299D","lat":51.67036,"lon":-0.04102,"name":"Turkey Street Station","stopLetter":"G","topMostParentId":"490001299D","towards":"Enfield Lock Or Waltham Cross"},{"icsId":"1011290","id":"490010626N","lat":51.67237,"lon":-0.03975,"name":"Totteridge Road","parentId":"490G00011290","stationId":"490G00011290","stopLetter":"H","topMostParentId":"490G00011290","towards":"Waltham Cross"},{"icsId":"1003227","id":"490003227N","lat":51.67485,"lon":-0.03736,"name":"Oakhurst Road","parentId":"490G00003227","stationId":"490G00003227","stopLetter":"J","topMostParentId":"490G00003227","towards":"Waltham Cross"},{"icsId":"1008308","id":"490008308N","lat":51.67756,"lon":-0.03478,"name":"Mandeville Road","parentId":"490G00008308","stationId":"490G00008308","stopLetter":"C","topMostParentId":"490G00008308","towards":"Waltham Cross"},{"icsId":"1004574","id":"490003378H","lat":51.68102,"lon":-0.03391,"name":"Bullsmoor Lane / Mollison Avenue","parentId":"490G00004574","stationId":"490G00004574","stopLetter":"G","topMostParentId":"490G00004574","towards":"Waltham Cross Bus Station"},{"icsId":"1014156","id":"210021703440","lat":51.685733,"lon":-0.031347,"name":"Waltham Cross Bus Station","parentId":"210G432","stationId":"210G432","topMostParentId":"210G432"}]}]}