{"direction":"inbound","lineId":"n55","lineName":"N55","mode":"bus","stopPointSequences":[{"stopPoint":[{"icsId":"1010689","id":"490010689OJ","lat":51.51567,"lon":-0.13905,"name":"Great Titchfield St / Oxford Circus Stn","parentId":"490G000691","stationId":"490G000691","stopLetter":"OJ","topMostParentId":"490G000691","towards":"Holborn Or King's Cross"},{"icsId":"1000235","id":"490000235V","lat":51.51638,"lon":-0.13195,"name":"Tottenham Court Road Station","stopLetter":"V","topMostParentId":"490000235V","towards":"Holborn Or Kings Cross","zone":"1"},{"icsId":"1000379","id":"490000235P","lat":51.51676,"lon":-0.12832,"name":"Tottenham Ct Rd Stn  / New Oxford St","stopLetter":"Y","topMostParentId":"490000235P","towards":"Holborn"},{"icsId":"1010131","id":"490010131WB","lat":51.51758,"lon":-0.12434,"name":"Museum Street","parentId":"490G00010131","stationId":"490G00010131","stopLetter":"E","topMostParentId":"490G00010131","towards":"Aldwych, Angel, Bank Or Old Street"},{"icsId":"1004114","id":"490004114X","lat":51.51859,"lon":-0.12208,"name":"Bloomsbury Square","parentId":"490G00004114","stationId":"490G00004114","stopLetter":"F","topMostParentId":"490G00004114","towards":"Old Street Or Angel Islington"},{"icsId":"1007834","id":"490007834C","lat":51.52011,"lon":-0.11912,"name":"Red Lion Street","parentId":"490G00007834","stationId":"490G00007834","stopLetter":"G","topMostParentId":"490G00007834","towards":"Angel Islington Or Old Street"},{"icsId":"1007391","id":"490007391E","lat":51.52135,"lon":-0.11414,"name":"Gray's Inn Road","parentId":"490G00007391","stationId":"490G00007391","stopLetter":"CA","topMostParentId":"490G00007391","towards":"Angel Islington Or Old Street"},{"icsId":"1011679","id":"490011679E","lat":51.52192,"lon":-0.11172,"name":"Rosebery Avenue","parentId":"490G00011679","stationId":"490G00011679","stopLetter":"CU","topMostParentId":"490G00011679","towards":"Old Street"},{"icsId":"1001988","id":"490001988X","lat":51.52218,"lon":-0.10774,"name":"Farringdon Road","parentId":"490G000312","stationId":"490G000312","stopLetter":"E","topMostParentId":"490G000312","towards":"Old Street"},{"icsId":"1019771","id":"490012745J","lat":51.52261,"lon":-0.10381,"name":"St John Street","parentId":"490G00019771","stationId":"490G00019771","stopLetter":"J","topMostParentId":"490G00019771","towards":"Old Street"},{"icsId":"1007327","id":"490007327E","lat":51.52315,"lon":-0.09966,"name":"Goswell Road","parentId":"490G00007327","stationId":"490G00007327","stopLetter":"BS","topMostParentId":"490G00007327","towards":"Moorgate Or Shoreditch"},{"icsId":"1004936","id":"490004936E","lat":51.52402,"lon":-0.09674,"name":"Central Street","parentId":"490G00004936","stationId":"490G00004936","stopLetter":"BZ","topMostParentId":"490G00004936","towards":"Shoreditch"},{"icsId":"1003657","id":"490003657E","lat":51.5251,"lon":-0.09314,"name":"St Luke's Music Education Centre","parentId":"490G00003657","stationId":"490G00003657","stopLetter":"J","topMostParentId":"490G00003657","towards":"Shoreditch"},{"icsId":"1000169","id":"490015194F","lat":51.52557,"lon":-0.08886,"name":"Old Street Station","stopLetter":"F","topMostParentId":"490015194F","towards":"Shoreditch","zone":"1"},{"icsId":"1005619","id":"490005619Y","lat":51.52684,"lon":-0.08177,"name":"Great Eastern Street","parentId":"490G00005619","stationId":"490G00005619","stopLetter":"Y","topMostParentId":"490G00005619","towards":"Cambridge Heath Or Dalston"},{"icsId":"1010585","id":"490010585X","lat":51.52729,"lon":-0.07964,"name":"Shoreditch Town Hall","parentId":"490G00010585","stationId":"490G00010585","stopLetter":"X","topMostParentId":"490G00010585","towards":"Cambridge Heath Or Dalston"},{"icsId":"1005512","id":"490005512R","lat":51.52788,"lon":-0.07651,"name":"Hackney Road / Columbia Road","parentId":"490G00005512","stationId":"490G00005512","stopLetter":"R","topMostParentId":"490G00005512","towards":"Hackney Central Or Hackney Wick"},{"icsId":"1001570","id":"490005737N","lat":51.53008,"lon":-0.07439,"name":"Hoxton Station","stopLetter":"HG","topMostParentId":"490005737N","towards":"Hackney Central Or Hackney Wick"},{"icsId":"1011325","id":"490011325E","lat":51.53106,"lon":-0.07037,"name":"Queensbridge Road","parentId":"490G00011325","stationId":"490G00011325","stopLetter":"HH","topMostParentId":"490G00011325","towards":"Hackney Central Or Hackney Wick"},{"icsId":"1011306","id":"490011306E","lat":51.53149,"lon":-0.06438,"name":"Warner Place","parentId":"490G00011306","stationId":"490G00011306","stopLetter":"HJ","topMostParentId":"490G00011306","towards":"Hackney Central Or Hackney Wick"},{"icsId":"1011243","id":"490011243E","lat":51.53207,"lon":-0.06082,"name":"Pritchards Road","parentId":"490G00011243","stationId":"490G00011243","stopLetter":"HK","topMostParentId":"490G00011243","towards":"Hackney Central Or Hackney Wick"},{"icsId":"1001044","id":"490001044O","lat":51.5325,"lon":-0.05804,"name":"Cambridge Heath Station","stopLetter":"O","topMostParentId":"490001044O","towards":"Hackney Central Or Hackney Wick"},{"icsId":"1003314","id":"490003314R","lat":51.53507,"lon":-0.05733,"name":"Mare Street / Victoria Park Road","parentId":"490G00003314","stationId":"490G00003314","stopLetter":"R","topMostParentId":"490G00003314","towards":"Hackney Central Or Hackney Wick"},{"icsId":"1008739","id":"490012442N","lat":51.53849,"lon":-0.05722,"name":"King Edward's Road","parentId":"490G00008739","stationId":"490G00008739","stopLetter":"LP","topMostParentId":"490G00008739","towards":"Hackney Central, Hackney Wick Or Homerton"},{"icsId":"1014373","id":"490014373LC","lat":51.54057,"lon":-0.05553,"name":"Mare Street / Well Street","parentId":"490G00014373","stationId":"490G00014373","stopLetter":"LC","topMostParentId":"490G00014373","towards":"Clapton Pond, Dalston Or Homerton"},{"icsId":"1012462","id":"490012462N","lat":51.54171,"lon":-0.05531,"name":"St Thomas's Square","parentId":"490G000758","stationId":"490G000758","stopLetter":"LQ","topMostParentId":"490G000758","towards":"Hackney Wick, Dalston Or Clapton Pond"},{"icsId":"1007626","id":"490007626A","lat":51.54506,"lon":-0.05545,"name":"Hackney Town Hall","parentId":"490G000560","stationId":"490G000560","stopLetter":"A","topMostParentId":"490G000560"},{"icsId":"1001127","id":"490001127J","lat":51.54788,"lon":-0.05679,"name":"Hackney Central Station","stopLetter":"J","topMostParentId":"490001127J","towards":"Clapton Pond"},{"icsId":"1019876","id":"490001128L","lat":51.54865,"lon":-0.05841,"name":"Amhurst Road / Hackney Downs Station","parentId":"490G000961","stationId":"490G000961","stopLetter":"L","topMostParentId":"490G000961","towards":"Clapton Pond, Dalston Or Homerton"},{"icsId":"1010151","id":"490010151R","lat":51.54957,"lon":-0.05543,"name":"Mare Street / Narrow Way","parentId":"490G00010151","stationId":"490G00010151","stopLetter":"R","topMostParentId":"490G00010151","towards":"Clapton Pond"},{"icsId":"1007619","id":"490007619U","lat":51.55096,"lon":-0.0525,"name":"Hackney Baths","parentId":"490G00007619","stationId":"490G00007619","stopLetter":"U","topMostParentId":"490G00007619","towards":"Clapton Or Bakers Arms"},{"icsId":"1007220","id":"490007220Z","lat":51.5518,"lon":-0.05218,"name":"Glenarm Road","parentId":"490G00007220","stationId":"490G00007220","stopLetter":"Z","topMostParentId":"490G00007220","towards":"Clapton Or Bakers Arms"},{"icsId":"1009195","id":"490009195N","lat":51.55349,"lon":-0.05346,"name":"Clapton Girls' Academy","parentId":"490G00009195","stationId":"490G00009195","stopLetter":"L","topMostParentId":"490G00009195","towards":"Stamford Hill, Stoke Newington Or Leyton"},{"icsId":"1005340","id":"490005340H","lat":51.55556,"lon":-0.05505,"name":"Clapton Pond","parentId":"490G00005340","stationId":"490G00005340","stopLetter":"H","topMostParentId":"490G00005340","towards":"Stamford Hill, Stoke Newington Or Leyton"},{"icsId":"1009035","id":"490009035L","lat":51.55723,"lon":-0.05597,"name":"Lea Bridge Roundabout","parentId":"490G00009035","stationId":"490G00009035","stopLetter":"L","topMostParentId":"490G00009035","towards":"Leyton"},{"icsId":"1005337","id":"490005337S","lat":51.55928,"lon":-0.05264,"name":"Lea Bridge Road / Upper Clapton Road","parentId":"490G00005337","stationId":"490G00005337","stopLetter":"S","topMostParentId":"490G00005337","towards":"Leyton Or Homerton Hospital"},{"icsId":"1005048","id":"490005048E","lat":51.56118,"lon":-0.0481,"name":"Chatsworth Road","parentId":"490G00005048","stationId":"490G00005048","stopLetter":"V","topMostParentId":"490G00005048","towards":"Leyton"},{"icsId":"1009072","id":"490009072E","lat":51.56287,"lon":-0.04422,"name":"Lee Valley Ice Centre","parentId":"490G00009072","stationId":"490G00009072","stopLetter":"W","topMostParentId":"490G00009072","towards":"Bakers Arms"},{"icsId":"1009073","id":"490009073E","lat":51.5646,"lon":-0.04016,"name":"Lee Valley Riding Centre","parentId":"490G00009073","stationId":"490G00009073","stopLetter":"X","topMostParentId":"490G00009073","towards":"Bakers Arms"},{"icsId":"1010956","id":"490010956E","lat":51.56779,"lon":-0.03241,"name":"Perth Road","parentId":"490G00010956","stationId":"490G00010956","stopLetter":"LE","topMostParentId":"490G00010956","towards":"Bakers Arms"},{"icsId":"1009131","id":"490009131E","lat":51.5688,"lon":-0.02953,"name":"Emmanuel Parish Church","parentId":"490G00009131","stationId":"490G00009131","stopLetter":"LF","topMostParentId":"490G00009131","towards":"Bakers Arms"},{"icsId":"1009668","id":"490009668E","lat":51.57005,"lon":-0.02619,"name":"Markhouse Road","parentId":"490G00009668","stationId":"490G00009668","stopLetter":"LG","topMostParentId":"490G00009668","towards":"Bakers Arms"},{"icsId":"1011612","id":"490011612E","lat":51.57182,"lon":-0.02118,"name":"Rochdale Road","parentId":"490G00011612","stationId":"490G00011612","stopLetter":"LH","topMostParentId":"490G00011612","towards":"Walthamstow Central Or Whipps Cross"},{"icsId":"1000433","id":"490012123E","lat":51.57291,"lon":-0.01723,"name":"Shrubland Road","parentId":"490G00000433","stationId":"490G00000433","stopLetter":"EA","topMostParentId":"490G00000433","towards":"Walthamstow Central Or Whipps Cross"},{"icsId":"1009130","id":"490009130N","lat":51.57481,"lon":-0.01379,"name":"High Road Leyton / Bakers Arms","parentId":"490G00009130","stationId":"490G00009130","stopLetter":"EC","topMostParentId":"490G00009130","towards":"Walthamstow Central Or Whipps Cross"},{"icsId":"1015102","id":"490015102C","lat":51.57639,"lon":-0.01168,"name":"Lea Bridge Road / Bakers Arms","parentId":"490G00015102","stationId":"490G00015102","stopLetter":"EH","topMostParentId":"490G00015102","towards":"Whipps Cross Or Wood Street"},{"icsId":"1009135","id":"490009135EJ","lat":51.57768,"lon":-0.00835,"name":"Leyton Green Road","parentId":"490G00009135","stationId":"490G00009135","stopLetter":"EJ","topMostParentId":"490G00009135","towards":"Highams Park, Leytonstone Or Woodford Green"},{"icsId":"1012080","id":"490012080E","lat":51.57937,"lon":-0.00518,"name":"Shernhall Street","parentId":"490G00012080","stationId":"490G00012080","stopLetter":"EK","topMostParentId":"490G00012080","towards":"Highams Park, Leytonstone Or Woodford Green"},{"icsId":"1006342","id":"490006342E","lat":51.58002,"lon":-0.00344,"name":"Peterborough Road","parentId":"490G00006342","stationId":"490G00006342","stopLetter":"EL","topMostParentId":"490G00006342","towards":"Highams Park, Leytonstone Or Woodford Green"},{"icsId":"1014569","id":"490014569A","lat":51.58116,"lon":-0.00093,"name":"Whipps Cross / Wood Street","parentId":"490G00014569","stationId":"490G00014569","stopLetter":"A","topMostParentId":"490G00014569","towards":"Leytonstone Or Woodford Green"},{"icsId":"1002116","id":"490002116Z","lat":51.58113,"lon":0.0017,"name":"Whipps Cross Bus Stand","parentId":"490G000338","stationId":"490G000338","stopLetter":"V","topMostParentId":"490G000338","towards":"Leytonstone Or Snaresbrook"},{"icsId":"1014566","id":"490014566E","lat":51.57977,"lon":0.00417,"name":"Whipps Cross Hospital","parentId":"490G00014566","stationId":"490G00014566","stopLetter":"E","topMostParentId":"490G00014566","towards":"Leytonstone Or Walthamstow Village"},{"icsId":"1008538","id":"490008538T","lat":51.5781,"lon":0.00907,"name":"James Lane","parentId":"490G00008538","stationId":"490G00008538","stopLetter":"T","topMostParentId":"490G00008538","towards":"Leytonstone Or Walthamstow Village"},{"icsId":"1012178","id":"490012178S","lat":51.577,"lon":0.01164,"name":"Sir Alfred Hitchcock Hotel","parentId":"490G00012178","stationId":"490G00012178","stopLetter":"->S","topMostParentId":"490G00012178","towards":"Leytonstone"},{"icsId":"1009143","id":"490009143S","lat":51.57367,"lon":0.01524,"name":"Leyton Way","parentId":"490G00009143","stationId":"490G00009143","stopLetter":"PP","topMostParentId":"490G00009143","towards":"Stratford"},{"icsId":"1004711","id":"490004711E","lat":51.57267,"lon":0.01989,"name":"Cambridge Road","parentId":"490G00004711","stationId":"490G00004711","stopLetter":"H","topMostParentId":"490G00004711","towards":"Ilford Or South Woodford"},{"icsId":"1004088","id":"490004088E","lat":51.57384,"lon":0.02288,"name":"Blake Hall Road","parentId":"490G00004088","stationId":"490G00004088","stopLetter":"K","topMostParentId":"490G00004088","towards":"Ilford Or South Woodford"},{"icsId":"1000250","id":"490015125B","lat":51.57531,"lon":0.02712,"name":"Wanstead Station","stopLetter":"B","topMostParentId":"490015125B","towards":"Ilford Or South Woodford","zone":"4"},{"icsId":"1014206","id":"490014206N","lat":51.57833,"lon":0.02571,"name":"Wanstead Place","parentId":"490G00014206","stationId":"490G00014206","stopLetter":"SH","topMostParentId":"490G00014206","towards":"South Woodford Or Leytonstone Station"},{"icsId":"1010266","id":"490010266N","lat":51.58069,"lon":0.02374,"name":"New Wanstead","parentId":"490G000679","stationId":"490G000679","stopLetter":"SU","topMostParentId":"490G000679","towards":"South Woodford"},{"icsId":"1013137","id":"490013137N","lat":51.58264,"lon":0.02467,"name":"Sylvan Road","parentId":"490G00013137","stationId":"490G00013137","stopLetter":"SV","topMostParentId":"490G00013137","towards":"South Woodford"},{"icsId":"1008100","id":"490008100N","lat":51.58468,"lon":0.02553,"name":"Heronwood Hospital","parentId":"490G00008100","stationId":"490G00008100","stopLetter":"SW","topMostParentId":"490G00008100","towards":"Woodford"},{"icsId":"1005018","id":"490005018N","lat":51.58823,"lon":0.0284,"name":"Charnwood Drive","parentId":"490G00005018","stationId":"490G00005018","stopLetter":"T","topMostParentId":"490G00005018","towards":"Woodford Or Whipps Cross"},{"icsId":"1019203","id":"490008091W","lat":51.59019,"lon":0.02996,"name":"George Lane / Chigwell Road","parentId":"490G00019203","stationId":"490G00019203","stopLetter":"Z","topMostParentId":"490G00019203","towards":"Snaresbrook, Woodford Green Or Whipps Cross"},{"icsId":"1000217","id":"490000217E","lat":51.59173,"lon":0.02789,"name":"South Woodford Station","stopLetter":"E","topMostParentId":"490000217E","towards":"Woodford Green","zone":"4"},{"icsId":"1007164","id":"490007164H","lat":51.5944,"lon":0.02411,"name":"George Lane Shopping Centre","parentId":"490G00007164","stationId":"490G00007164","stopLetter":"H","topMostParentId":"490G00007164","towards":"Snaresbrook, Woodford Green Or Whipps Cross"},{"icsId":"1007138","id":"490007137L","lat":51.59629,"lon":0.02151,"name":"Southend Road","parentId":"490G00007138","stationId":"490G00007138","stopLetter":"L","topMostParentId":"490G00007138","towards":"Woodford Wells"},{"icsId":"1005259","id":"490005259N","lat":51.5993,"lon":0.02032,"name":"Chelmsford Road","parentId":"490G00005259","stationId":"490G00005259","stopLetter":"X","topMostParentId":"490G00005259","towards":"Woodford Wells"},{"icsId":"1014845","id":"490014845N","lat":51.60184,"lon":0.01923,"name":"Empress Avenue","parentId":"490G00014845","stationId":"490G00014845","stopLetter":"Y","topMostParentId":"490G00014845","towards":"Woodford Wells"},{"icsId":"1005269","id":"490005270N","lat":51.60363,"lon":0.01892,"name":"Churchill Memorial","parentId":"490G00005269","stationId":"490G00005269","stopLetter":"Z","topMostParentId":"490G00005269","towards":"Woodford Wells"},{"icsId":"1005177","id":"490005269N","lat":51.60636,"lon":0.01885,"name":"Chingford Lane","parentId":"490G00005177","stationId":"490G00005177","stopLetter":"S","topMostParentId":"490G00005177","towards":"Chingford Or Buckhurst Hill"},{"icsId":"1014847","id":"490014847N","lat":51.60908,"lon":0.02106,"name":"Woodford Green / Broadmead Road","parentId":"490G000842","stationId":"490G000842","stopLetter":"U","topMostParentId":"490G000842","towards":"Buckhurst Hill Or Chingford"},{"icsId":"1009973","id":"490009973N","lat":51.61325,"lon":0.02411,"name":"Monkhams Lane","parentId":"490G00009973","stationId":"490G00009973","stopLetter":"V","topMostParentId":"490G00009973","towards":"Buckhurst Hill Or Chingford"},{"icsId":"1015121","id":"490015121N","lat":51.61589,"lon":0.02519,"name":"St Thomas of Canterbury Church","parentId":"490G00015121","stationId":"490G00015121","stopLetter":"FH","topMostParentId":"490G00015121","towards":"Buckhurst Hill Or Chingford"}]}]}