{"direction":"inbound","lineId":"n550","lineName":"N550","mode":"bus","stopPointSequences":[{"stopPoint":[{"icsId":"1000039","id":"490000039C","lat":51.51404,"lon":0.0089,"name":"Canning Town Bus Station","stopLetter":"C","topMostParentId":"490000039C","zone":"2/3"},{"icsId":"1000801","id":"490000801X","lat":51.50989,"lon":0.0051,"name":"Leamouth / Orchard Place","parentId":"490G000153","stationId":"490G000153","stopLetter":"I","topMostParentId":"490G000153","towards":"Canary Wharf"},{"icsId":"1000805","id":"490000805Z","lat":51.50981,"lon":3e-04,"name":"Leamouth Road","parentId":"490G000157","stationId":"490G000157","stopLetter":"BC","topMostParentId":"490G000157","towards":"Canary Wharf"},{"icsId":"1002033","id":"490002033Z","lat":51.50899,"lon":-0.00265,"name":"East India Station","parentId":"940GZZDLEIN","stationId":"940GZZDLEIN","stopLetter":"X","topMostParentId":"940GZZDLEIN","towards":"Canary Wharf","zone":"2/3"},{"icsId":"1000804","id":"490000804Z","lat":51.5078,"lon":-0.0049,"name":"Baffin Way","parentId":"490G000156","stationId":"490G000156","stopLetter":"BD","topMostParentId":"490G000156","towards":"Canary Wharf"},{"icsId":"1003459","id":"490003459Q","lat":51.50598,"lon":-0.0074,"name":"Aspen Way","parentId":"490G00003459","stationId":"490G00003459","stopLetter":"Q","topMostParentId":"490G00003459","towards":"Crossharbour Or Island Gardens"},{"icsId":"1004321","id":"490005461S","lat":51.50338,"lon":-0.00802,"name":"Coldharbour","parentId":"490G00004321","stationId":"490G00004321","stopLetter":"H","topMostParentId":"490G00004321","towards":"Crossharbour Or Island Gardens"},{"icsId":"1013513","id":"490013513S","lat":51.49926,"lon":-0.00928,"name":"Stewart Street","parentId":"490G00013513","stationId":"490G00013513","stopLetter":"J","topMostParentId":"490G00013513","towards":"Island Gardens"},{"icsId":"1012736","id":"490012736S","lat":51.49709,"lon":-0.00949,"name":"St John's Park","parentId":"490G00012736","stationId":"490G00012736","stopLetter":"K","topMostParentId":"490G00012736","towards":"Canary Wharf"},{"icsId":"1005878","id":"490005878S","lat":51.49434,"lon":-0.00828,"name":"Cubitt Town School","parentId":"490G00005878","stationId":"490G00005878","stopLetter":"CQ","topMostParentId":"490G00005878","towards":"Canary Wharf"},{"icsId":"1010999","id":"490010999S","lat":51.49231,"lon":-0.0062,"name":"Pier Street","parentId":"490G00010999","stationId":"490G00010999","stopLetter":"CR","topMostParentId":"490G00010999","towards":"Canary Wharf"},{"icsId":"1007241","id":"490007241S","lat":51.48946,"lon":-0.0065,"name":"Christ Church Isle of Dogs","parentId":"490G00007241","stationId":"490G00007241","stopLetter":"C","topMostParentId":"490G00007241","towards":"Canary Wharf"},{"icsId":"1002048","id":"490002048Z","lat":51.48778,"lon":-0.00971,"name":"Island Gardens Station","stopLetter":"D","topMostParentId":"490002048Z","towards":"Canary Wharf","zone":"2"},{"icsId":"1006345","id":"490006345W","lat":51.48723,"lon":-0.01264,"name":"East Ferry Road","parentId":"490G00006345","stationId":"490G00006345","stopLetter":"E","topMostParentId":"490G00006345","towards":"Canary Wharf"},{"icsId":"1013550","id":"490013550W","lat":51.48764,"lon":-0.0172,"name":"Langbourne Place","parentId":"490G00013550","stationId":"490G00013550","stopLetter":"F","topMostParentId":"490G00013550","towards":"Canary Wharf"},{"icsId":"1007774","id":"490007774N","lat":51.48961,"lon":-0.02169,"name":"Harbinger School / Masthouse Ter. Pier","parentId":"490G000570","stationId":"490G000570","stopLetter":"M","topMostParentId":"490G000570","towards":"Canary Wharf"},{"icsId":"1012438","id":"490012438N","lat":51.49104,"lon":-0.02367,"name":"St Edmund's School","parentId":"490G00012438","stationId":"490G00012438","stopLetter":"N","topMostParentId":"490G00012438","towards":"Canary Wharf"},{"icsId":"1008757","id":"490008757N","lat":51.49275,"lon":-0.02495,"name":"Crews Street","parentId":"490G00008757","stationId":"490G00008757","stopLetter":"P","topMostParentId":"490G00008757","towards":"Canary Wharf"},{"icsId":"1006092","id":"490006092N","lat":51.49458,"lon":-0.02526,"name":"Arnhem Wharf Primary School","parentId":"490G00006092","stationId":"490G00006092","stopLetter":"R","topMostParentId":"490G00006092","towards":"Canary Wharf"},{"icsId":"1012181","id":"490012181N","lat":51.497,"lon":-0.02589,"name":"Sir John Mcdougall Gardens","parentId":"490G00012181","stationId":"490G00012181","stopLetter":"S","topMostParentId":"490G00012181","towards":"Limehouse"},{"icsId":"1003602","id":"490003602N","lat":51.49835,"lon":-0.02599,"name":"Barkantine Clinic / Hutchings Street","parentId":"490G00003602","stationId":"490G00003602","stopLetter":"T","topMostParentId":"490G00003602","towards":"Limehouse"},{"icsId":"1009548","id":"490009545N","lat":51.50035,"lon":-0.02615,"name":"Byng Street","parentId":"490G00009548","stationId":"490G00009548","stopLetter":"U","topMostParentId":"490G00009548","towards":"Limehouse"},{"icsId":"1005323","id":"490005323N","lat":51.50235,"lon":-0.02599,"name":"Marsh Wall / Heron Quay","parentId":"490G00005323","stationId":"490G00005323","stopLetter":"V","topMostParentId":"490G00005323","towards":"Limehouse"},{"icsId":"1016668","id":"490016668K","lat":51.50287,"lon":-0.01819,"name":"Canary Wharf Station","parentId":"490G000917","stationId":"490G000917","stopLetter":"K","topMostParentId":"HUBCAW","towards":"Limehouse"},{"icsId":"1016729","id":"490000038J","lat":51.50448,"lon":-0.01879,"name":"Canada Square South / Canary Wharf Stn","parentId":"490G00016729","stationId":"490G00016729","stopLetter":"J","topMostParentId":"490G00016729","towards":"Limehouse"},{"icsId":"1000038","id":"490000038G","lat":51.50472,"lon":-0.02105,"name":"Canary Wharf Station","stopLetter":"G","topMostParentId":"490000038G","towards":"Limehouse","zone":"2"},{"icsId":"1014483","id":"490014483E","lat":51.50546,"lon":-0.02518,"name":"West India Avenue","parentId":"490G000827","stationId":"490G000827","stopLetter":"E","topMostParentId":"490G000827","towards":"Limehouse"},{"icsId":"1014457","id":"490014457B","lat":51.50541,"lon":-0.02682,"name":"Westferry Circus / Canary Wharf Pier","parentId":"490G000825","stationId":"490G000825","stopLetter":"B","topMostParentId":"490G000825","towards":"Poplar Or Limehouse"},{"icsId":"1014459","id":"490014459B","lat":51.50919,"lon":-0.02689,"name":"Westferry Station","parentId":"490G000826","stationId":"490G000826","stopLetter":"WK","topMostParentId":"490G000826","towards":"Aldgate, Mile End Or Wapping"},{"icsId":"1011878","id":"490011878N","lat":51.51009,"lon":-0.02674,"name":"Salter Street","parentId":"490G00011878","stationId":"490G00011878","stopLetter":"WL","topMostParentId":"490G00011878","towards":"Aldgate, Mile End Or Wapping"},{"icsId":"1009159","id":"490014484N","lat":51.51108,"lon":-0.02764,"name":"Limehouse Police Station","parentId":"490G00009159","stationId":"490G00009159","stopLetter":"WM","topMostParentId":"490G00009159","towards":"Aldgate Or Wapping"},{"icsId":"1009160","id":"490009160W","lat":51.51223,"lon":-0.031,"name":"Limehouse Town Hall","parentId":"490G00009160","stationId":"490G00009160","stopLetter":"LH","topMostParentId":"490G00009160","towards":"Aldgate"},{"icsId":"1009403","id":"490009403W","lat":51.51242,"lon":-0.03432,"name":"Lowell Street","parentId":"490G00009403","stationId":"490G00009403","stopLetter":"LJ","topMostParentId":"490G00009403","towards":"Wapping and Aldgate"},{"icsId":"1001180","id":"490001180W","lat":51.51272,"lon":-0.04052,"name":"Limehouse Station","stopLetter":"LK","topMostParentId":"490001180W","towards":"Aldgate Or Wapping","zone":"2"},{"icsId":"1012669","id":"490012669W","lat":51.51311,"lon":-0.04345,"name":"Stepney Methodist Church","parentId":"490G00012669","stationId":"490G00012669","stopLetter":"LL","topMostParentId":"490G00012669","towards":"Aldgate"},{"icsId":"1009655","id":"490009655W","lat":51.51311,"lon":-0.04596,"name":"Marion Richardson School","parentId":"490G00009655","stationId":"490G00009655","stopLetter":"LM","topMostParentId":"490G00009655","towards":"Aldgate"},{"icsId":"1006692","id":"490006692W","lat":51.51352,"lon":-0.04949,"name":"Exmouth Estate","parentId":"490G00006692","stationId":"490G00006692","stopLetter":"->W","topMostParentId":"490G00006692","towards":"Aldgate"},{"icsId":"1012782","id":"490012782W","lat":51.51401,"lon":-0.05234,"name":"St Mary's & St Michael's Church","parentId":"490G00012782","stationId":"490G00012782","topMostParentId":"490G00012782","towards":"Aldgate"},{"icsId":"1014308","id":"490014308E","lat":51.5144,"lon":-0.05706,"name":"Watney Market","parentId":"490G00014308","stationId":"490G00014308","stopLetter":"E","topMostParentId":"490G00014308","towards":"Aldgate"},{"icsId":"1010255","id":"490010255W","lat":51.51466,"lon":-0.06091,"name":"New Road","parentId":"490G00010255","stationId":"490G00010255","stopLetter":"T","topMostParentId":"490G00010255","towards":"Liverpool Street Or Tower Hill"},{"icsId":"1009276","id":"490009276W","lat":51.51474,"lon":-0.06526,"name":"Henriques Street","parentId":"490G00009276","stationId":"490G00009276","stopLetter":"U","topMostParentId":"490G00009276","towards":"Liverpool Street Or Tower Hill"},{"icsId":"1000004","id":"490000004W","lat":51.51465,"lon":-0.07321,"name":"Aldgate East Station","stopLetter":"J","topMostParentId":"490000004W","towards":"Bank, Tower Hill Or Liverpool Street","zone":"1"},{"icsId":"1000003","id":"490000003R","lat":51.51408,"lon":-0.07493,"name":"Aldgate Station","stopLetter":"R","topMostParentId":"490000003R","towards":"Bank, London Bridge Or Tower Bridge","zone":"1"},{"icsId":"1012755","id":"490012755W","lat":51.51327,"lon":-0.07938,"name":"St Katharine Cree","parentId":"490G000767","stationId":"490G000767","stopLetter":"W","topMostParentId":"490G000767","towards":"St Paul's Cathedral"},{"icsId":"1012783","id":"490012783W","lat":51.51342,"lon":-0.0827,"name":"St Mary Axe","parentId":"490G00012783","stationId":"490G00012783","stopLetter":"Z","topMostParentId":"490G00012783","towards":"St Paul's Cathedral"},{"icsId":"1007606","id":"490000013E","lat":51.51327,"lon":-0.08775,"name":"Bank Station  / Cornhill","parentId":"490G000556","stationId":"490G000556","stopLetter":"E","topMostParentId":"HUBBAN","towards":"St Paul's Cathedral"},{"icsId":"1007596","id":"490007596L","lat":51.51359,"lon":-0.0913,"name":"Poultry / Bank Station","parentId":"490G00007596","stationId":"490G00007596","stopLetter":"L","topMostParentId":"490G00007596","towards":"Holborn"},{"icsId":"1010200","id":"490010200C","lat":51.51304,"lon":-0.09746,"name":"St Paul's Churchyard","parentId":"490G00010200","stationId":"490G00010200","stopLetter":"SH","topMostParentId":"490G00010200","towards":"Waterloo,trafalgar Square Or Holborn"},{"icsId":"1012873","id":"490012873B","lat":51.51329,"lon":-0.09964,"name":"St Paul's Cathedral","parentId":"490G00012873","stationId":"490G00012873","stopLetter":"SJ","topMostParentId":"490G00012873","towards":"Waterloo, Trafalgar Square Or Holborn"},{"icsId":"1019767","id":"490009443F","lat":51.51412,"lon":-0.10352,"name":"City Thameslink Stn  / Ludgate Circus","parentId":"490G00019767","stationId":"490G00019767","stopLetter":"F","topMostParentId":"490G00019767","towards":"Waterloo, Trafalgar Square Or Holborn"},{"icsId":"1006826","id":"490006826W","lat":51.51414,"lon":-0.10839,"name":"Fetter Lane","parentId":"490G00006826","stationId":"490G00006826","stopLetter":"->W","topMostParentId":"490G00006826","towards":"Trafalgar Square Or Waterloo"},{"icsId":"1015067","id":"490015067W","lat":51.51387,"lon":-0.11044,"name":"Chancery Lane","parentId":"490G00015067","stationId":"490G00015067","stopLetter":"->W","topMostParentId":"490G00015067","towards":"Waterloo Or Trafalgar Square"},{"icsId":"1011757","id":"490011757P","lat":51.51296,"lon":-0.11353,"name":"The Royal Courts of Justice","parentId":"490G000731","stationId":"490G000731","stopLetter":"P","topMostParentId":"490G000731","towards":"Waterloo Or Trafalgar Square"},{"icsId":"1000293","id":"490000293Z","lat":51.51306,"lon":-0.11543,"name":"Aldwych / Australia House","parentId":"490G000023","stationId":"490G000023","stopLetter":"G","topMostParentId":"490G000023","towards":"Trafalgar Square Or Waterloo"},{"icsId":"1019703","id":"490019703Y","lat":51.51278,"lon":-0.11831,"name":"Aldwych / Drury Lane","parentId":"490G00019703","stationId":"490G00019703","stopLetter":"R","topMostParentId":"490G00019703","towards":"Trafalgar Square"},{"icsId":"1011938","id":"490011938U","lat":51.51077,"lon":-0.12048,"name":"Savoy Street","parentId":"490G000737","stationId":"490G000737","stopLetter":"U","topMostParentId":"490G000737","towards":"Parliament Square Or Piccadilly"},{"icsId":"1003112","id":"490003112J","lat":51.50967,"lon":-0.12319,"name":"Bedford Street","parentId":"490G00003112","stationId":"490G00003112","stopLetter":"J","topMostParentId":"490G00003112","towards":"Oxford Circus, Green Park Or Westminster"},{"icsId":"1000045","id":"490013766H","lat":51.50843,"lon":-0.12552,"name":"Charing Cross Station","stopLetter":"H","topMostParentId":"490013766H","towards":"Hyde Park Corner Or Oxford Circus","zone":"1"},{"icsId":"1013767","id":"490013767S","lat":51.50745,"lon":-0.12945,"name":"Trafalgar Square","parentId":"490G000804","stationId":"490G000804","stopLetter":"S","topMostParentId":"490G000804","towards":"Hyde Park Corner"}]}]}