{"direction":"inbound","lineId":"n86","lineName":"N86","mode":"bus","stopPointSequences":[{"stopPoint":[{"icsId":"1005929","id":"490005929N","lat":51.60556,"lon":0.24343,"name":"Dagnam Park Square","parentId":"490G00005929","stationId":"490G00005929","stopLetter":"DJ","topMostParentId":"490G00005929","towards":"Gallows Corner"},{"icsId":"1012054","id":"490012054N","lat":51.60666,"lon":0.24249,"name":"Sheffield Drive","parentId":"490G00012054","stationId":"490G00012054","stopLetter":"DK","topMostParentId":"490G00012054","towards":"Gallows Corner"},{"icsId":"1011997","id":"490011997W","lat":51.6083,"lon":0.24,"name":"Settle Road","parentId":"490G00011997","stationId":"490G00011997","stopLetter":"DL","topMostParentId":"490G00011997","towards":"Gallows Corner"},{"icsId":"1011971","id":"490011971W","lat":51.60951,"lon":0.23469,"name":"Sedgefield Crescent","parentId":"490G00011971","stationId":"490G00011971","stopLetter":"DT","topMostParentId":"490G00011971","towards":"Gallows Corner"},{"icsId":"1007799","id":"490007799W","lat":51.60907,"lon":0.22921,"name":"Harkness Close","parentId":"490G00007799","stationId":"490G00007799","stopLetter":"DV","topMostParentId":"490G00007799","towards":"Harold Wood Or Gallows Corner"},{"icsId":"1004473","id":"490004473W","lat":51.6085,"lon":0.22408,"name":"Brookside School","parentId":"490G00004473","stationId":"490G00004473","stopLetter":"DU","topMostParentId":"490G00004473","towards":"Harold Wood Or Gallows Corner"},{"icsId":"1005187","id":"490005187W","lat":51.60793,"lon":0.22082,"name":"Chippenham Road","parentId":"490G00005187","stationId":"490G00005187","stopLetter":"HH","topMostParentId":"490G00005187","towards":"Noak Hill Or Gallows Corner"},{"icsId":"1006762","id":"490006762W","lat":51.60715,"lon":0.21762,"name":"Hilldene Avenue Shopping Centre","parentId":"490G00006762","stationId":"490G00006762","stopLetter":"->W","topMostParentId":"490G00006762","towards":"Noak Hill Or Gallows Corner"},{"icsId":"1004992","id":"490004992W","lat":51.60535,"lon":0.2122,"name":"Chatteris Avenue","parentId":"490G00004992","stationId":"490G00004992","stopLetter":"->W","topMostParentId":"490G00004992","towards":"Noak Hill Or Gallows Corner"},{"icsId":"1012895","id":"490012895W","lat":51.60488,"lon":0.21008,"name":"Charlbury Crescent","parentId":"490G00012895","stationId":"490G00012895","stopLetter":"->W","topMostParentId":"490G00012895","towards":"Gallows Corner Or Noak Hill"},{"icsId":"1007354","id":"490007354S","lat":51.60322,"lon":0.20999,"name":"Grange Road","parentId":"490G00007354","stationId":"490G00007354","stopLetter":"->S","topMostParentId":"490G00007354","towards":"Gallows Corner"},{"icsId":"1010143","id":"490010143S","lat":51.60174,"lon":0.21057,"name":"Myrtle Road","parentId":"490G00010143","stationId":"490G00010143","stopLetter":"->S","topMostParentId":"490G00010143","towards":"Romford"},{"icsId":"1008036","id":"490008036S","lat":51.5986,"lon":0.21164,"name":"Heaton Avenue","parentId":"490G00008036","stationId":"490G00008036","stopLetter":"->S","topMostParentId":"490G00008036","towards":"Romford"},{"icsId":"1006742","id":"490006738S","lat":51.59575,"lon":0.21266,"name":"Masefield Crescent","parentId":"490G00006742","stationId":"490G00006742","stopLetter":"GF","topMostParentId":"490G00006742","towards":"Romford Or Gidea Park"},{"icsId":"1007095","id":"490007095S1","lat":51.59373,"lon":0.21328,"name":"Gallows Corner","parentId":"490G00007095","stationId":"490G00007095","stopLetter":"GE","topMostParentId":"490G00007095","towards":"Romford Or Gidea Park"},{"icsId":"1013930","id":"490013930S","lat":51.59149,"lon":0.21086,"name":"Upper Brentwood Road","parentId":"490G00013930","stationId":"490G00013930","stopLetter":"GQ","topMostParentId":"490G00013930","towards":"Gidea Park Or Romford"},{"icsId":"1004837","id":"490004837W","lat":51.58935,"lon":0.20822,"name":"Castellan Avenue","parentId":"490G00004837","stationId":"490G00004837","stopLetter":"PQ","topMostParentId":"490G00004837","towards":"Romford"},{"icsId":"1003558","id":"490003558W","lat":51.58669,"lon":0.20077,"name":"Balgores Lane","parentId":"490G00003558","stationId":"490G00003558","stopLetter":"PS","topMostParentId":"490G00003558","towards":"Romford"},{"icsId":"1011529","id":"490011529W","lat":51.58525,"lon":0.19474,"name":"Repton Avenue","parentId":"490G00011529","stationId":"490G00011529","stopLetter":"PT","topMostParentId":"490G00011529","towards":"Romford"},{"icsId":"1011426","id":"490011426W","lat":51.58317,"lon":0.19021,"name":"Raphael Park","parentId":"490G00011426","stationId":"490G00011426","stopLetter":"W","topMostParentId":"490G00011426","towards":"Romford Town Centre"},{"icsId":"1010974","id":"490010974MA","lat":51.58225,"lon":0.188,"name":"Pettits Lane","parentId":"490G00010974","stationId":"490G00010974","stopLetter":"X","topMostParentId":"490G00010974","towards":"Romford Town Centre"},{"icsId":"1009810","id":"490009810K","lat":51.5791,"lon":0.18512,"name":"Mercury Gardens","parentId":"490G00009810","stationId":"490G00009810","stopLetter":"K","topMostParentId":"490G00009810","towards":"Becontree Heath, Dagenham Or Romford Stn"},{"icsId":"1014452","id":"490014452Q","lat":51.57713,"lon":0.18408,"name":"Western Road","parentId":"490G00014452","stationId":"490G00014452","stopLetter":"Q","topMostParentId":"490G00014452","towards":"Hornchurch, Queens Hosp Or Rush Green"},{"icsId":"1001243","id":"490001243ZA","lat":51.57465,"lon":0.18343,"name":"Romford Station","stopLetter":"Z","topMostParentId":"490001243ZA","towards":"Chadwell Heath, Newbury Park Or the Brewery"},{"icsId":"1014452","id":"490014452P","lat":51.57683,"lon":0.18316,"name":"Western Road","parentId":"490G00014452","stationId":"490G00014452","stopLetter":"P","topMostParentId":"490G00014452","towards":"Chadwell Heath, Collier Row Or Newbury Pk"},{"icsId":"1011659","id":"490011659L","lat":51.58037,"lon":0.18269,"name":"Romford Market","parentId":"490G00011659","stationId":"490G00011659","stopLetter":"L","topMostParentId":"490G00011659","towards":"Chadwell Heath, Queen's Hosp. Or Becontree"},{"icsId":"1010407","id":"490010407D","lat":51.57938,"lon":0.17788,"name":"North Street","parentId":"490G00010407","stationId":"490G00010407","stopLetter":"D","topMostParentId":"490G00010407","towards":"Becontree Heath, Chadwell Heath Or Collier Row"},{"icsId":"1009721","id":"490009721B","lat":51.57703,"lon":0.17728,"name":"Mawney Road","parentId":"490G00009721","stationId":"490G00009721","stopLetter":"B","topMostParentId":"490G00009721","towards":"Becontree Heath Or Chadwell Heath"},{"icsId":"1005628","id":"490005628W","lat":51.57461,"lon":0.17412,"name":"Cotleigh Road","parentId":"490G00005628","stationId":"490G00005628","stopLetter":"T","topMostParentId":"490G00005628","towards":"Chadwell Heath"},{"icsId":"1011547","id":"490011547W","lat":51.57405,"lon":0.16841,"name":"Richards Avenue","parentId":"490G00011547","stationId":"490G00011547","stopLetter":"U","topMostParentId":"490G00011547","towards":"Chadwell Heath"},{"icsId":"1011663","id":"490009347W","lat":51.57451,"lon":0.16358,"name":"Romford Stadium","parentId":"490G00011663","stationId":"490G00011663","stopLetter":"V","topMostParentId":"490G00011663","towards":"Seven Kings"},{"icsId":"1008599","id":"490008599W","lat":51.57432,"lon":0.15892,"name":"Jutsums Lane","parentId":"490G00008599","stationId":"490G00008599","stopLetter":"->W","topMostParentId":"490G00008599","towards":"Seven Kings"},{"icsId":"1012662","id":"490012662W","lat":51.57355,"lon":0.15275,"name":"St Edward's / C of E Academy","parentId":"490G00012662","stationId":"490G00012662","stopLetter":"->W","topMostParentId":"490G00012662","towards":"Seven Kings"},{"icsId":"1007659","id":"490007654W","lat":51.5727,"lon":0.14558,"name":"Albany Road","parentId":"490G00007659","stationId":"490G00007659","stopLetter":"J","topMostParentId":"490G00007659","towards":"Goodmayes"},{"icsId":"1014546","id":"490014546W","lat":51.57228,"lon":0.14297,"name":"Whalebone Lane","parentId":"490G00014546","stationId":"490G00014546","stopLetter":"K","topMostParentId":"490G00014546","towards":"Goodmayes"},{"icsId":"1003449","id":"490003449W","lat":51.57189,"lon":0.13937,"name":"Farrance Road","parentId":"490G00003449","stationId":"490G00003449","stopLetter":"L","topMostParentId":"490G00003449","towards":"Goodmayes Or Barking"},{"icsId":"1009910","id":"490009910J","lat":51.57162,"lon":0.13543,"name":"St Chad's Road","parentId":"490G00009910","stationId":"490G00009910","stopLetter":"J","topMostParentId":"490G00009910","towards":"Barking Or Goodmayes"},{"icsId":"1008541","id":"490008541H","lat":51.57089,"lon":0.13117,"name":"Japan Road","parentId":"490G00008541","stationId":"490G00008541","stopLetter":"H","topMostParentId":"490G00008541","towards":"Barking Or Goodmayes"},{"icsId":"1014196","id":"490014196D","lat":51.57008,"lon":0.12812,"name":"Wangey Road","parentId":"490G00014196","stationId":"490G00014196","stopLetter":"D","topMostParentId":"490G00014196","towards":"Seven Kings"},{"icsId":"1010000","id":"490010000W","lat":51.56926,"lon":0.12375,"name":"Montpelier Gardens","parentId":"490G00010000","stationId":"490G00010000","stopLetter":"->W","topMostParentId":"490G00010000","towards":"Seven Kings"},{"icsId":"1007290","id":"490007578E1","lat":51.56812,"lon":0.11781,"name":"Goodmayes Retail Park","parentId":"490G00007290","stationId":"490G00007290","stopLetter":"->W","topMostParentId":"490G00007290","towards":"Seven Kings"},{"icsId":"1014851","id":"490007290W","lat":51.56728,"lon":0.11357,"name":"Goodmayes Tesco","parentId":"490G00014851","stationId":"490G00014851","stopLetter":"P","topMostParentId":"490G00014851","towards":"Seven Kings"},{"icsId":"1019007","id":"490003621D","lat":51.56637,"lon":0.1089,"name":"Goodmayes Road / Goodmayes Station","parentId":"490G00019007","stationId":"490G00019007","stopLetter":"D","topMostParentId":"490G00019007","towards":"Ilford"},{"icsId":"1002296","id":"490014539W","lat":51.56565,"lon":0.10549,"name":"Westwood Road","parentId":"490G00002296","stationId":"490G00002296","stopLetter":"R","topMostParentId":"490G00002296","towards":"Ilford"},{"icsId":"1005133","id":"490005133W","lat":51.56496,"lon":0.10235,"name":"Chester Road","parentId":"490G00005133","stationId":"490G00005133","stopLetter":"S","topMostParentId":"490G00005133","towards":"Ilford"},{"icsId":"1001246","id":"490001246A","lat":51.56435,"lon":0.09888,"name":"Seven Kings Station","stopLetter":"T","topMostParentId":"490001246A","towards":"Manor Park"},{"icsId":"1010256","id":"490010256W","lat":51.56327,"lon":0.09406,"name":"New Road","parentId":"490G00010256","stationId":"490G00010256","stopLetter":"U","topMostParentId":"490G00010256","towards":"Manor Park"},{"icsId":"1011999","id":"490011999W","lat":51.56231,"lon":0.08948,"name":"Ilford Fire Station","parentId":"490G00011999","stationId":"490G00011999","stopLetter":"V","topMostParentId":"490G00011999","towards":"Manor Park"},{"icsId":"1006990","id":"490006990E","lat":51.56137,"lon":0.08528,"name":"Connaught Road","parentId":"490G00006990","stationId":"490G00006990","stopLetter":"W","topMostParentId":"490G00006990","towards":"Manor Park"},{"icsId":"1007466","id":"490012883W","lat":51.56067,"lon":0.0819,"name":"St Peter & St Paul Church","parentId":"490G00007466","stationId":"490G00007466","stopLetter":"X","topMostParentId":"490G00007466","towards":"Manor Park"},{"icsId":"1008469","id":"490008469Z","lat":51.55966,"lon":0.08107,"name":"Winston Way Primary School","parentId":"490G00008469","stationId":"490G00008469","stopLetter":"Z","topMostParentId":"490G00008469","towards":"Gants Hill Or Redbridge"},{"icsId":"1007657","id":"490007657V","lat":51.55932,"lon":0.07601,"name":"Hainault Street","parentId":"490G00007657","stationId":"490G00007657","stopLetter":"V","topMostParentId":"490G00007657","towards":"Manor Park Or Barking"},{"icsId":"1008466","id":"490008466Q1","lat":51.55785,"lon":0.07405,"name":"Redbridge Central Library","parentId":"490G00008466","stationId":"490G00008466","stopLetter":"Q","topMostParentId":"490G00008466","towards":"Barking, Gants Hill, Manor Park Or Redbridge"},{"icsId":"1008465","id":"490008465L","lat":51.5584,"lon":0.07067,"name":"Ilford Broadway","parentId":"490G000604","stationId":"490G000604","stopLetter":"L","topMostParentId":"490G000604","towards":"Manor Park"},{"icsId":"1004985","id":"490004985Y","lat":51.55736,"lon":0.06785,"name":"Chapel Road","parentId":"490G00004985","stationId":"490G00004985","stopLetter":"Y","topMostParentId":"490G00004985","towards":"Manor Park"},{"icsId":"1006059","id":"490006059W","lat":51.55528,"lon":0.06203,"name":"Dersingham Avenue","parentId":"490G00006059","stationId":"490G00006059","stopLetter":"A","topMostParentId":"490G00006059","towards":"East Ham Or Manor Park"},{"icsId":"1009219","id":"490009219W","lat":51.55447,"lon":0.05937,"name":"Little Ilford Lane","parentId":"490G00009219","stationId":"490G00009219","stopLetter":"B","topMostParentId":"490G00009219","towards":"East Ham Or Manor Park"},{"icsId":"1009570","id":"490009570W","lat":51.55302,"lon":0.05434,"name":"Rabbits Road","parentId":"490G00009570","stationId":"490G00009570","stopLetter":"C","topMostParentId":"490G00009570","towards":"Forest Gate Or Leytonstone"},{"icsId":"1006856","id":"490006856W","lat":51.55196,"lon":0.05137,"name":"First Avenue","parentId":"490G00006856","stationId":"490G00006856","stopLetter":"D","topMostParentId":"490G00006856","towards":"Forest Gate Or Leytonstone"},{"icsId":"1008189","id":"490008189W","lat":51.55112,"lon":0.04868,"name":"High Street North","parentId":"490G000596","stationId":"490G000596","stopLetter":"F","topMostParentId":"490G000596","towards":"Forest Gate Or Leytonstone"},{"icsId":"1001341","id":"490001341G","lat":51.54918,"lon":0.04365,"name":"Woodgrange Park Station","stopLetter":"G","topMostParentId":"490001341G","towards":"Forest Gate"},{"icsId":"1012131","id":"490012131W","lat":51.54816,"lon":0.03951,"name":"Shrewsbury Road","parentId":"490G00012131","stationId":"490G00012131","stopLetter":"->W","topMostParentId":"490G00012131","towards":"Forest Gate"},{"icsId":"1008603","id":"490008603W","lat":51.54741,"lon":0.03517,"name":"Katherine Road","parentId":"490G00008603","stationId":"490G00008603","stopLetter":"->W","topMostParentId":"490G00008603","towards":"Plaistow Or Stratford"},{"icsId":"1007497","id":"490007497W","lat":51.54681,"lon":0.03029,"name":"Green Street","parentId":"490G00007497","stationId":"490G00007497","stopLetter":"Q","topMostParentId":"490G00007497","towards":"Leyton, Plaistow Or Stratford"},{"icsId":"1006919","id":"490006917E","lat":51.54653,"lon":0.02685,"name":"Woodgrange Road","parentId":"490G00006919","stationId":"490G00006919","stopLetter":"E","topMostParentId":"490G00006919","towards":"Leyton, Plaistow Or Stratford"},{"icsId":"1012414","id":"490012414W","lat":51.54615,"lon":0.02289,"name":"Sprowston Road","parentId":"490G00012414","stationId":"490G00012414","stopLetter":"R","topMostParentId":"490G00012414","towards":"Stratford"},{"icsId":"1006936","id":"490006936W","lat":51.54541,"lon":0.01933,"name":"Margery Park Road","parentId":"490G00006936","stationId":"490G00006936","stopLetter":"S","topMostParentId":"490G00006936","towards":"Stratford"},{"icsId":"1003468","id":"490003468W","lat":51.54396,"lon":0.01377,"name":"Atherton Leisure Centre","parentId":"490G00003468","stationId":"490G00003468","stopLetter":"->W","topMostParentId":"490G00003468","towards":"Bow Church"},{"icsId":"1014269","id":"490014269W","lat":51.54287,"lon":0.0099,"name":"Water Lane / University of East London","parentId":"490G00014269","stationId":"490G00014269","stopLetter":"MS","topMostParentId":"490G00014269","towards":"Bow Church"},{"icsId":"1012906","id":"490015114E","lat":51.54126,"lon":0.00262,"name":"Stratford Centre","parentId":"490G00012906","stationId":"490G00012906","stopLetter":"K","topMostParentId":"490G00012906","towards":"Bow, Stratford Stn. Or Stratford City"},{"icsId":"1012904","id":"490012904N","lat":51.54144,"lon":-0.00238,"name":"Stratford Bus Station","parentId":"490G000773","stationId":"490G000773","stopLetter":"AP","topMostParentId":"HUBSRA"}]}]}