{"direction":"inbound","lineId":"p12","lineName":"P12","mode":"bus","stopPointSequences":[{"stopPoint":[{"icsId":"1004399","id":"490004399J","lat":51.44822,"lon":-0.0409,"name":"Brockley Rise / Chandos","parentId":"490G00004399","stationId":"490G00004399","stopLetter":"HJ","topMostParentId":"490G00004399","towards":"New Cross Or Nunhead"},{"icsId":"1004397","id":"490004397HD","lat":51.44904,"lon":-0.04287,"name":"Brockley Rise","parentId":"490G00004397","stationId":"490G00004397","stopLetter":"HD","topMostParentId":"490G00004397","towards":"Dulwich Village Or Nunhead"},{"icsId":"1001154","id":"490001154W","lat":51.44958,"lon":-0.04578,"name":"Honor Oak Park Station","stopLetter":"HA","topMostParentId":"490001154W","towards":"Dulwich Village Or Nunhead"},{"icsId":"1008063","id":"490008063W","lat":51.4491,"lon":-0.05186,"name":"Hengrave Road","parentId":"490G00008063","stationId":"490G00008063","stopLetter":"X","topMostParentId":"490G00008063","towards":"Dulwich Village Or Nunhead"},{"icsId":"1004279","id":"490004279W","lat":51.44942,"lon":-0.05549,"name":"Netherby Road","parentId":"490G00004279","stationId":"490G00004279","stopLetter":"S","topMostParentId":"490G00004279","towards":"Peckham"},{"icsId":"1015711","id":"490015711N","lat":51.45032,"lon":-0.05606,"name":"Buckstone Close","parentId":"490G00015711","stationId":"490G00015711","stopLetter":"T","topMostParentId":"490G00015711","towards":"Peckham"},{"icsId":"1008614","id":"490008614N","lat":51.45411,"lon":-0.04844,"name":"Camberwell New Cemetery","parentId":"490G00008614","stationId":"490G00008614","stopLetter":"N","topMostParentId":"490G00008614","towards":"Peckham"},{"icsId":"1015712","id":"490015712N","lat":51.45574,"lon":-0.04614,"name":"Brockley Way","parentId":"490G00015712","stationId":"490G00015712","stopLetter":"->N","topMostParentId":"490G00015712","towards":"Peckham"},{"icsId":"1008493","id":"490008493E2","lat":51.45793,"lon":-0.04701,"name":"Inverton Road","parentId":"490G00008493","stationId":"490G00008493","stopLetter":"->E","topMostParentId":"490G00008493","towards":"Peckham"},{"icsId":"1003855","id":"490003855N","lat":51.45907,"lon":-0.04595,"name":"Bellwood Road","parentId":"490G00003855","stationId":"490G00003855","stopLetter":"->N","topMostParentId":"490G00003855","towards":"Peckham"},{"icsId":"1009165","id":"490009165N","lat":51.46105,"lon":-0.04677,"name":"Limesford Road","parentId":"490G00009165","stationId":"490G00009165","stopLetter":"->N","topMostParentId":"490G00009165","towards":"Peckham"},{"icsId":"1010876","id":"490010876N","lat":51.46394,"lon":-0.0488,"name":"Peckham 7th Day Adventist Church","parentId":"490G00010876","stationId":"490G00010876","stopLetter":"->N","topMostParentId":"490G00010876","towards":"Peckham"},{"icsId":"1008526","id":"490008526N","lat":51.46531,"lon":-0.0498,"name":"Ivydale Road / Linden Grove","parentId":"490G00008526","stationId":"490G00008526","stopLetter":"->N","topMostParentId":"490G00008526","towards":"Peckham"},{"icsId":"1001217","id":"490001217N","lat":51.46675,"lon":-0.05154,"name":"Nunhead Station","stopLetter":"NA","topMostParentId":"490001217N","towards":"Peckham"},{"icsId":"1015616","id":"490015616N","lat":51.46836,"lon":-0.05262,"name":"St Mary's Road","parentId":"490G00015616","stationId":"490G00015616","stopLetter":"NP","topMostParentId":"490G00015616","towards":"Peckham"},{"icsId":"1008303","id":"490008303S","lat":51.46755,"lon":-0.05413,"name":"Hollydale Road","parentId":"490G00008303","stationId":"490G00008303","stopLetter":"NC","topMostParentId":"490G00008303","towards":"Peckham"},{"icsId":"1003656","id":"490003656S","lat":51.46625,"lon":-0.05657,"name":"Barset Road","parentId":"490G00003656","stationId":"490G00003656","stopLetter":"->S","topMostParentId":"490G00003656","towards":"Peckham"},{"icsId":"1010457","id":"490010457S","lat":51.46508,"lon":-0.05864,"name":"Nunhead Green","parentId":"490G00010457","stationId":"490G00010457","stopLetter":"->S","topMostParentId":"490G00010457","towards":"Peckham"},{"icsId":"1004773","id":"490004773W","lat":51.46338,"lon":-0.06266,"name":"Carden Road","parentId":"490G00004773","stationId":"490G00004773","stopLetter":"EP","topMostParentId":"490G00004773","towards":"Peckham"},{"icsId":"1008807","id":"490008807N2","lat":51.46288,"lon":-0.06668,"name":"Peckham Rye / East Dulwich Road","parentId":"490G00008807","stationId":"490G00008807","stopLetter":"WK","topMostParentId":"490G00008807","towards":"Bermondsey Or Elephant & Castle"},{"icsId":"1010269","id":"490010269N","lat":51.46583,"lon":-0.06648,"name":"Nigel Road","parentId":"490G00010269","stationId":"490G00010269","stopLetter":"WM","topMostParentId":"490G00010269","towards":"Bermondsey Or Elephant & Castle"},{"icsId":"1008037","id":"490008037X","lat":51.46746,"lon":-0.06679,"name":"Heaton Road","parentId":"490G00008037","stationId":"490G00008037","stopLetter":"X","topMostParentId":"490G00008037","towards":"Bermondsey Or Elephant & Castle"},{"icsId":"1001223","id":"490001223U","lat":51.47039,"lon":-0.06895,"name":"Peckham Rye Station","stopLetter":"U","topMostParentId":"490001223U","towards":"Bermondsey Or Elephant & Castle"},{"icsId":"1007758","id":"490007758M","lat":51.47217,"lon":-0.06858,"name":"The Aylesham Centre","parentId":"490G00007758","stationId":"490G00007758","stopLetter":"M","topMostParentId":"490G00007758","towards":"Elephant & Castle Or Tower Bridge"},{"icsId":"1010877","id":"490010877H","lat":51.47337,"lon":-0.06796,"name":"Peckham Bus Station","parentId":"490G00010877","stationId":"490G00010877","stopLetter":"H","topMostParentId":"490G00010877"},{"icsId":"1010882","id":"490010882G","lat":51.47403,"lon":-0.0667,"name":"Peckham Post Office","parentId":"490G00010882","stationId":"490G00010882","stopLetter":"G","topMostParentId":"490G00010882","towards":"New Cross Or Surrey Quays"},{"icsId":"1004799","id":"490004799QD","lat":51.47416,"lon":-0.06231,"name":"Carlton Grove","parentId":"490G00004799","stationId":"490G00004799","stopLetter":"QD","topMostParentId":"490G00004799","towards":"New Cross Or Surrey Quays"},{"icsId":"1001233","id":"490001233QE","lat":51.47378,"lon":-0.05804,"name":"Queen's Road Peckham Station","stopLetter":"QE","topMostParentId":"490001233QE","towards":"Surrey Quays"},{"icsId":"1005430","id":"490005430N1","lat":51.47648,"lon":-0.05824,"name":"Clifton Way","parentId":"490G00005430","stationId":"490G00005430","stopLetter":"->N","topMostParentId":"490G00005430","towards":"Surrey Quays"},{"icsId":"1004813","id":"490004813N","lat":51.47951,"lon":-0.05983,"name":"Caroline Gardens","parentId":"490G00004813","stationId":"490G00004813","stopLetter":"ND","topMostParentId":"490G00004813","towards":"Surrey Quays"},{"icsId":"1008461","id":"490008461E2","lat":51.47925,"lon":-0.05569,"name":"Old Kent Road / Ilderton Road","parentId":"490G000603","stationId":"490G000603","stopLetter":"->E","topMostParentId":"490G000603","towards":"Brockley, Lewisham Or Surrey Quays"},{"icsId":"1009560","id":"490009560N","lat":51.4805,"lon":-0.05378,"name":"Manor Grove","parentId":"490G00009560","stationId":"490G00009560","stopLetter":"->N","topMostParentId":"490G00009560","towards":"Surrey Quays"},{"icsId":"1010902","id":"490010902N","lat":51.4831,"lon":-0.0541,"name":"Penarth Street","parentId":"490G00010902","stationId":"490G00010902","stopLetter":"->N","topMostParentId":"490G00010902","towards":"Surrey Quays"},{"icsId":"1009923","id":"490009923N","lat":51.48601,"lon":-0.05447,"name":"Millwall Football Ground","parentId":"490G00009923","stationId":"490G00009923","stopLetter":"IB","topMostParentId":"490G00009923","towards":"Surrey Quays"},{"icsId":"1001256","id":"490001256W","lat":51.48785,"lon":-0.05747,"name":"South Bermondsey Station","stopLetter":"IC","topMostParentId":"490001256W","towards":"Surrey Quays"},{"icsId":"1012072","id":"490012072W","lat":51.48763,"lon":-0.06001,"name":"Sheppard Drive","parentId":"490G00012072","stationId":"490G00012072","stopLetter":"RG","topMostParentId":"490G00012072","towards":"Surrey Quays"},{"icsId":"1004873","id":"490004873W","lat":51.48711,"lon":-0.06545,"name":"Catlin Street","parentId":"490G00004873","stationId":"490G00004873","stopLetter":"CU","topMostParentId":"490G00004873","towards":"Surrey Quays"},{"icsId":"1006639","id":"490006639N","lat":51.4897,"lon":-0.06543,"name":"Esmeralda Road","parentId":"490G00006639","stationId":"490G00006639","stopLetter":"JV","topMostParentId":"490G00006639","towards":"Surrey Quays"},{"icsId":"1012353","id":"490012353N","lat":51.49188,"lon":-0.06531,"name":"St James's Road / Southwark Park Road","parentId":"490G00012353","stationId":"490G00012353","stopLetter":"JW","topMostParentId":"490G00012353","towards":"Surrey Quays"},{"icsId":"1003311","id":"490003311E","lat":51.49217,"lon":-0.06139,"name":"Anchor Street","parentId":"490G00003311","stationId":"490G00003311","stopLetter":"PB","topMostParentId":"490G00003311","towards":"Surrey Quays"},{"icsId":"1011450","id":"490011450N","lat":51.49263,"lon":-0.05881,"name":"Raymouth Road","parentId":"490G00011450","stationId":"490G00011450","stopLetter":"PC","topMostParentId":"490G00011450","towards":"Surrey Quays"},{"icsId":"1013562","id":"490013562N","lat":51.49509,"lon":-0.05961,"name":"Stalham Street","parentId":"490G00013562","stationId":"490G00013562","stopLetter":"PD","topMostParentId":"490G00013562","towards":"Surrey Quays"},{"icsId":"1008847","id":"490008847N","lat":51.49729,"lon":-0.06037,"name":"Kirby Estate","parentId":"490G00008847","stationId":"490G00008847","stopLetter":"H","topMostParentId":"490G00008847","towards":"Surrey Quays"},{"icsId":"1012349","id":"490012349F","lat":51.49907,"lon":-0.05712,"name":"Southwark Park","parentId":"490G00012349","stationId":"490G00012349","stopLetter":"F","topMostParentId":"490G00012349","towards":"Surrey Quays"},{"icsId":"1010176","id":"490010176S","lat":51.49797,"lon":-0.05427,"name":"Neptune Street / St Olaves Estate","parentId":"490G000670","stationId":"490G000670","stopLetter":"S","topMostParentId":"490G000670","towards":"Deptford"},{"icsId":"1013041","id":"490013041T","lat":51.4969,"lon":-0.05296,"name":"Surrey Quays Road","parentId":"490G00013041","stationId":"490G00013041","stopLetter":"Y","topMostParentId":"490G00013041","towards":"Deptford"},{"icsId":"1004733","id":"490004733D","lat":51.49814,"lon":-0.04994,"name":"Canada Water Bus Station","parentId":"490G000438","stationId":"490G000438","stopLetter":"D","topMostParentId":"HUBZCW"},{"icsId":"1011723","id":"490011723E","lat":51.49494,"lon":-0.05048,"name":"Rotherhithe Police Station","parentId":"490G00011723","stationId":"490G00011723","stopLetter":"E","topMostParentId":"490G00011723","towards":"South Bermondsey, Deptford Or New Cross"},{"icsId":"1013042","id":"490013042H","lat":51.49395,"lon":-0.04661,"name":"Surrey Quays Shopping Centre","parentId":"490G000775","stationId":"490G000775","stopLetter":"H","topMostParentId":"490G000775","towards":"Peckham"}]}]}