{"direction":"inbound","lineId":"r5","lineName":"R5","mode":"bus","stopPointSequences":[{"stopPoint":[{"icsId":"1007494","id":"490007494PA","lat":51.35226,"lon":0.08953,"name":"High Street / Green Street Green","parentId":"490G00007494","stationId":"490G00007494","stopLetter":"G","topMostParentId":"490G00007494","towards":"Knockholt Pound"},{"icsId":"1007495","id":"490007495BC","lat":51.34897,"lon":0.08966,"name":"Sevenoaks Road / Green Street Green","parentId":"490G00007495","stationId":"490G00007495","stopLetter":"J","topMostParentId":"490G00007495","towards":"Knockholt Pound"},{"icsId":"1013420","id":"490013420E","lat":51.34482,"lon":0.10385,"name":"The Hillside","parentId":"490G00013420","stationId":"490G00013420","stopLetter":"->E","topMostParentId":"490G00013420","towards":"Knockholt Pound"},{"icsId":"1011165","id":"490011165S","lat":51.34405,"lon":0.11111,"name":"Pratts Bottom / Sevenoaks Road","parentId":"490G00011165","stationId":"490G00011165","stopLetter":"->S","topMostParentId":"490G00011165","towards":"Knockholt"},{"icsId":"1000429","id":"490000429Z","lat":51.34277,"lon":0.11075,"name":"Pratts Bottom / Orchard Road","parentId":"490G000078","stationId":"490G000078","stopLetter":"->N","topMostParentId":"490G000078"},{"icsId":"1000430","id":"490000430Z","lat":51.33976,"lon":0.11184,"name":"Pratts Bottom / The Green","parentId":"490G000079","stationId":"490G000079","stopLetter":"->S","topMostParentId":"490G000079"},{"icsId":"1000431","id":"490000431Z","lat":51.33762,"lon":0.11407,"name":"Pratts Bottom Primary School","parentId":"490G000080","stationId":"490G000080","stopLetter":"->S","topMostParentId":"490G000080"},{"icsId":"1000432","id":"490000432Z","lat":51.3317,"lon":0.1166,"name":"Hillside Farm","parentId":"490G000081","stationId":"490G000081","stopLetter":"->S","topMostParentId":"490G000081"},{"icsId":"1023086","id":"2400107771","lat":51.329092,"lon":0.1178,"name":"Coolings Garden Centre","topMostParentId":"2400107771"},{"icsId":"1023087","id":"2400107775","lat":51.324421,"lon":0.121517,"name":"Deerleap Lane","topMostParentId":"2400107775"},{"icsId":"1023089","id":"2400107779","lat":51.320807,"lon":0.125871,"name":"Bowens Yard","topMostParentId":"2400107779"},{"icsId":"1023090","id":"2400107781","lat":51.322087,"lon":0.129662,"name":"Halstead Lane","topMostParentId":"2400107781"},{"icsId":"1012274","id":"2400A008650A","lat":51.325614,"lon":0.131046,"name":"Halstead / Meadway","topMostParentId":"2400A008650A","towards":"Knockholt Station"},{"icsId":"1023091","id":"2400107785","lat":51.331137,"lon":0.137389,"name":"Shoreham Lane","topMostParentId":"2400107785"},{"icsId":"1005365","id":"2400107787","lat":51.332087,"lon":0.136126,"name":"Clarks Lane","topMostParentId":"2400107787"},{"icsId":"1007686","id":"2400A034700A","lat":51.330091,"lon":0.135115,"name":"Halstead / the Cock","topMostParentId":"2400A034700A","towards":"Knockholt Pound"},{"icsId":"1012274","id":"2400A034710A","lat":51.326082,"lon":0.131541,"name":"Halstead / Meadway","topMostParentId":"2400A034710A","towards":"Knockholt Pound"},{"icsId":"1023090","id":"2400107783","lat":51.322029,"lon":0.129889,"name":"Halstead Lane","topMostParentId":"2400107783"},{"icsId":"1010758","id":"2400A008630A","lat":51.318931,"lon":0.127177,"name":"Knockholt Pound / Park Corner","topMostParentId":"2400A008630A","towards":"Cudham Or Dunton Green"},{"icsId":"1008881","id":"2400A034730A","lat":51.315924,"lon":0.124411,"name":"Knockholt Pound / Three Horseshoes","topMostParentId":"2400A034730A","towards":"Cudham Or Dunton Green"},{"icsId":"1023092","id":"2400107789","lat":51.314057,"lon":0.117236,"name":"Coolings Green","topMostParentId":"2400107789"},{"icsId":"1023093","id":"2400107793","lat":51.312436,"lon":0.11036,"name":"Blueberry Lane","topMostParentId":"2400107793"},{"icsId":"1008880","id":"2400A008680A","lat":51.309581,"lon":0.104102,"name":"War Memorial","topMostParentId":"2400A008680A"},{"icsId":"1003109","id":"2400107797","lat":51.307905,"lon":0.102332,"name":"Brasted Lane","topMostParentId":"2400107797"},{"icsId":"1023095","id":"2400107801","lat":51.30355,"lon":0.090914,"name":"Tally Ho","topMostParentId":"2400107801"},{"icsId":"1011959","id":"2400A008570A","lat":51.300457,"lon":0.086327,"name":"Scott's Lodge","topMostParentId":"2400A008570A"},{"icsId":"1008370","id":"490008370N","lat":51.30836,"lon":0.08086,"name":"Horns Green","parentId":"490G00008370","stationId":"490G00008370","stopLetter":"->N","topMostParentId":"490G00008370"},{"icsId":"1005889","id":"490005889Y","lat":51.31253,"lon":0.07656,"name":"Cudham Lane South","parentId":"490G00005889","stationId":"490G00005889","topMostParentId":"490G00005889"},{"icsId":"1005889","id":"490005889N","lat":51.31601,"lon":0.0746,"name":"Cudham Lane South","parentId":"490G00005889","stationId":"490G00005889","stopLetter":"->N","topMostParentId":"490G00005889"},{"icsId":"1000434","id":"490000434Z","lat":51.31615,"lon":0.07454,"name":"Cudham / Cackets Lane","parentId":"490G000083","stationId":"490G000083","stopLetter":"->N","topMostParentId":"490G000083"},{"icsId":"1000436","id":"490000436Y","lat":51.31827,"lon":0.07321,"name":"Cudham Recreation Ground","parentId":"490G000085","stationId":"490G000085","stopLetter":"->N","topMostParentId":"490G000085"},{"icsId":"1005266","id":"490005266Y","lat":51.3211,"lon":0.07092,"name":"Cudham / Church Approach","parentId":"490G00005266","stationId":"490G00005266","stopLetter":"->N","topMostParentId":"490G00005266"},{"icsId":"1009500","id":"490009500Z","lat":51.32582,"lon":0.07244,"name":"Cudham / Mace Lane","parentId":"490G00009500","stationId":"490G00009500","topMostParentId":"490G00009500"},{"icsId":"1000438","id":"490000438Y","lat":51.32797,"lon":0.07308,"name":"Cudham Shaws Campsite","parentId":"490G000087","stationId":"490G000087","stopLetter":"->N","topMostParentId":"490G000087"},{"icsId":"1000439","id":"490000439Y","lat":51.33303,"lon":0.07506,"name":"Hazelwood","parentId":"490G000088","stationId":"490G000088","stopLetter":"->N","topMostParentId":"490G000088"},{"icsId":"1012213","id":"490012213Y","lat":51.33672,"lon":0.07795,"name":"Hazelwood / Snag Lane","parentId":"490G00012213","stationId":"490G00012213","stopLetter":"->N","topMostParentId":"490G00012213"},{"icsId":"1005891","id":"490005891Y","lat":51.33936,"lon":0.08011,"name":"Cudham Park Road","parentId":"490G00005891","stationId":"490G00005891","topMostParentId":"490G00005891"},{"icsId":"1009337","id":"490009337N","lat":51.34537,"lon":0.08235,"name":"Cudham Lane North","parentId":"490G00009337","stationId":"490G00009337","stopLetter":"->N","topMostParentId":"490G00009337"},{"icsId":"1023098","id":"490023098N","lat":51.34551,"lon":0.08238,"name":"Cudham Lane Recreation Ground","parentId":"490G00023098","stationId":"490G00023098","stopLetter":"->N","topMostParentId":"490G00023098"},{"icsId":"1023097","id":"490023097E","lat":51.34879,"lon":0.08546,"name":"Old Hill Playground","parentId":"490G00023097","stationId":"490G00023097","stopLetter":"->E","topMostParentId":"490G00023097"},{"icsId":"1007494","id":"490007494DC","lat":51.35263,"lon":0.08947,"name":"High Street / Green Street Green","parentId":"490G00007494","stationId":"490G00007494","stopLetter":"B","topMostParentId":"490G00007494","towards":"Orpington"},{"icsId":"1006755","id":"490006755DE","lat":51.35672,"lon":0.08891,"name":"Glentrammon Road","parentId":"490G00006755","stationId":"490G00006755","stopLetter":"D","topMostParentId":"490G00006755","towards":"Orpington"},{"icsId":"1005748","id":"490005748N","lat":51.36076,"lon":0.08892,"name":"Crescent Way","parentId":"490G00005748","stationId":"490G00005748","stopLetter":"J","topMostParentId":"490G00005748","towards":"Orpington"},{"icsId":"1010639","id":"490010639N","lat":51.36325,"lon":0.09151,"name":"Sevenoaks Road / Cloonmore Avenue","parentId":"490G00010639","stationId":"490G00010639","stopLetter":"K","topMostParentId":"490G00010639","towards":"Orpington"},{"icsId":"1012592","id":"490012592N","lat":51.3657,"lon":0.09402,"name":"Sevenoaks Road / Orpington Hospital","parentId":"490G00012592","stationId":"490G00012592","stopLetter":"L","topMostParentId":"490G00012592","towards":"Orpington"},{"icsId":"1013749","id":"490013749N","lat":51.36738,"lon":0.09532,"name":"Sevenoaks Road / Tower Road","parentId":"490G00013749","stationId":"490G00013749","stopLetter":"N","topMostParentId":"490G00013749","towards":"Orpington Station Or St Mary Cray"},{"icsId":"1008209","id":"490008209K","lat":51.37121,"lon":0.09681,"name":"Hillcrest Road","parentId":"490G00008209","stationId":"490G00008209","stopLetter":"K","topMostParentId":"490G00008209","towards":"Orpington Station Or St Mary Cray"},{"icsId":"1019893","id":"490015411L","lat":51.37248,"lon":0.09723,"name":"Sevenoaks Road / Orpington War Memorial","parentId":"490G00019893","stationId":"490G00019893","stopLetter":"L","topMostParentId":"490G00019893","towards":"Orpington Station Or St Mary Cray"}]},{"stopPoint":[{"icsId":"1013818","id":"490013818J","lat":51.37176,"lon":0.09145,"name":"Tubbenden Lane","parentId":"490G00013818","stationId":"490G00013818","stopLetter":"J","topMostParentId":"490G00013818","towards":"Locksbottom Or Petts Wood"},{"icsId":"1001220","id":"490001220G","lat":51.3732,"lon":0.08962,"name":"Orpington Station","stopLetter":"G","topMostParentId":"490001220G"}]},{"stopPoint":[{"icsId":"1019893","id":"490015411L","lat":51.37248,"lon":0.09723,"name":"Sevenoaks Road / Orpington War Memorial","parentId":"490G00019893","stationId":"490G00019893","stopLetter":"L","topMostParentId":"490G00019893","towards":"Orpington Station Or St Mary Cray"},{"icsId":"1019892","id":"490015411R","lat":51.37396,"lon":0.09783,"name":"High Street / Orpington War Memorial","parentId":"490G00019892","stationId":"490G00019892","stopLetter":"R","topMostParentId":"490G00019892","towards":"Chislehurst or St Mary Cray"},{"icsId":"1014142","id":"490010641X","lat":51.3754,"lon":0.10034,"name":"Orpington / Walnuts Centre","parentId":"490G00014142","stationId":"490G00014142","stopLetter":"X","topMostParentId":"490G00014142","towards":"Green Street Green, Orpington Stn or Ramsden Est"},{"icsId":"1013818","id":"490013818J","lat":51.37176,"lon":0.09145,"name":"Tubbenden Lane","parentId":"490G00013818","stationId":"490G00013818","stopLetter":"J","topMostParentId":"490G00013818","towards":"Locksbottom Or Petts Wood"}]}]}