{"direction":"inbound","lineId":"r6","lineName":"R6","mode":"bus","stopPointSequences":[{"stopPoint":[{"icsId":"1012606","id":"490012606SD","lat":51.39508,"lon":0.11087,"name":"St Mary Cray / Station Approach","parentId":"490G00012606","stationId":"490G00012606","stopLetter":"SD","topMostParentId":"490G00012606","towards":"Chislehurst, Grovelands Or Sidcup"},{"icsId":"1001271","id":"490001271SA","lat":51.39574,"lon":0.10721,"name":"St Mary Cray Station","stopLetter":"SA","topMostParentId":"490001271SA","towards":"Sidcup"},{"icsId":"1015962","id":"490015962E","lat":51.39726,"lon":0.10966,"name":"Murray Road","parentId":"490G00015962","stationId":"490G00015962","stopLetter":"S","topMostParentId":"490G00015962","towards":"Orpington"},{"icsId":"1009884","id":"490009884N2","lat":51.39501,"lon":0.1143,"name":"Mill Brook Road","parentId":"490G00009884","stationId":"490G00009884","stopLetter":"SF","topMostParentId":"490G00009884","towards":"Orpington"},{"icsId":"1019027","id":"490003836E","lat":51.39375,"lon":0.11617,"name":"Mountfield Community Centre","parentId":"490G00019027","stationId":"490G00019027","stopLetter":"->E","topMostParentId":"490G00019027","towards":"Orpington"},{"icsId":"1010530","id":"490010530E","lat":51.3934,"lon":0.11903,"name":"Oldbury Close","parentId":"490G00010530","stationId":"490G00010530","stopLetter":"->E","topMostParentId":"490G00010530","towards":"Orpington"},{"icsId":"1014955","id":"490014955E","lat":51.3937,"lon":0.12295,"name":"Wotton Green / Sandway Road","parentId":"490G00014955","stationId":"490G00014955","stopLetter":"->E","topMostParentId":"490G00014955","towards":"Orpington"},{"icsId":"1009962","id":"490009962N","lat":51.39201,"lon":0.12321,"name":"Molash Road","parentId":"490G00009962","stationId":"490G00009962","stopLetter":"->N","topMostParentId":"490G00009962","towards":"Orpington"},{"icsId":"1013112","id":"490013112W","lat":51.39144,"lon":0.11996,"name":"Sweeps Lane","parentId":"490G00013112","stationId":"490G00013112","stopLetter":"->W","topMostParentId":"490G00013112","towards":"Orpington"}]},{"stopPoint":[{"icsId":"1013112","id":"490013112W","lat":51.39144,"lon":0.11996,"name":"Sweeps Lane","parentId":"490G00013112","stationId":"490G00013112","stopLetter":"->W","topMostParentId":"490G00013112","towards":"Orpington"},{"icsId":"1009546","id":"490009546S","lat":51.39027,"lon":0.12055,"name":"Manning Road","parentId":"490G00009546","stationId":"490G00009546","stopLetter":"->S","topMostParentId":"490G00009546","towards":"Orpington Or St Mary Cray Station"},{"icsId":"1005785","id":"490005782S","lat":51.38778,"lon":0.12249,"name":"Crockenhill Road","parentId":"490G00005785","stationId":"490G00005785","stopLetter":"->N","topMostParentId":"490G00005785","towards":"Orpington Or St Mary Cray Station"},{"icsId":"1013112","id":"490013112W","lat":51.39144,"lon":0.11996,"name":"Sweeps Lane","parentId":"490G00013112","stationId":"490G00013112","stopLetter":"->W","topMostParentId":"490G00013112","towards":"Orpington"}]},{"stopPoint":[{"icsId":"1013112","id":"490013112W","lat":51.39144,"lon":0.11996,"name":"Sweeps Lane","parentId":"490G00013112","stationId":"490G00013112","stopLetter":"->W","topMostParentId":"490G00013112","towards":"Orpington"},{"icsId":"1006938","id":"490006938W","lat":51.39188,"lon":0.11525,"name":"Forgefield Court","parentId":"490G00006938","stationId":"490G00006938","stopLetter":"SZ","topMostParentId":"490G00006938","towards":"Orpington"},{"icsId":"1013568","id":"490013568S","lat":51.38965,"lon":0.11426,"name":"The Temple","parentId":"490G00013568","stationId":"490G00013568","stopLetter":"SL","topMostParentId":"490G00013568","towards":"Orpington"},{"icsId":"1011544","id":"490011544S","lat":51.38736,"lon":0.11373,"name":"Reynolds Cross / Red Lion","parentId":"490G00011544","stationId":"490G00011544","stopLetter":"SP","topMostParentId":"490G00011544","towards":"Orpington"},{"icsId":"1009428","id":"490009428S","lat":51.38429,"lon":0.10957,"name":"Lower Road","parentId":"490G00009428","stationId":"490G00009428","stopLetter":"N","topMostParentId":"490G00009428","towards":"Orpington"},{"icsId":"1004801","id":"490004801S1","lat":51.38163,"lon":0.10578,"name":"High Street / Carlton Parade","parentId":"490G00004801","stationId":"490G00004801","stopLetter":"P","topMostParentId":"490G00004801","towards":"Green Street Green, Locksbottom Or Petts Wood"},{"icsId":"1010635","id":"490010635W","lat":51.37927,"lon":0.10253,"name":"High Street / Church Hill","parentId":"490G00010635","stationId":"490G00010635","stopLetter":"W","topMostParentId":"490G00010635","towards":"Green Street Green, Locksbottom Or Petts Wood"},{"icsId":"1014142","id":"490014142U","lat":51.37709,"lon":0.10028,"name":"Walnuts Centre","parentId":"490G00014142","stationId":"490G00014142","stopLetter":"U","topMostParentId":"490G00014142","towards":"Green Street Green, Locksbottom Or Petts Wood"},{"icsId":"1019892","id":"490015411S","lat":51.37428,"lon":0.09832,"name":"High Street / Orpington War Memorial","parentId":"490G00019892","stationId":"490G00019892","stopLetter":"S","topMostParentId":"490G00019892","towards":"Green Street Green, Locksbottom Or Petts Wood"},{"icsId":"1013818","id":"490013818J","lat":51.37176,"lon":0.09145,"name":"Tubbenden Lane","parentId":"490G00013818","stationId":"490G00013818","stopLetter":"J","topMostParentId":"490G00013818","towards":"Locksbottom Or Petts Wood"},{"icsId":"1001220","id":"490001220G","lat":51.3732,"lon":0.08962,"name":"Orpington Station","stopLetter":"G","topMostParentId":"490001220G"}]}]}