{"direction":"inbound","lineId":"s1","lineName":"S1","mode":"bus","stopPointSequences":[{"stopPoint":[{"icsId":"1020189","id":"490020189N","lat":51.41502,"lon":-0.17196,"name":"Victoria Road / Lavender Fields","parentId":"490G00020189","stationId":"490G00020189","stopLetter":"->N","topMostParentId":"490G00020189","towards":"St Helier"},{"icsId":"1020190","id":"490020190N","lat":51.41575,"lon":-0.16737,"name":"Taylor Road","parentId":"490G00020190","stationId":"490G00020190","stopLetter":"GV","topMostParentId":"490G00020190","towards":"St Helier"},{"icsId":"1009286","id":"490009286S","lat":51.41519,"lon":-0.16168,"name":"London Road / Figge's Marsh","parentId":"490G00009286","stationId":"490G00009286","stopLetter":"M","topMostParentId":"490G00009286","towards":"Croydon, Rosehill Or St Helier"},{"icsId":"1013565","id":"490013565S2","lat":51.41188,"lon":-0.16141,"name":"Eveline Road","parentId":"490G00013565","stationId":"490G00013565","stopLetter":"N","topMostParentId":"490G00013565","towards":"Croydon, Rosehill Or St Helier"},{"icsId":"1006171","id":"490006164B","lat":51.4077,"lon":-0.16336,"name":"Downe Road / Mitcham Library","parentId":"490G00006171","stationId":"490G00006171","stopLetter":"B","topMostParentId":"490G00006171","towards":"Carshalton, Croydon Or Rosehill"},{"icsId":"1009949","id":"490009949Y","lat":51.40579,"lon":-0.16394,"name":"Mitcham Fair Green","parentId":"490G00009949","stationId":"490G00009949","stopLetter":"G","topMostParentId":"490G00009949","towards":"Carshalton Or St Helier"},{"icsId":"1007213","id":"490007213M","lat":51.40341,"lon":-0.1657,"name":"Glebe Court","parentId":"490G00007213","stationId":"490G00007213","stopLetter":"K","topMostParentId":"490G00007213","towards":"Hackbridge, Morden Or Rosehill"},{"icsId":"1009944","id":"490009944V","lat":51.40058,"lon":-0.1674,"name":"Mitcham / Cricket Green","parentId":"490G00009944","stationId":"490G00009944","stopLetter":"N","topMostParentId":"490G00009944","towards":"Hackbridge Or St Helier"},{"icsId":"1009952","id":"490009952S","lat":51.39941,"lon":-0.16525,"name":"Mitcham Police Station","parentId":"490G00009952","stationId":"490G00009952","stopLetter":"O","topMostParentId":"490G00009952","towards":"Hackbridge Or St Helier"},{"icsId":"1014723","id":"490014723E","lat":51.39788,"lon":-0.16258,"name":"The Wilson Hospital","parentId":"490G00014723","stationId":"490G00014723","stopLetter":"J","topMostParentId":"490G00014723","towards":"Hackbridge Or St Helier"},{"icsId":"1004824","id":"490004824E","lat":51.39569,"lon":-0.15924,"name":"Mitcham Garden Village / Willow Lane","parentId":"490G00004824","stationId":"490G00004824","stopLetter":"K","topMostParentId":"490G00004824","towards":"Hackbridge Or St Helier"},{"icsId":"1001194","id":"490001194A","lat":51.39313,"lon":-0.15874,"name":"Mitcham Junction Station","stopLetter":"A","topMostParentId":"490001194A","towards":"Carshalton Or Sutton"},{"icsId":"1013377","id":"490013377S","lat":51.38878,"lon":-0.15833,"name":"Goat Road","parentId":"490G00013377","stationId":"490G00013377","stopLetter":"E","topMostParentId":"490G00013377","towards":"Carshalton"},{"icsId":"1009898","id":"490009898S","lat":51.38693,"lon":-0.15807,"name":"Mill Green Road","parentId":"490G00009898","stationId":"490G00009898","stopLetter":"F","topMostParentId":"490G00009898","towards":"Carshalton"},{"icsId":"1009898","id":"490009898W","lat":51.38633,"lon":-0.15854,"name":"Mill Green Road","parentId":"490G00009898","stationId":"490G00009898","stopLetter":"->W","topMostParentId":"490G00009898"},{"icsId":"1012719","id":"490012719N","lat":51.38571,"lon":-0.17522,"name":"Green Wrythe Lane / St. Helier Library","parentId":"490G00012719","stationId":"490G00012719","stopLetter":"->N","topMostParentId":"490G00012719"},{"icsId":"1007519","id":"490007519S","lat":51.38945,"lon":-0.18,"name":"Green Wrythe Lane","parentId":"490G00007519","stationId":"490G00007519","stopLetter":"BB","topMostParentId":"490G00007519","towards":"Sutton"},{"icsId":"1009860","id":"490009860S2","lat":51.38834,"lon":-0.18179,"name":"Middleton Road","parentId":"490G00009860","stationId":"490G00009860","stopLetter":"->S","topMostParentId":"490G00009860","towards":"Sutton"},{"icsId":"1010186","id":"490010186S","lat":51.38677,"lon":-0.18567,"name":"Netley Road","parentId":"490G00010186","stationId":"490G00010186","topMostParentId":"490G00010186","towards":"Sutton"},{"icsId":"1015405","id":"490015405RJ","lat":51.38493,"lon":-0.18889,"name":"Bishopsford Road / Rose Hill Roundabout","parentId":"490G00015405","stationId":"490G00015405","stopLetter":"RJ","topMostParentId":"490G00015405","towards":"Sutton"},{"icsId":"1015406","id":"490015406RK","lat":51.38335,"lon":-0.18839,"name":"Wrythe Lane / Rose Hill Roundabout","parentId":"490G00015406","stationId":"490G00015406","stopLetter":"RK","topMostParentId":"490G00015406","towards":"Carshalton Or Hackbridge"},{"icsId":"1012718","id":"490012718HB","lat":51.38053,"lon":-0.18264,"name":"St Helier Hospital","parentId":"490G00012718","stationId":"490G00012718","stopLetter":"HB","topMostParentId":"490G00012718","towards":"Carshalton Or Hackbridge"},{"icsId":"1014339","id":"490014339S","lat":51.37872,"lon":-0.17882,"name":"Welbeck Road","parentId":"490G00014339","stationId":"490G00014339","stopLetter":"->S","topMostParentId":"490G00014339","towards":"Sutton Or Wallington"},{"icsId":"1010129","id":"490010129S","lat":51.3758,"lon":-0.17727,"name":"Muschamp Road","parentId":"490G00010129","stationId":"490G00010129","stopLetter":"S","topMostParentId":"490G00010129","towards":"Sutton Or Wallington"},{"icsId":"1011149","id":"490011149S","lat":51.37262,"lon":-0.17435,"name":"Poulton Avenue","parentId":"490G00011149","stationId":"490G00011149","stopLetter":"T","topMostParentId":"490G00011149","towards":"Sutton Or Wallington"},{"icsId":"1010624","id":"490010624W","lat":51.36976,"lon":-0.18011,"name":"Orchard Way Erskine Road","parentId":"490G00010624","stationId":"490G00010624","stopLetter":"->W","topMostParentId":"490G00010624"},{"icsId":"1013611","id":"490012566W","lat":51.36958,"lon":-0.18825,"name":"Oakhill Road Sutton","parentId":"490G00013611","stationId":"490G00013611","stopLetter":"->W","topMostParentId":"490G00013611"},{"icsId":"1013073","id":"490013073W","lat":51.3709,"lon":-0.19373,"name":"Lewis Road","parentId":"490G00013073","stationId":"490G00013073","stopLetter":"->W","topMostParentId":"490G00013073"},{"icsId":"1013072","id":"490013072B","lat":51.3698,"lon":-0.19493,"name":"Sutton Green","parentId":"490G00013072","stationId":"490G00013072","stopLetter":"B","topMostParentId":"490G00013072","towards":"Belmont, Carshalton Beeches Or Cheam"},{"icsId":"1013062","id":"490013062C","lat":51.36787,"lon":-0.19497,"name":"High Street / Marshalls Road","parentId":"490G00013062","stationId":"490G00013062","stopLetter":"C","topMostParentId":"490G00013062","towards":"Belmont, Cheam Or West Sutton"},{"icsId":"1003892","id":"490003892E","lat":51.36717,"lon":-0.19331,"name":"Benhill Avenue","parentId":"490G00003892","stationId":"490G00003892","stopLetter":"E","topMostParentId":"490G00003892","towards":"Belmont Or North Cheam"},{"icsId":"1009575","id":"490009575I","lat":51.36548,"lon":-0.19268,"name":"Manor Place","parentId":"490G00009575","stationId":"490G00009575","stopLetter":"I","topMostParentId":"490G00009575","towards":"Belmont, Carshalton Or North Cheam"},{"icsId":"1013679","id":"490013679J","lat":51.36374,"lon":-0.1919,"name":"Times Square","parentId":"490G00013679","stationId":"490G00013679","stopLetter":"J","topMostParentId":"490G00013679","towards":"Belmont, Carshalton Or North Cheam"},{"icsId":"1013081","id":"490013081K","lat":51.36165,"lon":-0.19069,"name":"Sutton Police Station","parentId":"490G00013081","stationId":"490G00013081","stopLetter":"K","topMostParentId":"490G00013081","towards":"Belmont, Carshalton Or North Cheam"},{"icsId":"1001286","id":"490001286O","lat":51.35914,"lon":-0.19119,"name":"Sutton Station","stopLetter":"O","topMostParentId":"490001286O","towards":"Belmont Or Carshalton Beeches"},{"icsId":"1004887","id":"490004887S","lat":51.35631,"lon":-0.19166,"name":"Brighton Road / Cavendish Road","parentId":"490G00004887","stationId":"490G00004887","stopLetter":"T","topMostParentId":"490G00004887","towards":"Banstead"},{"icsId":"1007987","id":"490007987E","lat":51.35689,"lon":-0.18793,"name":"Cavendish Road (SM2)","parentId":"490G00007987","stationId":"490G00007987","stopLetter":"->E","topMostParentId":"490G00007987"},{"icsId":"1007987","id":"490003293E","lat":51.35723,"lon":-0.18598,"name":"Cavendish Road (SM2)","parentId":"490G00007987","stationId":"490G00007987","topMostParentId":"490G00007987"},{"icsId":"1002300","id":"490019635E","lat":51.34774,"lon":-0.19399,"name":"Sutton Hospital","parentId":"490G00002300","stationId":"490G00002300","stopLetter":"->W","topMostParentId":"490G00002300"},{"icsId":"1013075","id":"490013075J","lat":51.34707,"lon":-0.19489,"name":"The London Cancer Hub","parentId":"490G00013075","stationId":"490G00013075","stopLetter":"J","topMostParentId":"490G00013075","towards":"Banstead"},{"icsId":"1006184","id":"490006184F","lat":51.34353,"lon":-0.19434,"name":"Downs Road / Belmont Station","parentId":"490G00006184","stationId":"490G00006184","stopLetter":"F","topMostParentId":"490G00006184","towards":"Banstead"},{"icsId":"1008148","id":"40004409033B","lat":51.339683,"lon":-0.19392,"name":"Highdown Lane","parentId":"400G4409033A","stationId":"400G4409033A","topMostParentId":"400G4409033A","towards":"Banstead"},{"icsId":"1003587","id":"40004409034B","lat":51.335587,"lon":-0.194828,"name":"Banstead Downs","parentId":"400G4409034A","stationId":"400G4409034A","topMostParentId":"400G4409034A","towards":"Banstead"},{"icsId":"1007346","id":"40004409035B","lat":51.331668,"lon":-0.195513,"name":"Grange Gardens","parentId":"400G4409035A","stationId":"400G4409035A","topMostParentId":"400G4409035A","towards":"Banstead"},{"icsId":"1005857","id":"40004409036B","lat":51.327273,"lon":-0.193905,"name":"Croydon Lane","parentId":"400G4409036B","stationId":"400G4409036B","topMostParentId":"400G4409036B","towards":"Tattenham Corner"},{"icsId":"1003585","id":"40004409045B","lat":51.32411,"lon":-0.196383,"name":"Banstead / the Woolpack","parentId":"400G4409045A","stationId":"400G4409045A","topMostParentId":"400G4409045A","towards":"Burgh Heath, Epsom Or Tattenham Corner"},{"icsId":"1007229","id":"40004409046B","lat":51.323259,"lon":-0.198957,"name":"Glenfield Road","parentId":"400G4409046A","stationId":"400G4409046A","topMostParentId":"400G4409046A","towards":"Burgh Heath, Epsom Or Tattenham Corner"},{"icsId":"1003586","id":"40004409047B","lat":51.32214,"lon":-0.203393,"name":"Banstead / Marks & Spencer","parentId":"400G4409047A","stationId":"400G4409047A","topMostParentId":"400G4409047A","towards":"Burgh Heath, Epsom Or Tattenham Corner"}]}]}