{"direction":"inbound","lineId":"sl7","lineName":"SL7","mode":"bus","stopPointSequences":[{"stopPoint":[{"icsId":"1008016","id":"4900801619","lat":51.47137,"lon":-0.45346,"name":"Heathrow Central Bus Station","parentId":"910GHTRWCBS","stationId":"910GHTRWCBS","stopLetter":"19","topMostParentId":"HUBH13"},{"icsId":"1000103","id":"490000103C","lat":51.4668,"lon":-0.42338,"name":"Hatton Cross Station","stopLetter":"C","topMostParentId":"490000103C","zone":"5+6"},{"icsId":"1004377","id":"490004377E","lat":51.42607,"lon":-0.33686,"name":"Broad Street / Teddington","parentId":"490G00004377","stationId":"490G00004377","stopLetter":"E","topMostParentId":"490G00004377","towards":"Kingston Or Twickenham"},{"icsId":"1003909","id":"490003909N","lat":51.41155,"lon":-0.30583,"name":"Kingston / Wood Street","parentId":"490G00003909","stationId":"490G00003909","stopLetter":"N","topMostParentId":"490G00003909","towards":"Surbiton Or New Malden"},{"icsId":"1005800","id":"490005800A1","lat":51.41235,"lon":-0.29938,"name":"Cromwell Road Bus Station","parentId":"490G000476","stationId":"490G000476","stopLetter":"A1","topMostParentId":"490G000476","towards":"Kingston Hospital, New Malden Or Ham"},{"icsId":"1015206","id":"490015206J","lat":51.39817,"lon":-0.25537,"name":"New Malden / the Fountain","parentId":"490G000880","stationId":"490G000880","stopLetter":"J","topMostParentId":"490G000880","towards":"Worcester Park, Raynes Park Or Tolworth"},{"icsId":"1001346","id":"490001346B","lat":51.38144,"lon":-0.24628,"name":"Worcester Park Station","stopLetter":"B","topMostParentId":"490001346B","towards":"North Cheam"},{"icsId":"1010323","id":"490009283B","lat":51.37152,"lon":-0.2287,"name":"North Cheam / London Road","parentId":"490G00010323","stationId":"490G00010323","stopLetter":"B","topMostParentId":"490G00010323","towards":"Sutton"},{"icsId":"1005056","id":"490005056C","lat":51.3585,"lon":-0.21651,"name":"Cheam Broadway","parentId":"490G00005056","stationId":"490G00005056","stopLetter":"C","topMostParentId":"490G00005056","towards":"Sutton"},{"icsId":"1013081","id":"490013081L","lat":51.36161,"lon":-0.19125,"name":"Sutton Police Station","parentId":"490G00013081","stationId":"490G00013081","stopLetter":"L","topMostParentId":"490G00013081","towards":"Carshalton"},{"icsId":"1004821","id":"490004821D","lat":51.3655,"lon":-0.1604,"name":"Carshalton High Street","parentId":"490G00004821","stationId":"490G00004821","stopLetter":"D","topMostParentId":"490G00004821","towards":"Beddington Or Wallington"},{"icsId":"1014137","id":"490014137E","lat":51.36755,"lon":-0.15283,"name":"Croydon Road / Wallington Green","parentId":"490G00014137","stationId":"490G00014137","stopLetter":"GP","topMostParentId":"490G00014137","towards":"Beddington"},{"icsId":"1001089","id":"490001089E6","lat":51.37465,"lon":-0.09291,"name":"East Croydon Station","stopLetter":"E6","topMostParentId":"490001089E6","towards":"West Croydon"},{"icsId":"1014420","id":"490014420B8","lat":51.3787,"lon":-0.10108,"name":"West Croydon Bus Station","parentId":"490G000824","stationId":"490G000824","stopLetter":"B8","topMostParentId":"HUBWCY"}]}]}