{"direction":"inbound","lineId":"u1","lineName":"U1","mode":"bus","stopPointSequences":[{"stopPoint":[{"icsId":"1001325","id":"490001325E","lat":51.5102,"lon":-0.47308,"name":"West Drayton Station","stopLetter":"E","topMostParentId":"490001325E","towards":"Hillingdon Hospital, Uxbridge Or Hayes"},{"icsId":"1015005","id":"490015005A","lat":51.51287,"lon":-0.47277,"name":"Yiewsley High Street","parentId":"490G00015005","stationId":"490G00015005","stopLetter":"A","topMostParentId":"490G00015005","towards":"Hillingdon Hospital Or Uxbridge"},{"icsId":"1015006","id":"490015006E","lat":51.51569,"lon":-0.4738,"name":"Yiewsley Library","parentId":"490G00015006","stationId":"490G00015006","stopLetter":"U","topMostParentId":"490G00015006","towards":"Hillingdon Hospital"},{"icsId":"1009868","id":"490009868E","lat":51.51735,"lon":-0.46948,"name":"Milburn Drive","parentId":"490G00009868","stationId":"490G00009868","stopLetter":"V","topMostParentId":"490G00009868","towards":"Hillingdon Hospital"},{"icsId":"1003348","id":"490003348E","lat":51.51761,"lon":-0.46312,"name":"Apple Tree Avenue","parentId":"490G00003348","stationId":"490G00003348","stopLetter":"M","topMostParentId":"490G00003348","towards":"Hillingdon Hospital"},{"icsId":"1005478","id":"490014100E","lat":51.52318,"lon":-0.45773,"name":"Violet Avenue","parentId":"490G00005478","stationId":"490G00005478","stopLetter":"E","topMostParentId":"490G00005478","towards":"Uxbridge"},{"icsId":"1005477","id":"490010998N","lat":51.52552,"lon":-0.45882,"name":"Colham Road","parentId":"490G00005477","stationId":"490G00005477","stopLetter":"T","topMostParentId":"490G00005477","towards":"Uxbridge"},{"icsId":"1008225","id":"490008225HA","lat":51.52711,"lon":-0.46244,"name":"Hillingdon Hospital","parentId":"490G00008225","stationId":"490G00008225","stopLetter":"HA","topMostParentId":"490G00008225","towards":"Uxbridge"},{"icsId":"1008824","id":"490008824N","lat":51.53014,"lon":-0.46585,"name":"Kingston Lane / Pentecostal Church","parentId":"490G00008824","stationId":"490G00008824","stopLetter":"HD","topMostParentId":"490G00008824","towards":"Uxbridge Or Ruislip"},{"icsId":"1004527","id":"490004527BJ","lat":51.53382,"lon":-0.46804,"name":"Brunel University","parentId":"490G00004527","stationId":"490G00004527","stopLetter":"BJ","topMostParentId":"490G00004527","towards":"Uxbridge Or Ruislip"},{"icsId":"1013396","id":"490013396N","lat":51.53658,"lon":-0.47078,"name":"The Greenway","parentId":"490G00013396","stationId":"490G00013396","stopLetter":"BE","topMostParentId":"490G00013396","towards":"Uxbridge Or Ruislip"},{"icsId":"1009602","id":"490009602N","lat":51.54023,"lon":-0.47278,"name":"Manor Waye - St Andrew's Park","parentId":"490G00009602","stationId":"490G00009602","stopLetter":"W","topMostParentId":"490G00009602","towards":"Uxbridge"},{"icsId":"1012537","id":"490012537W","lat":51.54286,"lon":-0.47297,"name":"St Andrew's Church","parentId":"490G00012537","stationId":"490G00012537","stopLetter":"X","topMostParentId":"490G00012537","towards":"Uxbridge"},{"icsId":"1005325","id":"490005325U","lat":51.54449,"lon":-0.47574,"name":"Civic Centre","parentId":"490G00005325","stationId":"490G00005325","stopLetter":"U","topMostParentId":"490G00005325","towards":"Uxbridge Station"},{"icsId":"1005845","id":"490005845P","lat":51.54574,"lon":-0.48272,"name":"Crown Walk","parentId":"490G00005845","stationId":"490G00005845","stopLetter":"P","topMostParentId":"490G00005845","towards":"Uxbridge Station"},{"icsId":"1015585","id":"490015585E","lat":51.54743,"lon":-0.47974,"name":"Belmont Road","parentId":"490G00015585","stationId":"490G00015585","stopLetter":"D","topMostParentId":"490G00015585"},{"icsId":"1000246","id":"490000246L","lat":51.54653,"lon":-0.47848,"name":"Uxbridge Station","stopLetter":"L","topMostParentId":"490000246L","towards":"Denham, Harefield, Northwood Or Ruislip","zone":"6"},{"icsId":"1010810","id":"490010810E","lat":51.55052,"lon":-0.47164,"name":"The Hermitage","parentId":"490G00010810","stationId":"490G00010810","stopLetter":"->E","topMostParentId":"490G00010810","towards":"Hillingdon Station Or Ickenham"},{"icsId":"1010340","id":"490010340N","lat":51.55483,"lon":-0.47019,"name":"North Common Road","parentId":"490G00010340","stationId":"490G00010340","stopLetter":"->N","topMostParentId":"490G00010340","towards":"Ickenham"},{"icsId":"1007787","id":"490007787N","lat":51.55684,"lon":-0.46989,"name":"Harefield Road","parentId":"490G00007787","stationId":"490G00007787","stopLetter":"->N","topMostParentId":"490G00007787","towards":"Ickenham"},{"icsId":"1014240","id":"490014240N","lat":51.56038,"lon":-0.46869,"name":"Warren Road","parentId":"490G00014240","stationId":"490G00014240","stopLetter":"->N","topMostParentId":"490G00014240","towards":"Harefield Or West Ruislip"},{"icsId":"1011649","id":"490011648N","lat":51.56218,"lon":-0.46685,"name":"Roker Park Avenue","parentId":"490G00011649","stationId":"490G00011649","stopLetter":"->N","topMostParentId":"490G00011649","towards":"Harefield Or West Ruislip"},{"icsId":"1004271","id":"490004271E","lat":51.565,"lon":-0.46055,"name":"Breakspear Road South","parentId":"490G00004271","stationId":"490G00004271","stopLetter":"->E","topMostParentId":"490G00004271","towards":"West Ruislip"},{"icsId":"1013629","id":"490013629E","lat":51.56532,"lon":-0.45418,"name":"Thornhill Road","parentId":"490G00013629","stationId":"490G00013629","stopLetter":"->E","topMostParentId":"490G00013629","towards":"West Ruislip"},{"icsId":"1014132","id":"490014132E","lat":51.56559,"lon":-0.45077,"name":"Wallasey Crescent","parentId":"490G00014132","stationId":"490G00014132","stopLetter":"->E","topMostParentId":"490G00014132","towards":"West Ruislip"},{"icsId":"1011474","id":"490011474E","lat":51.5656,"lon":-0.44713,"name":"Rectory Way","parentId":"490G00011474","stationId":"490G00011474","stopLetter":"->E","topMostParentId":"490G00011474","towards":"Ruislip"},{"icsId":"1013091","id":"490013091A","lat":51.56523,"lon":-0.44322,"name":"Austins Lane","parentId":"490G000778","stationId":"490G000778","stopLetter":"A","topMostParentId":"490G000778","towards":"Ruislip"},{"icsId":"1010472","id":"490010472N","lat":51.56762,"lon":-0.44149,"name":"Oak Avenue","parentId":"490G00010472","stationId":"490G00010472","stopLetter":"L","topMostParentId":"490G00010472","towards":"Ruislip"},{"icsId":"1000267","id":"490000267B","lat":51.57008,"lon":-0.43763,"name":"West Ruislip Station","stopLetter":"M","topMostParentId":"490000267B","towards":"Ruislip","zone":"6"},{"icsId":"1012038","id":"490012038E","lat":51.57183,"lon":-0.43304,"name":"Sharps Lane","parentId":"490G00012038","stationId":"490G00012038","stopLetter":"N","topMostParentId":"490G00012038","towards":"Ruislip"},{"icsId":"1013488","id":"490013488E","lat":51.5727,"lon":-0.43088,"name":"Church Avenue","parentId":"490G00013488","stationId":"490G00013488","stopLetter":"P","topMostParentId":"490G00013488","towards":"Ruislip"},{"icsId":"1008454","id":"490011782E","lat":51.57392,"lon":-0.42397,"name":"Midcroft","parentId":"490G00008454","stationId":"490G00008454","stopLetter":"E","topMostParentId":"490G00008454","towards":"Pinner Or Ruislip Station"},{"icsId":"1011781","id":"490011781D","lat":51.57292,"lon":-0.42282,"name":"Brickwall Lane","parentId":"490G00011781","stationId":"490G00011781","stopLetter":"D","topMostParentId":"490G00011781","towards":"Pinner Or Ruislip Station"},{"icsId":"1000197","id":"490000197Z1","lat":51.57205,"lon":-0.42133,"name":"Ruislip Station","stopLetter":"Z1","topMostParentId":"490000197Z1","zone":"6"}]}]}