{"direction":"inbound","lineId":"w12","lineName":"W12","mode":"bus","stopPointSequences":[{"stopPoint":[{"icsId":"1004984","id":"490004984N","lat":51.60679,"lon":0.06022,"name":"Cross Road","parentId":"490G04984","stationId":"490G04984","stopLetter":"->W","topMostParentId":"490G04984","towards":"Woodford Or South Woodford"},{"icsId":"1011629","id":"490011629S","lat":51.60567,"lon":0.05422,"name":"Roding Lane North","parentId":"490G00011629","stationId":"490G00011629","stopLetter":"->S","topMostParentId":"490G00011629","towards":"Woodford"},{"icsId":"1003450","id":"490003450M","lat":51.60535,"lon":0.05054,"name":"Ashton Playing Fields","parentId":"490G00003450","stationId":"490G00003450","stopLetter":"M","topMostParentId":"490G00003450","towards":"Woodford"},{"icsId":"1003728","id":"490003728N2","lat":51.60172,"lon":0.0446,"name":"Beaumaris Drive","parentId":"490G00003728","stationId":"490G00003728","stopLetter":"S","topMostParentId":"490G00003728","towards":"South Woodford"},{"icsId":"1019138","id":"490004374W","lat":51.6009,"lon":0.04225,"name":"Broadmead Road / Chigwell Road","parentId":"490G00019138","stationId":"490G00019138","stopLetter":"U","topMostParentId":"490G00019138","towards":"South Woodford Or Woodford Station"},{"icsId":"1010612","id":"490010612W","lat":51.60199,"lon":0.03823,"name":"Orchard Estate","parentId":"490G00010612","stationId":"490G00010612","stopLetter":"V","topMostParentId":"490G00010612","towards":"South Woodford Or Woodford Station"},{"icsId":"1004375","id":"490004375S","lat":51.60197,"lon":0.03466,"name":"Broadmead Road","parentId":"490G00004375","stationId":"490G00004375","stopLetter":"E","topMostParentId":"490G00004375","towards":"South Woodford"},{"icsId":"1014200","id":"490014200S","lat":51.59981,"lon":0.03407,"name":"Wansford Road","parentId":"490G00014200","stationId":"490G00014200","stopLetter":"J","topMostParentId":"490G00014200","towards":"South Woodford"},{"icsId":"1007310","id":"490007310S","lat":51.59789,"lon":0.03352,"name":"Gordon Road","parentId":"490G00007310","stationId":"490G00007310","stopLetter":"K","topMostParentId":"490G00007310","towards":"South Woodford"},{"icsId":"1008985","id":"490008985S","lat":51.5963,"lon":0.03291,"name":"Latchett Road","parentId":"490G00008985","stationId":"490G00008985","stopLetter":"L","topMostParentId":"490G00008985","towards":"South Woodford"},{"icsId":"1012285","id":"490012285S","lat":51.59224,"lon":0.03603,"name":"Southend Road","parentId":"490G00012285","stationId":"490G00012285","stopLetter":"M","topMostParentId":"490G00012285","towards":"Snaresbrook Or Woodford Wells"},{"icsId":"1010601","id":"490010601S","lat":51.59065,"lon":0.03362,"name":"Onslow Gardens","parentId":"490G00010601","stationId":"490G00010601","stopLetter":"R","topMostParentId":"490G00010601","towards":"Snaresbrook Or Woodford Wells"},{"icsId":"1019203","id":"490008091W","lat":51.59019,"lon":0.02996,"name":"George Lane / Chigwell Road","parentId":"490G00019203","stationId":"490G00019203","stopLetter":"Z","topMostParentId":"490G00019203","towards":"Snaresbrook, Woodford Green Or Whipps Cross"},{"icsId":"1000217","id":"490000217D","lat":51.59201,"lon":0.02763,"name":"South Woodford Station","stopLetter":"D","topMostParentId":"490000217D","towards":"Snaresbrook Or Whipps Cross","zone":"4"},{"icsId":"1007164","id":"490007164H","lat":51.5944,"lon":0.02411,"name":"George Lane Shopping Centre","parentId":"490G00007164","stationId":"490G00007164","stopLetter":"H","topMostParentId":"490G00007164","towards":"Snaresbrook, Woodford Green Or Whipps Cross"},{"icsId":"1007162","id":"490007162J","lat":51.59445,"lon":0.02234,"name":"High Road / George Lane","parentId":"490G00007162","stationId":"490G00007162","stopLetter":"J","topMostParentId":"490G00007162","towards":"Wanstead Or Whipps Cross"},{"icsId":"1003798","id":"490003798S","lat":51.59163,"lon":0.02256,"name":"Bedford Road","parentId":"490G00003798","stationId":"490G00003798","stopLetter":"U","topMostParentId":"490G00003798","towards":"Wanstead Or Whipps Cross"},{"icsId":"1005358","id":"490005358S","lat":51.58925,"lon":0.02209,"name":"Clarendon Road","parentId":"490G00005358","stationId":"490G00005358","stopLetter":"V","topMostParentId":"490G00005358","towards":"Wanstead Or Whipps Cross"},{"icsId":"1003827","id":"490003827S","lat":51.5866,"lon":0.02127,"name":"Beechwood Park","parentId":"490G00003827","stationId":"490G00003827","stopLetter":"SA","topMostParentId":"490G00003827","towards":"Wanstead Or Whipps Cross"},{"icsId":"1012215","id":"490012215S","lat":51.58399,"lon":0.02039,"name":"Eagle Lane","parentId":"490G00012215","stationId":"490G00012215","stopLetter":"SB","topMostParentId":"490G00012215","towards":"Leytonstone Or Walthamstow"},{"icsId":"1000207","id":"490000207B","lat":51.58096,"lon":0.02199,"name":"Snaresbrook Station","stopLetter":"SC","topMostParentId":"490000207B","towards":"Leytonstone","zone":"4"},{"icsId":"1008092","id":"490008092S","lat":51.57998,"lon":0.02366,"name":"High Street / Hermon Hill","parentId":"490G00008092","stationId":"490G00008092","stopLetter":"SD","topMostParentId":"490G00008092","towards":"Wanstead Station Or Gants Hill"},{"icsId":"1014206","id":"490014206S","lat":51.57799,"lon":0.02617,"name":"Wanstead Place","parentId":"490G00014206","stationId":"490G00014206","stopLetter":"SE","topMostParentId":"490G00014206","towards":"Gants Hill Or Leytonstone"},{"icsId":"1014821","id":"490000250D","lat":51.57675,"lon":0.02739,"name":"Wanstead High St / Wanstead Station","parentId":"490G00014821","stationId":"490G00014821","stopLetter":"D","topMostParentId":"490G00014821","towards":"Leytonstone, Forest Gate Or Manor Park"},{"icsId":"1000250","id":"490015125C","lat":51.57508,"lon":0.0267,"name":"Wanstead Station  / George Green","stopLetter":"C","topMostParentId":"490015125C","towards":"Leytonstone, Forest Gate Or Manor Park","zone":"4"},{"icsId":"1008182","id":"490008182W","lat":51.5734,"lon":0.02229,"name":"Highstone Avenue","parentId":"490G00008182","stationId":"490G00008182","stopLetter":"W","topMostParentId":"490G00008182","towards":"Leytonstone"},{"icsId":"1004711","id":"490004711N","lat":51.5732,"lon":0.01987,"name":"Cambridge Road","parentId":"490G00004711","stationId":"490G00004711","stopLetter":"J","topMostParentId":"490G00004711","towards":"Leytonstone"},{"icsId":"1007490","id":"490007490P","lat":51.57076,"lon":0.01514,"name":"Green Man Roundabout","parentId":"490G00007490","stationId":"490G00007490","stopLetter":"P","topMostParentId":"490G00007490","towards":"Thatched House Or Leytonstone Station"},{"icsId":"1016503","id":"490016503Y","lat":51.57054,"lon":0.01005,"name":"Gainsborough Road","parentId":"490G00016503","stationId":"490G00016503","stopLetter":"Y","topMostParentId":"490G00016503","towards":"Walthamstow"},{"icsId":"1009139","id":"490009139A","lat":51.56803,"lon":0.0072,"name":"Leytonstone Stn  / Grove Green Road","parentId":"490G000638","stationId":"490G000638","stopLetter":"A","topMostParentId":"490G000638","towards":"Bakers Arms Or Whipps Cross"},{"icsId":"1005357","id":"490005357N","lat":51.56974,"lon":0.00325,"name":"Clarendon Road","parentId":"490G00005357","stationId":"490G00005357","stopLetter":"->N","topMostParentId":"490G00005357","towards":"Bakers Arms Or Whipps Cross"},{"icsId":"1012642","id":"490012642N","lat":51.571,"lon":0.00088,"name":"Elim Pentecostal Church","parentId":"490G00012642","stationId":"490G00012642","stopLetter":"->N","topMostParentId":"490G00012642","towards":"Bakers Arms"},{"icsId":"1006649","id":"490006646N","lat":51.57296,"lon":-0.00023,"name":"Essex Road South","parentId":"490G00006649","stationId":"490G00006649","stopLetter":"->N","topMostParentId":"490G00006649","towards":"Bakers Arms"},{"icsId":"1005363","id":"490005363N","lat":51.57473,"lon":0.00293,"name":"Clare Road","parentId":"490G00005363","stationId":"490G00005363","stopLetter":"P","topMostParentId":"490G00005363","towards":"Bakers Arms"},{"icsId":"1014567","id":"490014567N","lat":51.5766,"lon":0.00362,"name":"Whipps Cross Hospital / A & E","parentId":"490G00014567","stationId":"490G00014567","stopLetter":"N","topMostParentId":"490G00014567","towards":"Bakers Arms Or Walthamstow Village"},{"icsId":"1014568","id":"490014568S1","lat":51.57967,"lon":0.00175,"name":"Whipps Cross Hospital / Main Entrance","parentId":"490G00014568","stationId":"490G00014568","stopLetter":"J","topMostParentId":"490G00014568","towards":"Bakers Arms Or Walthamstow Village"},{"icsId":"1002116","id":"490002116X","lat":51.58078,"lon":0.00194,"name":"Whipps Cross Bus Stand","parentId":"490G000338","stationId":"490G000338","stopLetter":"M","topMostParentId":"490G000338","towards":"Leyton Bakers Arms Or Walthamstow Village"},{"icsId":"1006003","id":"490010589N","lat":51.58268,"lon":-0.00515,"name":"Our Lady & St George's Catholic School","parentId":"490G00006003","stationId":"490G00006003","stopLetter":"S","topMostParentId":"490G00006003","towards":"Highams Park Or Walthamstow Central"},{"icsId":"1003107","id":"490003107N","lat":51.58324,"lon":-0.00746,"name":"Addison Road","parentId":"490G00003107","stationId":"490G00003107","stopLetter":"T","topMostParentId":"490G00003107","towards":"Highams Park Or Walthamstow Central"},{"icsId":"1011245","id":"490011245W","lat":51.58773,"lon":-0.00941,"name":"Shernhall Street","parentId":"490G00011245","stationId":"490G00011245","stopLetter":"BV","topMostParentId":"490G00011245","towards":"Walthamstow Central"},{"icsId":"1005267","id":"490005267W","lat":51.58619,"lon":-0.01215,"name":"Church Hill Road","parentId":"490G00005267","stationId":"490G00005267","stopLetter":"->W","topMostParentId":"490G00005267","towards":"Walthamstow Central"},{"icsId":"1008270","id":"490008270T","lat":51.58517,"lon":-0.01809,"name":"Hoe Street","parentId":"490G00008270","stationId":"490G00008270","stopLetter":"T","topMostParentId":"490G00008270","towards":"Walthamstow Central"},{"icsId":"1014164","id":"490000249E","lat":51.58383,"lon":-0.02027,"name":"Walthamstow Bus Station","parentId":"490G000817","stationId":"490G000817","stopLetter":"E","topMostParentId":"490G000817","towards":"Bell Corner"},{"icsId":"1011979","id":"490011979M","lat":51.58254,"lon":-0.02438,"name":"Selborne Walk","parentId":"490G00011979","stationId":"490G00011979","stopLetter":"M","topMostParentId":"490G00011979","towards":"Blackhorse Road, Leyton Or Higham Hill"},{"icsId":"1014168","id":"490014168ZB","lat":51.58319,"lon":-0.0292,"name":"Walthamstow Market / High Street","parentId":"490G00014168","stationId":"490G00014168","stopLetter":"U","topMostParentId":"490G00014168","towards":"Coppermill Lane"},{"icsId":"1004785","id":"490004785XB","lat":51.58258,"lon":-0.03211,"name":"Carisbrooke Road","parentId":"490G00004785","stationId":"490G00004785","stopLetter":"V","topMostParentId":"490G00004785","towards":"Coppermill Lane"},{"icsId":"1014166","id":"490014166R","lat":51.58189,"lon":-0.03419,"name":"Walthamstow Market","parentId":"490G00014166","stationId":"490G00014166","stopLetter":"C","topMostParentId":"490G00014166","towards":"Leyton Or Walthamstow Central"},{"icsId":"1011525","id":"490011525W","lat":51.5798,"lon":-0.04151,"name":"Rensburg Road","parentId":"490G00011525","stationId":"490G00011525","stopLetter":"->W","topMostParentId":"490G00011525","towards":"Walthamstow Central Station"}]}]}