{"direction":"inbound","lineId":"w15","lineName":"W15","mode":"bus","stopPointSequences":[{"stopPoint":[{"icsId":"1007618","id":"490007618D","lat":51.54659,"lon":-0.05298,"name":"Morning Lane / Trelawney Estate","parentId":"490G00007618","stationId":"490G00007618","stopLetter":"D","topMostParentId":"490G00007618","towards":"Hackney Wick Or Leyton"},{"icsId":"1008329","id":"490008329S","lat":51.54698,"lon":-0.04894,"name":"Homerton Terrace","parentId":"490G00008329","stationId":"490G00008329","stopLetter":"S","topMostParentId":"490G00008329","towards":"Hackney Wick Or Leyton"},{"icsId":"1006795","id":"490006795C","lat":51.54837,"lon":-0.04721,"name":"Fenn Street","parentId":"490G00006795","stationId":"490G00006795","stopLetter":"C","topMostParentId":"490G00006795","towards":"Hackney Wick, Leyton Or Mile End"},{"icsId":"1019143","id":"490008327D","lat":51.54931,"lon":-0.04712,"name":"Homerton Hospital / Homerton Row","parentId":"490G00019143","stationId":"490G00019143","stopLetter":"D","topMostParentId":"490G00019143","towards":"Hackney Wick, Leyton Or Mile End"},{"icsId":"1016762","id":"490008327E","lat":51.54983,"lon":-0.0446,"name":"Homerton Hospital / Wardle Street","parentId":"490G00016762","stationId":"490G00016762","stopLetter":"E","topMostParentId":"490G00016762","towards":"Hackney Wick, Leyton Or Mile End"},{"icsId":"1007622","id":"490007622L","lat":51.54886,"lon":-0.04,"name":"Glyn Road","parentId":"490G00007622","stationId":"490G00007622","stopLetter":"L","topMostParentId":"490G00007622","towards":"Hackney Wick, Leyton Or Stratford City"},{"icsId":"1003222","id":"490003222E","lat":51.55015,"lon":-0.03408,"name":"Adley Street","parentId":"490G00003222","stationId":"490G00003222","stopLetter":"A","topMostParentId":"490G00003222","towards":"Hackney Wick, Leyton Or Stratford"},{"icsId":"1008803","id":"490008803E","lat":51.55084,"lon":-0.03193,"name":"Kingsmead Estate","parentId":"490G00008803","stationId":"490G00008803","stopLetter":"B","topMostParentId":"490G00008803","towards":"Hackney Wick, Leyton Or Stratford"},{"icsId":"1000445","id":"490000445Z","lat":51.55187,"lon":-0.02579,"name":"Hackney Marshes Playing Fields","parentId":"490G000094","stationId":"490G000094","stopLetter":"->E","topMostParentId":"490G000094","towards":"Leyton Or Stratford City"},{"icsId":"1006383","id":"490006383E","lat":51.55208,"lon":-0.02218,"name":"Hackney Marshes","parentId":"490G00006383","stationId":"490G00006383","stopLetter":"S","topMostParentId":"490G00006383","towards":"Leyton Or Stratford City"},{"icsId":"1011301","id":"490011301H","lat":51.55305,"lon":-0.01912,"name":"Ruckholt Road Bridge","parentId":"490G00011301","stationId":"490G00011301","stopLetter":"T","topMostParentId":"490G00011301","towards":"Leytonstone Or Stratford"},{"icsId":"1012390","id":"490012390N","lat":51.55542,"lon":-0.01657,"name":"Spitalfields Market","parentId":"490G00012390","stationId":"490G00012390","stopLetter":"U","topMostParentId":"490G00012390","towards":"Leytonstone"},{"icsId":"1010590","id":"490010590G","lat":51.5573,"lon":-0.01301,"name":"Oliver Road","parentId":"490G00010590","stationId":"490G00010590","stopLetter":"G","topMostParentId":"490G00010590","towards":" Leytonstone"},{"icsId":"1009136","id":"490009136D","lat":51.55869,"lon":-0.00663,"name":"Leyton High Road / Leyton Station","parentId":"490G000637","stationId":"490G000637","stopLetter":"D","topMostParentId":"490G000637","towards":"Leytonstone"},{"icsId":"1006988","id":"490015564F","lat":51.56044,"lon":-0.00273,"name":"Francis Road","parentId":"490G00006988","stationId":"490G00006988","stopLetter":"P","topMostParentId":"490G00006988","towards":"Leytonstone"},{"icsId":"1004868","id":"490004918N","lat":51.56198,"lon":0.00144,"name":"Central Avenue","parentId":"490G00004868","stationId":"490G00004868","stopLetter":"->N","topMostParentId":"490G00004868","towards":"Whipps Cross"},{"icsId":"1007738","id":"490007738E","lat":51.56582,"lon":0.00238,"name":"Hampton Road","parentId":"490G00007738","stationId":"490G00007738","stopLetter":"AE","topMostParentId":"490G00007738","towards":"Whipps Cross"},{"icsId":"1006195","id":"490006195D","lat":51.56693,"lon":0.00419,"name":"Drayton Road","parentId":"490G00006195","stationId":"490G00006195","stopLetter":"AD","topMostParentId":"490G00006195","towards":"Whipps Cross"},{"icsId":"1009139","id":"490009139A","lat":51.56803,"lon":0.0072,"name":"Leytonstone Stn  / Grove Green Road","parentId":"490G000638","stationId":"490G000638","stopLetter":"A","topMostParentId":"490G000638","towards":"Bakers Arms Or Whipps Cross"},{"icsId":"1005357","id":"490005357N","lat":51.56974,"lon":0.00325,"name":"Clarendon Road","parentId":"490G00005357","stationId":"490G00005357","stopLetter":"->N","topMostParentId":"490G00005357","towards":"Bakers Arms Or Whipps Cross"},{"icsId":"1012642","id":"490012642N","lat":51.571,"lon":0.00088,"name":"Elim Pentecostal Church","parentId":"490G00012642","stationId":"490G00012642","stopLetter":"->N","topMostParentId":"490G00012642","towards":"Bakers Arms"},{"icsId":"1006649","id":"490006646N","lat":51.57296,"lon":-0.00023,"name":"Essex Road South","parentId":"490G00006649","stationId":"490G00006649","stopLetter":"->N","topMostParentId":"490G00006649","towards":"Bakers Arms"},{"icsId":"1005363","id":"490005363N","lat":51.57473,"lon":0.00293,"name":"Clare Road","parentId":"490G00005363","stationId":"490G00005363","stopLetter":"P","topMostParentId":"490G00005363","towards":"Bakers Arms"},{"icsId":"1014567","id":"490014567N","lat":51.5766,"lon":0.00362,"name":"Whipps Cross Hospital / A & E","parentId":"490G00014567","stationId":"490G00014567","stopLetter":"N","topMostParentId":"490G00014567","towards":"Bakers Arms Or Walthamstow Village"},{"icsId":"1014568","id":"490014568S1","lat":51.57967,"lon":0.00175,"name":"Whipps Cross Hospital / Main Entrance","parentId":"490G00014568","stationId":"490G00014568","stopLetter":"J","topMostParentId":"490G00014568","towards":"Bakers Arms Or Walthamstow Village"},{"icsId":"1002116","id":"490002116X","lat":51.58078,"lon":0.00194,"name":"Whipps Cross Bus Stand","parentId":"490G000338","stationId":"490G000338","stopLetter":"M","topMostParentId":"490G000338","towards":"Leyton Bakers Arms Or Walthamstow Village"},{"icsId":"1006342","id":"490013295W","lat":51.57951,"lon":-0.00433,"name":"Peterborough Road","parentId":"490G00006342","stationId":"490G00006342","stopLetter":"WA","topMostParentId":"490G00006342","towards":"Clapton Or Walthamstow Central"},{"icsId":"1006644","id":"490006644W","lat":51.57837,"lon":-0.00678,"name":"Essex Road","parentId":"490G00006644","stationId":"490G00006644","stopLetter":"WB","topMostParentId":"490G00006644","towards":"Clapton Or Walthamstow Central"},{"icsId":"1009135","id":"490009135WK","lat":51.57669,"lon":-0.00763,"name":"Leyton Green Road","parentId":"490G00009135","stationId":"490G00009135","stopLetter":"WK","topMostParentId":"490G00009135","towards":"Walthamstow Central"},{"icsId":"1015102","id":"490015100H","lat":51.57475,"lon":-0.01191,"name":"Lea Bridge Road / Bakers Arms","parentId":"490G00015102","stationId":"490G00015102","stopLetter":"ND","topMostParentId":"490G00015102","towards":"Walthamstow Central"},{"icsId":"1015100","id":"490015099B","lat":51.57585,"lon":-0.01431,"name":"Hoe Street / Bakers Arms","parentId":"490G00015100","stationId":"490G00015100","stopLetter":"NE","topMostParentId":"490G00015100","towards":"Crooked Billet Or Blackhorse Road"},{"icsId":"1007576","id":"490007576N","lat":51.57822,"lon":-0.01725,"name":"Grove Road","parentId":"490G00007576","stationId":"490G00007576","stopLetter":"NH","topMostParentId":"490G00007576","towards":"Crooked Billet Or Blackhorse Road"},{"icsId":"1011349","id":"490011349N","lat":51.58061,"lon":-0.0185,"name":"Queen's Road","parentId":"490G00011349","stationId":"490G00011349","stopLetter":"L","topMostParentId":"490G00011349","towards":"Crooked Billet Or Blackhorse Road"},{"icsId":"1000249","id":"490000249YY","lat":51.58308,"lon":-0.01854,"name":"Walthamstow Central Station","stopLetter":"W","topMostParentId":"490000249YY","towards":"Chingford","zone":"3"},{"icsId":"1014164","id":"490000249E","lat":51.58383,"lon":-0.02027,"name":"Walthamstow Bus Station","parentId":"490G000817","stationId":"490G000817","stopLetter":"E","topMostParentId":"490G000817","towards":"Bell Corner"},{"icsId":"1011979","id":"490011979M","lat":51.58254,"lon":-0.02438,"name":"Selborne Walk","parentId":"490G00011979","stationId":"490G00011979","stopLetter":"M","topMostParentId":"490G00011979","towards":"Blackhorse Road, Leyton Or Higham Hill"},{"icsId":"1014168","id":"490014168V","lat":51.58374,"lon":-0.02861,"name":"Walthamstow Market / High Street","parentId":"490G00014168","stationId":"490G00014168","stopLetter":"S","topMostParentId":"490G00014168","towards":"Higham Hill"},{"icsId":"1005282","id":"490005282N","lat":51.58533,"lon":-0.02938,"name":"Church of St Michael & All Angels","parentId":"490G00005282","stationId":"490G00005282","stopLetter":"A","topMostParentId":"490G00005282","towards":"Higham Hill"},{"icsId":"1006932","id":"490006932N","lat":51.5881,"lon":-0.03023,"name":"Forest Road","parentId":"490G00006932","stationId":"490G00006932","stopLetter":"B","topMostParentId":"490G00006932","towards":"Cogan Avenue Estate"},{"icsId":"1009658","id":"490011523N","lat":51.58923,"lon":-0.03069,"name":"Renness Road","parentId":"490G00009658","stationId":"490G00009658","stopLetter":"C","topMostParentId":"490G00009658","towards":"Cogan Avenue Estate"},{"icsId":"1006450","id":"490006450N","lat":51.59166,"lon":-0.0329,"name":"Hillyfield Primary School","parentId":"490G00006450","stationId":"490G00006450","stopLetter":"D","topMostParentId":"490G00006450","towards":"Cogan Avenue Estate"},{"icsId":"1012540","id":"490012540N","lat":51.59392,"lon":-0.03486,"name":"St Andrews Road","parentId":"490G00012540","stationId":"490G00012540","stopLetter":"E","topMostParentId":"490G00012540","towards":"Cogan Avenue Estate"},{"icsId":"1014624","id":"490014624N","lat":51.59726,"lon":-0.03539,"name":"Whittingham Primary Academy","parentId":"490G00014624","stationId":"490G00014624","stopLetter":"->N","topMostParentId":"490G00014624","towards":"Cogan Avenue Estate"},{"icsId":"1004003","id":"490004003N","lat":51.59849,"lon":-0.03587,"name":"Billet Road","parentId":"490G00004003","stationId":"490G00004003","stopLetter":"->N","topMostParentId":"490G00004003","towards":"Cogan Avenue Estate"},{"icsId":"1008134","id":"490008134W","lat":51.59894,"lon":-0.03632,"name":"Higham Hill Road","parentId":"490G00008134","stationId":"490G00008134","stopLetter":"->W","topMostParentId":"490G00008134","towards":"Blackhorse Road"},{"icsId":"1019896","id":"490014698W","lat":51.6007,"lon":-0.03344,"name":"Higham Hill / Cogan Avenue","parentId":"490G00019896","stationId":"490G00019896","topMostParentId":"490G00019896"}]}]}