{"direction":"inbound","lineId":"w19","lineName":"W19","mode":"bus","stopPointSequences":[{"stopPoint":[{"icsId":"1007657","id":"490007657V","lat":51.55932,"lon":0.07601,"name":"Hainault Street","parentId":"490G00007657","stationId":"490G00007657","stopLetter":"V","topMostParentId":"490G00007657","towards":"Manor Park Or Barking"},{"icsId":"1008466","id":"490008466Q1","lat":51.55785,"lon":0.07405,"name":"Redbridge Central Library","parentId":"490G00008466","stationId":"490G00008466","stopLetter":"Q","topMostParentId":"490G00008466","towards":"Barking, Gants Hill, Manor Park Or Redbridge"},{"icsId":"1008465","id":"490008465L","lat":51.5584,"lon":0.07067,"name":"Ilford Broadway","parentId":"490G000604","stationId":"490G000604","stopLetter":"L","topMostParentId":"490G000604","towards":"Manor Park"},{"icsId":"1004985","id":"490004985Y","lat":51.55736,"lon":0.06785,"name":"Chapel Road","parentId":"490G00004985","stationId":"490G00004985","stopLetter":"Y","topMostParentId":"490G00004985","towards":"Manor Park"},{"icsId":"1006059","id":"490006059W","lat":51.55528,"lon":0.06203,"name":"Dersingham Avenue","parentId":"490G00006059","stationId":"490G00006059","stopLetter":"A","topMostParentId":"490G00006059","towards":"East Ham Or Manor Park"},{"icsId":"1009219","id":"490009219W","lat":51.55447,"lon":0.05937,"name":"Little Ilford Lane","parentId":"490G00009219","stationId":"490G00009219","stopLetter":"B","topMostParentId":"490G00009219","towards":"East Ham Or Manor Park"},{"icsId":"1009570","id":"490009570W","lat":51.55302,"lon":0.05434,"name":"Rabbits Road","parentId":"490G00009570","stationId":"490G00009570","stopLetter":"C","topMostParentId":"490G00009570","towards":"Forest Gate Or Leytonstone"},{"icsId":"1006856","id":"490006856W","lat":51.55196,"lon":0.05137,"name":"First Avenue","parentId":"490G00006856","stationId":"490G00006856","stopLetter":"D","topMostParentId":"490G00006856","towards":"Forest Gate Or Leytonstone"},{"icsId":"1008189","id":"490008189W","lat":51.55112,"lon":0.04868,"name":"High Street North","parentId":"490G000596","stationId":"490G000596","stopLetter":"F","topMostParentId":"490G000596","towards":"Forest Gate Or Leytonstone"},{"icsId":"1001189","id":"490001189N","lat":51.55208,"lon":0.04671,"name":"Manor Park Station","stopLetter":"A","topMostParentId":"490001189N","towards":"Leytonstone Or Wanstead"},{"icsId":"1004769","id":"490004769W","lat":51.55426,"lon":0.04635,"name":"Capel Road","parentId":"490G00004769","stationId":"490G00004769","stopLetter":"->N","topMostParentId":"490G00004769","towards":"Leytonstone Or Wanstead"},{"icsId":"1005322","id":"490005322N","lat":51.55696,"lon":0.04464,"name":"City of London Cemetery","parentId":"490G00005322","stationId":"490G00005322","stopLetter":"J","topMostParentId":"490G00005322","towards":"Wanstead Or Leytonstone"},{"icsId":"1014205","id":"490014205N","lat":51.55882,"lon":0.04156,"name":"Wanstead Park Avenue","parentId":"490G00014205","stationId":"490G00014205","stopLetter":"K","topMostParentId":"490G00014205","towards":"Leytonstone Or Wanstead"},{"icsId":"1009816","id":"490009816N","lat":51.55962,"lon":0.03974,"name":"Merlin Road","parentId":"490G00009816","stationId":"490G00009816","stopLetter":"L","topMostParentId":"490G00009816","towards":"Leytonstone Or Wanstead"},{"icsId":"1006566","id":"490006566N","lat":51.56049,"lon":0.038,"name":"Empress Avenue","parentId":"490G00006566","stationId":"490G00006566","stopLetter":"M","topMostParentId":"490G00006566","towards":"Leytonstone Or Wanstead"},{"icsId":"1006151","id":"490006151N","lat":51.56201,"lon":0.03497,"name":"Dover Road","parentId":"490G00006151","stationId":"490G00006151","stopLetter":"N","topMostParentId":"490G00006151","towards":"Leytonstone Or Wanstead"},{"icsId":"1010812","id":"490010812W","lat":51.56287,"lon":0.03231,"name":"Park Road","parentId":"490G00010812","stationId":"490G00010812","stopLetter":"P","topMostParentId":"490G00010812","towards":"Leytonstone Or Wanstead"},{"icsId":"1011372","id":"490011372N","lat":51.56391,"lon":0.02556,"name":"Queenswood Gardens","parentId":"490G00011372","stationId":"490G00011372","stopLetter":"R","topMostParentId":"490G00011372","towards":"Leytonstone Or Wanstead"},{"icsId":"1004087","id":"490004087N","lat":51.56663,"lon":0.0246,"name":"Blake Hall Crescent","parentId":"490G00004087","stationId":"490G00004087","stopLetter":"S","topMostParentId":"490G00004087","towards":"Wanstead"},{"icsId":"1007491","id":"490007491R","lat":51.57049,"lon":0.01768,"name":"Bush Road / Green Man Roundabout","parentId":"490G00007491","stationId":"490G00007491","stopLetter":"R","topMostParentId":"490G00007491","towards":"Leytonstone and Whipps Cross"},{"icsId":"1007490","id":"490007490P","lat":51.57076,"lon":0.01514,"name":"Green Man Roundabout","parentId":"490G00007490","stationId":"490G00007490","stopLetter":"P","topMostParentId":"490G00007490","towards":"Thatched House Or Leytonstone Station"},{"icsId":"1016503","id":"490016503Y","lat":51.57054,"lon":0.01005,"name":"Gainsborough Road","parentId":"490G00016503","stationId":"490G00016503","stopLetter":"Y","topMostParentId":"490G00016503","towards":"Walthamstow"},{"icsId":"1009139","id":"490009139A","lat":51.56803,"lon":0.0072,"name":"Leytonstone Stn  / Grove Green Road","parentId":"490G000638","stationId":"490G000638","stopLetter":"A","topMostParentId":"490G000638","towards":"Bakers Arms Or Whipps Cross"},{"icsId":"1005357","id":"490005357N","lat":51.56974,"lon":0.00325,"name":"Clarendon Road","parentId":"490G00005357","stationId":"490G00005357","stopLetter":"->N","topMostParentId":"490G00005357","towards":"Bakers Arms Or Whipps Cross"},{"icsId":"1012642","id":"490012642N","lat":51.571,"lon":0.00088,"name":"Elim Pentecostal Church","parentId":"490G00012642","stationId":"490G00012642","stopLetter":"->N","topMostParentId":"490G00012642","towards":"Bakers Arms"},{"icsId":"1006649","id":"490006646N","lat":51.57296,"lon":-0.00023,"name":"Essex Road South","parentId":"490G00006649","stationId":"490G00006649","stopLetter":"->N","topMostParentId":"490G00006649","towards":"Bakers Arms"},{"icsId":"1005363","id":"490005363N","lat":51.57473,"lon":0.00293,"name":"Clare Road","parentId":"490G00005363","stationId":"490G00005363","stopLetter":"P","topMostParentId":"490G00005363","towards":"Bakers Arms"},{"icsId":"1014567","id":"490014567N","lat":51.5766,"lon":0.00362,"name":"Whipps Cross Hospital / A & E","parentId":"490G00014567","stationId":"490G00014567","stopLetter":"N","topMostParentId":"490G00014567","towards":"Bakers Arms Or Walthamstow Village"},{"icsId":"1014568","id":"490014568S1","lat":51.57967,"lon":0.00175,"name":"Whipps Cross Hospital / Main Entrance","parentId":"490G00014568","stationId":"490G00014568","stopLetter":"J","topMostParentId":"490G00014568","towards":"Bakers Arms Or Walthamstow Village"},{"icsId":"1002116","id":"490002116X","lat":51.58078,"lon":0.00194,"name":"Whipps Cross Bus Stand","parentId":"490G000338","stationId":"490G000338","stopLetter":"M","topMostParentId":"490G000338","towards":"Leyton Bakers Arms Or Walthamstow Village"},{"icsId":"1006342","id":"490013295W","lat":51.57951,"lon":-0.00433,"name":"Peterborough Road","parentId":"490G00006342","stationId":"490G00006342","stopLetter":"WA","topMostParentId":"490G00006342","towards":"Clapton Or Walthamstow Central"},{"icsId":"1006644","id":"490006644W","lat":51.57837,"lon":-0.00678,"name":"Essex Road","parentId":"490G00006644","stationId":"490G00006644","stopLetter":"WB","topMostParentId":"490G00006644","towards":"Clapton Or Walthamstow Central"},{"icsId":"1009135","id":"490009135WK","lat":51.57669,"lon":-0.00763,"name":"Leyton Green Road","parentId":"490G00009135","stationId":"490G00009135","stopLetter":"WK","topMostParentId":"490G00009135","towards":"Walthamstow Central"},{"icsId":"1015102","id":"490015100H","lat":51.57475,"lon":-0.01191,"name":"Lea Bridge Road / Bakers Arms","parentId":"490G00015102","stationId":"490G00015102","stopLetter":"ND","topMostParentId":"490G00015102","towards":"Walthamstow Central"},{"icsId":"1015100","id":"490015099B","lat":51.57585,"lon":-0.01431,"name":"Hoe Street / Bakers Arms","parentId":"490G00015100","stationId":"490G00015100","stopLetter":"NE","topMostParentId":"490G00015100","towards":"Crooked Billet Or Blackhorse Road"},{"icsId":"1007576","id":"490007576N","lat":51.57822,"lon":-0.01725,"name":"Grove Road","parentId":"490G00007576","stationId":"490G00007576","stopLetter":"NH","topMostParentId":"490G00007576","towards":"Crooked Billet Or Blackhorse Road"},{"icsId":"1011349","id":"490011349N","lat":51.58061,"lon":-0.0185,"name":"Queen's Road","parentId":"490G00011349","stationId":"490G00011349","stopLetter":"L","topMostParentId":"490G00011349","towards":"Crooked Billet Or Blackhorse Road"},{"icsId":"1014164","id":"490000249E","lat":51.58383,"lon":-0.02027,"name":"Walthamstow Bus Station","parentId":"490G000817","stationId":"490G000817","stopLetter":"E","topMostParentId":"490G000817","towards":"Bell Corner"},{"icsId":"1011979","id":"490011979M","lat":51.58254,"lon":-0.02438,"name":"Selborne Walk","parentId":"490G00011979","stationId":"490G00011979","stopLetter":"M","topMostParentId":"490G00011979","towards":"Blackhorse Road, Leyton Or Higham Hill"},{"icsId":"1012304","id":"490012304W","lat":51.58045,"lon":-0.02974,"name":"South Grove","parentId":"490G00012304","stationId":"490G00012304","stopLetter":"H","topMostParentId":"490G00012304","towards":"Leyton Or Blackhorse Road"},{"icsId":"1009667","id":"490009667S","lat":51.57878,"lon":-0.03033,"name":"Markhouse Avenue","parentId":"490G00009667","stationId":"490G00009667","stopLetter":"J","topMostParentId":"490G00009667","towards":"Leyton"},{"icsId":"1016504","id":"490016504S","lat":51.57642,"lon":-0.03581,"name":"Barn Croft Primary School","parentId":"490G00016504","stationId":"490G00016504","stopLetter":"->S","topMostParentId":"490G00016504","towards":"Argall Avenue"},{"icsId":"1015783","id":"490015783W","lat":51.57473,"lon":-0.03768,"name":"Low Hall Manor Business Centre","parentId":"490G00015783","stationId":"490G00015783","stopLetter":"->S","topMostParentId":"490G00015783","towards":"Argall Avenue"},{"icsId":"1019711","id":"490016505S","lat":51.57135,"lon":-0.03657,"name":"Argall Avenue Industrial Estate","parentId":"490G00019711","stationId":"490G00019711","stopLetter":"AP","topMostParentId":"490G00019711","towards":"Argall Avenue Industrial Estate"}]}]}