{"direction":"inbound","lineId":"w3","lineName":"W3","mode":"bus","stopPointSequences":[{"stopPoint":[{"icsId":"1000083","id":"490000083B","lat":51.56571,"lon":-0.10705,"name":"Finsbury Park Station","stopLetter":"B","topMostParentId":"490000083B","zone":"2"},{"icsId":"1013693","id":"490013693N","lat":51.56896,"lon":-0.11149,"name":"Tollington Park","parentId":"490G00013693","stationId":"490G00013693","stopLetter":"W","topMostParentId":"490G00013693","towards":"Archway, Crouch End Or Wood Green"},{"icsId":"1007752","id":"490007752CS","lat":51.57036,"lon":-0.11468,"name":"Hanley Road / Stapleton Hall Road","parentId":"490G000569","stationId":"490G000569","stopLetter":"CS","topMostParentId":"490G000569","towards":"Archway, Crouch End Or Wood Green"},{"icsId":"1014065","id":"490014065CV","lat":51.57137,"lon":-0.11423,"name":"Victoria Road","parentId":"490G00014065","stationId":"490G00014065","stopLetter":"CV","topMostParentId":"490G00014065","towards":"Alexandra Palace"},{"icsId":"1010654","id":"490010654N","lat":51.5745,"lon":-0.11341,"name":"Ossian Road","parentId":"490G00010654","stationId":"490G00010654","stopLetter":"E","topMostParentId":"490G00010654","towards":"Alexandra Palace"},{"icsId":"1010103","id":"490010103N","lat":51.57679,"lon":-0.11522,"name":"Mount View Road","parentId":"490G00010103","stationId":"490G00010103","stopLetter":"F","topMostParentId":"490G00010103","towards":"Alexandra Palace"},{"icsId":"1014509","id":"490014509N","lat":51.58057,"lon":-0.11786,"name":"Weston Park","parentId":"490G00014509","stationId":"490G00014509","stopLetter":"X","topMostParentId":"490G00014509","towards":"Alexandra Palace"},{"icsId":"1006799","id":"490006799S","lat":51.58214,"lon":-0.11959,"name":"Tottenham Lane Y M C A","parentId":"490G00006799","stationId":"490G00006799","stopLetter":"W","topMostParentId":"490G00006799","towards":"Archway, Holloway Or Alexandra Palace"},{"icsId":"1010730","id":"490010730N","lat":51.58356,"lon":-0.12387,"name":"Palace Road","parentId":"490G00010730","stationId":"490G00010730","stopLetter":"Q","topMostParentId":"490G00010730","towards":"Alexandra Palace"},{"icsId":"1009850","id":"490009850W1","lat":51.58702,"lon":-0.12272,"name":"Nightingale Lane","parentId":"490G00009850","stationId":"490G00009850","stopLetter":"L","topMostParentId":"490G00009850","towards":"Alexandra Park"},{"icsId":"1008358","id":"490008358W","lat":51.58672,"lon":-0.12738,"name":"Hornsey Fire Station","parentId":"490G00008358","stationId":"490G00008358","stopLetter":"M","topMostParentId":"490G00008358","towards":"Alexandra Park"},{"icsId":"1000939","id":"490003211W","lat":51.58733,"lon":-0.1328,"name":"Park Road","stopLetter":"MK","topMostParentId":"490003211W","towards":"Wood Green Or Muswell Hill Broadway"},{"icsId":"1003210","id":"490003210N","lat":51.59238,"lon":-0.13421,"name":"Alexandra Palace Garden Centre","parentId":"490G00003210","stationId":"490G00003210","stopLetter":"A","topMostParentId":"490G00003210","towards":"Wood Green"},{"icsId":"1003199","id":"490003199E","lat":51.59318,"lon":-0.13298,"name":"Alexandra Palace / Palm Court","parentId":"490G00003199","stationId":"490G00003199","stopLetter":"B","topMostParentId":"490G00003199","towards":"Wood Green"},{"icsId":"1003198","id":"490003198N","lat":51.59532,"lon":-0.12786,"name":"Alexandra Palace Ice Rink","parentId":"490G00003198","stationId":"490G00003198","stopLetter":"C","topMostParentId":"490G00003198","towards":"Wood Green"},{"icsId":"1003196","id":"490003196W","lat":51.59603,"lon":-0.12485,"name":"Alexandra Palace Park","parentId":"490G00003196","stationId":"490G00003196","stopLetter":"D","topMostParentId":"490G00003196","towards":"Wood Green"},{"icsId":"1018814","id":"490001005A","lat":51.59855,"lon":-0.1219,"name":"Palace Gates Road","parentId":"490G00018814","stationId":"490G00018814","stopLetter":"F","topMostParentId":"490G00018814","towards":"Wood Green"},{"icsId":"1001005","id":"490001005D","lat":51.59809,"lon":-0.11964,"name":"Alexandra Palace Station","stopLetter":"G","topMostParentId":"490001005D","towards":"Wood Green"},{"icsId":"1009734","id":"490009734E","lat":51.59663,"lon":-0.11489,"name":"Barratt Avenue","parentId":"490G00009734","stationId":"490G00009734","stopLetter":"H","topMostParentId":"490G00009734","towards":"Turnpike Lane Or Tottenham"},{"icsId":"1015471","id":"490015471B","lat":51.59714,"lon":-0.11077,"name":"Wood Green Station / River Park Road","parentId":"490G000900","stationId":"490G000900","stopLetter":"B","topMostParentId":"490G000900","towards":"Turnpike Lane Or Tottenham"},{"icsId":"1015470","id":"490015470E1","lat":51.59758,"lon":-0.10757,"name":"Redvers Road","parentId":"490G000899","stationId":"490G000899","stopLetter":"V","topMostParentId":"490G000899","towards":"Northumberland Park"},{"icsId":"1014853","id":"490014853E","lat":51.59865,"lon":-0.10389,"name":"Wood Green Crown Court","parentId":"490G00014853","stationId":"490G00014853","stopLetter":"NA","topMostParentId":"490G00014853","towards":"Tottenham and Edmonton"},{"icsId":"1012223","id":"490012223E","lat":51.59986,"lon":-0.10078,"name":"Solway Road","parentId":"490G00012223","stationId":"490G00012223","stopLetter":"NH","topMostParentId":"490G00012223","towards":"Northumberland Park"},{"icsId":"1012722","id":"490012722N","lat":51.60214,"lon":-0.09759,"name":"Paisley Road","parentId":"490G00012722","stationId":"490G00012722","stopLetter":"NJ","topMostParentId":"490G00012722","towards":"Northumberland Park"},{"icsId":"1010250","id":"490010250N","lat":51.60461,"lon":-0.09688,"name":"New River Sports Centre","parentId":"490G00010250","stationId":"490G00010250","stopLetter":"NK","topMostParentId":"490G00010250","towards":"Northumberland Park"},{"icsId":"1007798","id":"490007798E","lat":51.60674,"lon":-0.09167,"name":"Haringey Football Club","parentId":"490G00007798","stationId":"490G00007798","stopLetter":"WX","topMostParentId":"490G00007798","towards":"Northumberland Park"},{"icsId":"1014597","id":"490014597E","lat":51.60568,"lon":-0.08666,"name":"Rowland Hill Avenue","parentId":"490G00014597","stationId":"490G00014597","stopLetter":"WY","topMostParentId":"490G00014597","towards":"Northumberland Park"},{"icsId":"1007394","id":"490014597E1","lat":51.60526,"lon":-0.08501,"name":"Great Cambridge Road","parentId":"490G00007394","stationId":"490G00007394","stopLetter":"WZ","topMostParentId":"490G00007394","towards":"Northumberland Park Or North Middlesex Hospital"},{"icsId":"1013728","id":"490013728E","lat":51.60509,"lon":-0.07929,"name":"Tottenham Cemetery","parentId":"490G00013728","stationId":"490G00013728","stopLetter":"->E","topMostParentId":"490G00013728","towards":"Northumberland Park Or North Middlesex Hospital"},{"icsId":"1013727","id":"490013727E","lat":51.60515,"lon":-0.07435,"name":"Haringey Sixth Form College","parentId":"490G00013727","stationId":"490G00013727","stopLetter":"A","topMostParentId":"490G00013727","towards":"Northumberland Park"},{"icsId":"1001335","id":"490001335B","lat":51.60549,"lon":-0.06899,"name":"White Hart Lane Station","stopLetter":"B","topMostParentId":"490001335B","towards":"Northumberland Park"},{"icsId":"1013730","id":"490013730T","lat":51.60622,"lon":-0.06418,"name":"Tottenham High Road","parentId":"490G00013730","stationId":"490G00013730","stopLetter":"C","topMostParentId":"490G00013730","towards":"Northumberland Park"},{"icsId":"1007182","id":"490007182E","lat":51.60591,"lon":-0.06161,"name":"Gillham Terrace","parentId":"490G00007182","stationId":"490G00007182","stopLetter":"D","topMostParentId":"490G00007182","towards":"Northumberland Park Station"},{"icsId":"1011953","id":"490011953E","lat":51.60479,"lon":-0.05806,"name":"Scotswood Walk","parentId":"490G00011953","stationId":"490G00011953","topMostParentId":"490G00011953","towards":"Northumberland Park Station"},{"icsId":"1001213","id":"490001213W","lat":51.60322,"lon":-0.05561,"name":"Northumberland Park Bus Stand","stopLetter":"->S","topMostParentId":"490001213W"}]}]}