{"direction":"inbound","lineId":"w6","lineName":"W6","mode":"bus","stopPointSequences":[{"stopPoint":[{"icsId":"1009983","id":"490009983E","lat":51.62539,"lon":-0.05858,"name":"Edmonton Green Bus Station","parentId":"490G00009983","stationId":"490G00009983","stopLetter":"E","topMostParentId":"490G00009983","towards":"Tottenham Hale, Palmers Green Or Enfield"},{"icsId":"1001092","id":"490001092D","lat":51.62525,"lon":-0.06241,"name":"Edmonton Green Station","stopLetter":"R","topMostParentId":"490001092D","towards":"Enfield Town Or Palmers Green"},{"icsId":"1010360","id":"490004959S","lat":51.62206,"lon":-0.0748,"name":"Northern Avenue","parentId":"490G00010360","stationId":"490G00010360","stopLetter":"->S","topMostParentId":"490G00010360"},{"icsId":"1000873","id":"490000873Z","lat":51.61695,"lon":-0.0761,"name":"Haselbury Road / Silver Street","parentId":"490G000195","stationId":"490G000195","stopLetter":"->S","topMostParentId":"490G000195"},{"icsId":"1009357","id":"490009357P","lat":51.61623,"lon":-0.07727,"name":"North Middlesex Hospital","parentId":"490G00009357","stationId":"490G00009357","stopLetter":"J","topMostParentId":"490G00009357","towards":"Palmers Green, Turnpike Lane Or Winchmore Hill"},{"icsId":"1015617","id":"490015617W","lat":51.61663,"lon":-0.08026,"name":"Millfield Theatre & Arts Centre","parentId":"490G00015617","stationId":"490G00015617","stopLetter":"WQ","topMostParentId":"490G00015617","towards":"Palmers Green, Turnpike Lane Or Winchmore Hill"},{"icsId":"1004712","id":"490004712W3","lat":51.61601,"lon":-0.08543,"name":"Cambridge Roundabout / East Side","parentId":"490G00004712","stationId":"490G00004712","stopLetter":"WS","topMostParentId":"490G00004712","towards":"Palmers Green Or Winchmore Hill"},{"icsId":"1006996","id":"490006996Z","lat":51.61761,"lon":-0.08786,"name":"Great Cambridge Road","parentId":"490G00006996","stationId":"490G00006996","stopLetter":"->W","topMostParentId":"490G00006996","towards":"Winchmore Hill"},{"icsId":"1002227","id":"490002227Y","lat":51.61928,"lon":-0.09078,"name":"Hedge Lane / Firs Lane","parentId":"490G00002227","stationId":"490G00002227","stopLetter":"->W","topMostParentId":"490G00002227","towards":"Winchmore Hill"},{"icsId":"1009941","id":"490009941W","lat":51.62147,"lon":-0.09686,"name":"Hedge Lane","parentId":"490G00009941","stationId":"490G00009941","stopLetter":"->W","topMostParentId":"490G00009941"},{"icsId":"1009150","id":"490009150Z","lat":51.62326,"lon":-0.10324,"name":"Hedge Lane / Green Lanes","parentId":"490G00009150","stationId":"490G00009150","stopLetter":"->W","topMostParentId":"490G00009150"},{"icsId":"1004196","id":"490004196S","lat":51.6231,"lon":-0.10443,"name":"Bourne Hill","parentId":"490G00004196","stationId":"490G00004196","stopLetter":"->S","topMostParentId":"490G00004196","towards":"Southgate Station Or Wood Green"},{"icsId":"1006974","id":"490006974Z","lat":51.62114,"lon":-0.10591,"name":"Fox Lane","parentId":"490G00006974","stationId":"490G00006974","stopLetter":"Z","topMostParentId":"490G00006974","towards":"Southgate Station Or Wood Green"},{"icsId":"1009248","id":"490009248B","lat":51.61861,"lon":-0.10767,"name":"Lodge Drive","parentId":"490G00009248","stationId":"490G00009248","stopLetter":"B","topMostParentId":"490G00009248","towards":"Southgate Station Or Wood Green"},{"icsId":"1001222","id":"490001222D","lat":51.61786,"lon":-0.10973,"name":"Palmers Green Station","stopLetter":"D","topMostParentId":"490001222D","towards":"Southgate"},{"icsId":"1004488","id":"490004488W","lat":51.61968,"lon":-0.11562,"name":"Broomfield Park","parentId":"490G00004488","stationId":"490G00004488","stopLetter":"M","topMostParentId":"490G00004488","towards":"Southgate"},{"icsId":"1006908","id":"490006908N1","lat":51.62064,"lon":-0.12087,"name":"Forestdale","parentId":"490G00006908","stationId":"490G00006908","stopLetter":"N","topMostParentId":"490G00006908","towards":"Southgate"},{"icsId":"1011978","id":"490011978N","lat":51.62291,"lon":-0.12232,"name":"Selborne Road","parentId":"490G00011978","stationId":"490G00011978","stopLetter":"T","topMostParentId":"490G00011978","towards":"Cockfosters Or Oakwood"},{"icsId":"1014999","id":"490014999N","lat":51.62531,"lon":-0.12468,"name":"Ye Olde Cherry Tree","parentId":"490G00014999","stationId":"490G00014999","stopLetter":"U","topMostParentId":"490G00014999","towards":"Cockfosters Or Oakwood"},{"icsId":"1009773","id":"490009773N","lat":51.62728,"lon":-0.126,"name":"Meadway","parentId":"490G00009773","stationId":"490G00009773","stopLetter":"V","topMostParentId":"490G00009773","towards":"Cockfosters Or Oakwood"},{"icsId":"1012299","id":"490012299A","lat":51.63058,"lon":-0.12795,"name":"Southgate College","parentId":"490G00012299","stationId":"490G00012299","stopLetter":"A","topMostParentId":"490G00012299","towards":"Cockfosters Or Oakwood"},{"icsId":"1000210","id":"490000210H","lat":51.63241,"lon":-0.12806,"name":"Southgate Station","stopLetter":"H","topMostParentId":"490000210H","zone":"4"}]}]}