{"direction":"outbound","lineId":"107","lineName":"107","mode":"bus","stopPointSequences":[{"stopPoint":[{"icsId":"1000070","id":"490000070F","lat":51.61267,"lon":-0.27424,"name":"Edgware Bus Station","stopLetter":"F","topMostParentId":"490000070F","towards":"Borehamwood, Broadfields Or Bushey Heath","zone":"5"},{"icsId":"1011173","id":"490000070B","lat":51.61456,"lon":-0.27576,"name":"Edgware Station  / Station Road","parentId":"490G00011173","stationId":"490G00011173","stopLetter":"B","topMostParentId":"490G00011173","towards":"Barnet, Borehamwood Or Mill Hill"},{"icsId":"1011254","id":"490011254N","lat":51.6179,"lon":-0.27745,"name":"Purcells Avenue","parentId":"490G00011254","stationId":"490G00011254","stopLetter":"P","topMostParentId":"490G00011254","towards":"Borehamwood Or Mill Hill"},{"icsId":"1006423","id":"490006423N","lat":51.62082,"lon":-0.27765,"name":"Edgwarebury Lane / Edgware Way","parentId":"490G00006423","stationId":"490G00006423","stopLetter":"Q","topMostParentId":"490G00006423","towards":"Borehamwood Or Mill Hill"},{"icsId":"1007224","id":"490007224W","lat":51.62217,"lon":-0.2816,"name":"Glendale Avenue","parentId":"490G00007224","stationId":"490G00007224","stopLetter":"R","topMostParentId":"490G00007224","towards":"Elstree"},{"icsId":"1006432","id":"490006432S","lat":51.62311,"lon":-0.28928,"name":"Edgware Way","parentId":"490G00006432","stationId":"490G00006432","stopLetter":"S","topMostParentId":"490G00006432","towards":"Elstree"},{"icsId":"1004760","id":"490004760L","lat":51.62217,"lon":-0.29325,"name":"Canons Corner","parentId":"490G00004760","stationId":"490G00004760","stopLetter":"L","topMostParentId":"490G00004760","towards":"Centennial Park Or Elstree"},{"icsId":"1011026","id":"490011026N","lat":51.62541,"lon":-0.29682,"name":"Pipers Green Lane","parentId":"490G00011026","stationId":"490G00011026","stopLetter":"->N","topMostParentId":"490G00011026","towards":"Centennial Park Or Elstree"},{"icsId":"1011769","id":"490011769N","lat":51.63229,"lon":-0.30475,"name":"Royal National Orthopaedic Hospital","parentId":"490G00011769","stationId":"490G00011769","stopLetter":"->N","topMostParentId":"490G00011769","towards":"Centennial Park Or Elstree"},{"icsId":"1014295","id":"210021008015","lat":51.637936,"lon":-0.303747,"name":"Elstree Hill South / Centennial Park","parentId":"210G1064","stationId":"210G1064","topMostParentId":"210G1064"},{"icsId":"1012990","id":"210021004980","lat":51.640326,"lon":-0.301693,"name":"Sullivan Way","topMostParentId":"210021004980"},{"icsId":"1011627","id":"210021002780","lat":51.642363,"lon":-0.300214,"name":"Rodgers Close","topMostParentId":"210021002780"},{"icsId":"1006531","id":"210021008120","lat":51.64447,"lon":-0.298488,"name":"Watling Court","topMostParentId":"210021008120"},{"icsId":"1008107","id":"210021004210","lat":51.64923,"lon":-0.29685,"name":"Elstree Hill North","topMostParentId":"210021004210"},{"icsId":"1008887","id":"210021004220","lat":51.651034,"lon":-0.287964,"name":"Knowl Way","topMostParentId":"210021004220"},{"icsId":"1009189","id":"210021004230","lat":51.65214,"lon":-0.28493,"name":"Barham Avenue","parentId":"210G781","stationId":"210G781","topMostParentId":"210G781"},{"icsId":"1006000","id":"210021004240","lat":51.653063,"lon":-0.2816,"name":"Deacons Hill Road","topMostParentId":"210021004240"},{"icsId":"1001096","id":"210021004245","lat":51.653148,"lon":-0.279428,"name":"Elstree & Borehamwood Station","parentId":"210G774","stationId":"210G774","stopLetter":"A","topMostParentId":"910GELTR"},{"icsId":"1007232","id":"210021004100","lat":51.654538,"lon":-0.278537,"name":"Glenhaven Avenue","parentId":"210G778","stationId":"210G778","stopLetter":"D","topMostParentId":"210G778"},{"icsId":"1018971","id":"210021004120","lat":51.656154,"lon":-0.275309,"name":"Furzehill Road","stopLetter":"G","topMostParentId":"210021004120"},{"icsId":"1004157","id":"210021002667","lat":51.657251,"lon":-0.270439,"name":"Borehamwood Tesco","stopLetter":"B","topMostParentId":"210021002667"},{"icsId":"1012063","id":"210021004140","lat":51.65821,"lon":-0.270807,"name":"Elstree Studios","parentId":"210G985","stationId":"210G985","topMostParentId":"210G985"},{"icsId":"1009728","id":"210021004260","lat":51.659003,"lon":-0.268464,"name":"Hertsmere Civic Offices","parentId":"210G992","stationId":"210G992","topMostParentId":"210G992"},{"icsId":"1003115","id":"210021004280","lat":51.660091,"lon":-0.26115,"name":"Studio Way","parentId":"210G994","stationId":"210G994","topMostParentId":"210G994"},{"icsId":"1014258","id":"210021004540","lat":51.658534,"lon":-0.255629,"name":"Warwick House","topMostParentId":"210021004540"},{"icsId":"1005996","id":"210021004550","lat":51.657091,"lon":-0.255323,"name":"Chester Road","topMostParentId":"210021004550"},{"icsId":"1008626","id":"210021004560","lat":51.654298,"lon":-0.25436,"name":"Kenilworth Drive","topMostParentId":"210021004560"},{"icsId":"1005284","id":"210021004570","lat":51.651626,"lon":-0.254882,"name":"Warren Grove","topMostParentId":"210021004570"},{"icsId":"1011589","id":"210021004580","lat":51.648111,"lon":-0.256159,"name":"Ripon Way","topMostParentId":"210021004580"},{"icsId":"1016706","id":"210021004585","lat":51.64693,"lon":-0.259008,"name":"Dacre Gardens","parentId":"210G1050","stationId":"210G1050","topMostParentId":"210G1050"},{"icsId":"1003440","id":"210021004780","lat":51.645762,"lon":-0.261467,"name":"Ashley Drive","topMostParentId":"210021004780"},{"icsId":"1015458","id":"210021004785","lat":51.643502,"lon":-0.255801,"name":"Stirling Corner / Barnet Lane","parentId":"210G1052","stationId":"210G1052","stopLetter":"B","topMostParentId":"210G1052"},{"icsId":"1012721","id":"490012721E2","lat":51.64182,"lon":-0.25225,"name":"Stirling Corner / Barnet Road","parentId":"490G00012721","stationId":"490G00012721","stopLetter":"E","topMostParentId":"490G00012721","towards":"High Barnet"},{"icsId":"1013368","id":"490013368E","lat":51.64252,"lon":-0.24191,"name":"Brickfield Lane","parentId":"490G00013368","stationId":"490G00013368","stopLetter":"C","topMostParentId":"490G00013368","towards":"High Barnet"},{"icsId":"1007215","id":"490007215E","lat":51.64561,"lon":-0.23625,"name":"Glebe Lane","parentId":"490G00007215","stationId":"490G00007215","stopLetter":"->E","topMostParentId":"490G00007215","towards":"High Barnet"},{"icsId":"1011744","id":"490011744E","lat":51.64731,"lon":-0.23253,"name":"Rowley Green Road","parentId":"490G00011744","stationId":"490G00011744","stopLetter":"->E","topMostParentId":"490G00011744","towards":"High Barnet"},{"icsId":"1011379","id":"490011379E1","lat":51.64985,"lon":-0.22595,"name":"Quinta Drive","parentId":"490G00011379","stationId":"490G00011379","stopLetter":"->E","topMostParentId":"490G00011379","towards":"High Barnet"},{"icsId":"1007117","id":"490007117E","lat":51.65085,"lon":-0.222,"name":"Garden Close","parentId":"490G00007117","stationId":"490G00007117","stopLetter":"->E","topMostParentId":"490G00007117","towards":"High Barnet"},{"icsId":"1013231","id":"490013231E2","lat":51.65263,"lon":-0.21899,"name":"Galley Lane","parentId":"490G00013231","stationId":"490G00013231","stopLetter":"K","topMostParentId":"490G00013231","towards":"New Barnet"},{"icsId":"1003636","id":"490003636B4","lat":51.65292,"lon":-0.21321,"name":"Barnet Hospital / Queens Road","parentId":"490G00003636","stationId":"490G00003636","stopLetter":"L","topMostParentId":"490G00003636","towards":"New Barnet"},{"icsId":"1013909","id":"490013909E","lat":51.65304,"lon":-0.20731,"name":"Union Street","parentId":"490G00013909","stationId":"490G00013909","stopLetter":"M","topMostParentId":"490G00013909","towards":"New Barnet Or Whetstone"},{"icsId":"1015142","id":"490015142F","lat":51.65306,"lon":-0.20161,"name":"Barnet Church / Wood Street","parentId":"490G00015142","stationId":"490G00015142","stopLetter":"F","topMostParentId":"490G00015142","towards":"New Barnet Or Whetstone"},{"icsId":"1019009","id":"490003634H","lat":51.65262,"lon":-0.19881,"name":"Barnet High Street / Barnet Church","parentId":"490G00019009","stationId":"490G00019009","stopLetter":"H","topMostParentId":"490G00019009","towards":"New Barnet"},{"icsId":"1009772","id":"490009772N","lat":51.65136,"lon":-0.19691,"name":"High Barnet Station  / Meadway","parentId":"490G000664","stationId":"490G000664","stopLetter":"N","topMostParentId":"490G000664","towards":"Whetstone Or New Barnet"},{"icsId":"1000107","id":"490000107R","lat":51.64934,"lon":-0.19325,"name":"High Barnet Station","stopLetter":"R","topMostParentId":"490000107R","towards":"New Barnet Or Whetstone","zone":"5"},{"icsId":"1003640","id":"490003640S","lat":51.64721,"lon":-0.18829,"name":"Potters Lane","parentId":"490G00003640","stationId":"490G00003640","stopLetter":"A","topMostParentId":"490G00003640","towards":"Whetstone Or New Barnet"},{"icsId":"1012613","id":"490015143E","lat":51.64714,"lon":-0.18644,"name":"Barnet Everyman Cinema","parentId":"490G00012613","stationId":"490G00012613","stopLetter":"B","topMostParentId":"490G00012613","towards":"East Barnet"},{"icsId":"1014253","id":"490014253E","lat":51.64853,"lon":-0.18066,"name":"Warwick Road","parentId":"490G00014253","stationId":"490G00014253","stopLetter":"C","topMostParentId":"490G00014253","towards":"Cockfosters, Oakwood Or Whetstone"},{"icsId":"1001203","id":"490001201D","lat":51.64968,"lon":-0.17609,"name":"New Barnet Station  / Station Road","parentId":"490G00001203","stationId":"490G00001203","stopLetter":"D","topMostParentId":"490G00001203","towards":"Arnos Grove, Oakwood Or Whetstone"},{"icsId":"1001201","id":"490001201S","lat":51.64906,"lon":-0.17344,"name":"New Barnet Station","stopLetter":"Z1","topMostParentId":"490001201S"}]}]}