{"direction":"outbound","lineId":"11","lineName":"11","mode":"bus","stopPointSequences":[{"stopPoint":[{"icsId":"1007057","id":"490007057R","lat":51.47939,"lon":-0.19474,"name":"Fulham Town Hall","parentId":"490G000526","stationId":"490G000526","stopLetter":"R","topMostParentId":"490G000526","towards":"Chelsea"},{"icsId":"1013888","id":"490013888S","lat":51.4778,"lon":-0.19233,"name":"Tyrawley Road","parentId":"490G00013888","stationId":"490G00013888","stopLetter":"GE","topMostParentId":"490G00013888","towards":"Chelsea Or Wandsworth Bridge"},{"icsId":"1011788","id":"490011788N","lat":51.47845,"lon":-0.18899,"name":"Rumbold Road","parentId":"490G00011788","stationId":"490G00011788","stopLetter":"GC","topMostParentId":"490G00011788","towards":"Chelsea"},{"icsId":"1009370","id":"490009370E","lat":51.48072,"lon":-0.18485,"name":"Worlds End Health Centre","parentId":"490G00009370","stationId":"490G00009370","stopLetter":"GD","topMostParentId":"490G00009370","towards":"Sloane Square Or Earls Court"},{"icsId":"1005076","id":"490015066E","lat":51.48168,"lon":-0.18235,"name":"Edith Grove / Worlds End","parentId":"490G00005076","stationId":"490G00005076","stopLetter":"->E","topMostParentId":"490G00005076","towards":"Sloane Square"},{"icsId":"1005086","id":"490005076E","lat":51.48244,"lon":-0.17915,"name":"Hobury Street / Worlds End","parentId":"490G00005086","stationId":"490G00005086","stopLetter":"QH","topMostParentId":"490G00005086","towards":"Sloane Square"},{"icsId":"1003682","id":"490015145E","lat":51.48433,"lon":-0.17644,"name":"Beaufort Street","parentId":"490G00003682","stationId":"490G00003682","stopLetter":"QT","topMostParentId":"490G00003682","towards":"Sloane Square"},{"icsId":"1010534","id":"490010534E","lat":51.48554,"lon":-0.17383,"name":"Old Church Street","parentId":"490G00010534","stationId":"490G00010534","stopLetter":"KE","topMostParentId":"490G00010534","towards":"Sloane Square Or South Kensington"},{"icsId":"1004809","id":"490008763KF","lat":51.48663,"lon":-0.17114,"name":"Carlyle Square","parentId":"490G00004809","stationId":"490G00004809","stopLetter":"KF","topMostParentId":"490G00004809","towards":"Sloane Square Or South Kensington"},{"icsId":"1005073","id":"490005073KL","lat":51.48778,"lon":-0.16808,"name":"Chelsea Old Town Hall","parentId":"490G00005073","stationId":"490G00005073","stopLetter":"KL","topMostParentId":"490G00005073","towards":"Sloane Square"},{"icsId":"1009666","id":"490009666KN","lat":51.48895,"lon":-0.16523,"name":"Markham Street","parentId":"490G00009666","stationId":"490G00009666","stopLetter":"KN","topMostParentId":"490G00009666","towards":"Sloane Square"},{"icsId":"1006224","id":"490006224KP","lat":51.49086,"lon":-0.16129,"name":"Duke of York Square","parentId":"490G00006224","stationId":"490G00006224","stopLetter":"KP","topMostParentId":"490G00006224","towards":"Victoria Or Hyde Park Corner"},{"icsId":"1006228","id":"490000206E","lat":51.49202,"lon":-0.15901,"name":"Cadogan Gardens / Sloane Square","parentId":"490G00006228","stationId":"490G00006228","stopLetter":"E","topMostParentId":"490G00006228","towards":"Victoria Or Hyde Park Corner"},{"icsId":"1011763","id":"490000206M","lat":51.49166,"lon":-0.15732,"name":"Sloane Square Stn  / Lower Sloane St","parentId":"490G00011763","stationId":"490G00011763","stopLetter":"M","topMostParentId":"490G00011763","towards":"Battersea Park, Vauxhall Or Victoria"},{"icsId":"1005065","id":"490005065N","lat":51.48993,"lon":-0.15548,"name":"Chelsea Bridge Road","parentId":"490G00005065","stationId":"490G00005065","stopLetter":"P","topMostParentId":"490G00005065","towards":"Victoria Station"},{"icsId":"1006399","id":"490006399E","lat":51.49089,"lon":-0.15112,"name":"Ebury Bridge Road","parentId":"490G00006399","stationId":"490G00006399","stopLetter":"R","topMostParentId":"490G00006399","towards":"Victoria Station"},{"icsId":"1014051","id":"490014051W","lat":51.49221,"lon":-0.14836,"name":"Victoria Coach Station","parentId":"490G000813","stationId":"490G000813","stopLetter":"W","topMostParentId":"490G000813","towards":"Victoria Station"},{"icsId":"1006404","id":"490006404W","lat":51.49348,"lon":-0.14728,"name":"Eccleston Bridge","parentId":"490G00006404","stationId":"490G00006404","stopLetter":"T","topMostParentId":"490G00006404","towards":"Victoria Bus Station And Parliament Square"},{"icsId":"1000248","id":"490002139ZZ","lat":51.49628,"lon":-0.14413,"name":"Victoria Station","stopLetter":"E","topMostParentId":"490002139ZZ","towards":"Parliament Square","zone":"1"},{"icsId":"1014496","id":"490014496N","lat":51.49683,"lon":-0.14026,"name":"Westminster Cathedral","parentId":"490G00014496","stationId":"490G00014496","stopLetter":"N","topMostParentId":"490G00014496","towards":"Trafalgar Square, Waterloo Or Lambeth North"},{"icsId":"1003384","id":"490003384SA","lat":51.49742,"lon":-0.13663,"name":"Westminster City Hall","parentId":"490G000394","stationId":"490G000394","stopLetter":"SA","topMostParentId":"490G000394","towards":"Trafalgar Square, Waterloo Or Lambeth North"},{"icsId":"1000221","id":"490010260SC","lat":51.49773,"lon":-0.13469,"name":"St James's Park Station","stopLetter":"SC","topMostParentId":"490010260SC","towards":"Trafalgar Square, Waterloo Or Lambeth North","zone":"1"},{"icsId":"1014495","id":"490014495S","lat":51.49923,"lon":-0.13045,"name":"Westminster Abbey","parentId":"490G000828","stationId":"490G000828","stopLetter":"S","topMostParentId":"490G000828","towards":"Waterloo Or Lambeth North"},{"icsId":"1014498","id":"490014498S","lat":51.50103,"lon":-0.12525,"name":"Westminster Stn  / Westminster Pier","parentId":"490G000829","stationId":"490G000829","stopLetter":"H","topMostParentId":"490G000829","towards":"Waterloo Or Lambeth North"},{"icsId":"1018956","id":"490005646E","lat":51.50083,"lon":-0.11802,"name":"St Thomas' Hospital / County Hall","parentId":"490G00018956","stationId":"490G00018956","stopLetter":"E","topMostParentId":"490G00018956","towards":"Elephant & Castle, Kennington Or Waterloo"},{"icsId":"1003722","id":"490000254C","lat":51.5036,"lon":-0.11217,"name":"Waterloo Station   / Upper Taxi Road","parentId":"490G000404","stationId":"490G000404","stopLetter":"C","topMostParentId":"HUBWAT"}]}]}