{"direction":"outbound","lineId":"112","lineName":"112","mode":"bus","stopPointSequences":[{"stopPoint":[{"icsId":"1007913","id":"490007913D","lat":51.51518,"lon":-0.30343,"name":"Haven Grn / Ealing Broadway Stn","parentId":"490G000578","stationId":"490G000578","stopLetter":"D","topMostParentId":"HUBEAL","towards":"Greenford Or Hanger Lane"},{"icsId":"1002155","id":"49002155ZZ","lat":51.51643,"lon":-0.29725,"name":"Westbury Road","parentId":"490G000376","stationId":"490G000376","stopLetter":"->E","topMostParentId":"490G000376","towards":"Hanger Lane"},{"icsId":"1002156","id":"49002156ZZ","lat":51.51698,"lon":-0.29379,"name":"Hanger Lane","parentId":"490G000377","stationId":"490G000377","stopLetter":"EY","topMostParentId":"490G000377","towards":"Alperton"},{"icsId":"1008210","id":"490008210N","lat":51.5248,"lon":-0.29252,"name":"Hillcrest Road","parentId":"490G00008210","stationId":"490G00008210","stopLetter":"->N","topMostParentId":"490G00008210","towards":"Alperton Or Stonebridge Park"},{"icsId":"1000099","id":"490000099A","lat":51.52904,"lon":-0.29273,"name":"Hanger Lane Station","stopLetter":"A","topMostParentId":"490000099A","towards":"Stonebridge Park, Alperton Or Park Royal","zone":"3"},{"icsId":"1007750","id":"490007750B","lat":51.53093,"lon":-0.29485,"name":"Hanger Lane Gyratory","parentId":"490G000568","stationId":"490G000568","stopLetter":"B","topMostParentId":"490G000568","towards":"East Actpark Royal Or Stonebridge"},{"icsId":"1010751","id":"490010751F","lat":51.53359,"lon":-0.29064,"name":"Park Avenue","parentId":"490G00010751","stationId":"490G00010751","stopLetter":"F","topMostParentId":"490G00010751","towards":"Stonebridge Park"},{"icsId":"1007696","id":"490007696E","lat":51.53595,"lon":-0.28718,"name":"Brentmead Gardens","parentId":"490G00007696","stationId":"490G00007696","stopLetter":"X","topMostParentId":"490G00007696","towards":"Stonebridge Park"},{"icsId":"1008521","id":"490008521E","lat":51.53785,"lon":-0.28284,"name":"Iveagh Avenue","parentId":"490G00008521","stationId":"490G00008521","stopLetter":"->E","topMostParentId":"490G00008521","towards":"Brent Cross"},{"icsId":"1003914","id":"490003914P","lat":51.54027,"lon":-0.2785,"name":"Beresford Avenue","parentId":"490G00003914","stationId":"490G00003914","stopLetter":"P","topMostParentId":"490G00003914","towards":"Alperton, Brent Cross Or Wembley"},{"icsId":"1000224","id":"490000224B","lat":51.54428,"lon":-0.27428,"name":"Stonebridge Park Station","stopLetter":"B","topMostParentId":"490000224B","towards":"Brent Cross Or Wembley","zone":"3"},{"icsId":"1007855","id":"490007855N","lat":51.54551,"lon":-0.27138,"name":"Harrow Road","parentId":"490G00007855","stationId":"490G00007855","stopLetter":"E","topMostParentId":"490G00007855","towards":"Brent Cross"},{"icsId":"1005538","id":"490005538E","lat":51.54732,"lon":-0.26646,"name":"Conduit Way","parentId":"490G00005538","stationId":"490G00005538","stopLetter":"->E","topMostParentId":"490G00005538","towards":"Brent Cross"},{"icsId":"1014960","id":"490014960N","lat":51.54946,"lon":-0.26316,"name":"Wrights Place","parentId":"490G00014960","stationId":"490G00014960","stopLetter":"R","topMostParentId":"490G00014960","towards":"Brent Cross"},{"icsId":"1004286","id":"490004286N","lat":51.55114,"lon":-0.26193,"name":"Brentfield Road","parentId":"490G00004286","stationId":"490G00004286","stopLetter":"N","topMostParentId":"490G00004286","towards":"Brent Cross"},{"icsId":"1014856","id":"490014856L","lat":51.55267,"lon":-0.2574,"name":"Woodheyes Road","parentId":"490G00014856","stationId":"490G00014856","stopLetter":"L","topMostParentId":"490G00014856","towards":"Brent Cross"},{"icsId":"1014082","id":"490014082NN","lat":51.55719,"lon":-0.25367,"name":"Village Way","parentId":"490G00014082","stationId":"490G00014082","stopLetter":"NN","topMostParentId":"490G00014082","towards":"Brent Cross Or Cricklewood"},{"icsId":"1003061","id":"490003061N","lat":51.56202,"lon":-0.25269,"name":"Ardley Close","parentId":"490G00003061","stationId":"490G00003061","stopLetter":"->N","topMostParentId":"490G00003061","towards":"Brent Cross"},{"icsId":"1000511","id":"490007991E","lat":51.56407,"lon":-0.25154,"name":"Aboyne Road","parentId":"490G000116","stationId":"490G000116","stopLetter":"->E","topMostParentId":"490G000116","towards":"Brent Cross"},{"icsId":"1000718","id":"490000718Z","lat":51.56645,"lon":-0.24774,"name":"Welsh Harp / Neasden Recreation Ground","parentId":"490G000128","stationId":"490G000128","stopLetter":"->E","topMostParentId":"490G000128","towards":"Staples Corner"},{"icsId":"1004483","id":"490004483E","lat":51.56858,"lon":-0.24179,"name":"Brook Road","parentId":"490G00004483","stationId":"490G00004483","stopLetter":"->E","topMostParentId":"490G00004483","towards":"Brent Cross"},{"icsId":"1005474","id":"490005474E","lat":51.56995,"lon":-0.23804,"name":"Coles Green Road","parentId":"490G00005474","stationId":"490G00005474","stopLetter":"SP","topMostParentId":"490G00005474","towards":"Brent Cross"},{"icsId":"1012589","id":"490012589A","lat":51.57083,"lon":-0.23297,"name":"Staples Corner","parentId":"490G00012589","stationId":"490G00012589","stopLetter":"SR","topMostParentId":"490G00012589","towards":"Brent Cross"},{"icsId":"1006651","id":"490006651M","lat":51.57347,"lon":-0.22473,"name":"Etheridge Road","parentId":"490G00006651","stationId":"490G00006651","stopLetter":"M","topMostParentId":"490G00006651","towards":"Finchley Or Brent Cross Shopping Centre"},{"icsId":"1004282","id":"490004283L","lat":51.57514,"lon":-0.22388,"name":"Brent Cross Shopping Centre","parentId":"490G00004282","stationId":"490G00004282","stopLetter":"L","topMostParentId":"490G00004282","towards":"Hendon"},{"icsId":"1004282","id":"490004282D","lat":51.57576,"lon":-0.22269,"name":"Brent Cross Shopping Centre","parentId":"490G00004282","stationId":"490G00004282","stopLetter":"C","topMostParentId":"490G00004282"},{"icsId":"1007994","id":"490007994X","lat":51.57816,"lon":-0.21557,"name":"Heathfield Gardens","parentId":"490G000583","stationId":"490G000583","stopLetter":"X","topMostParentId":"490G000583","towards":"Arnos Grove Or North Finchley"},{"icsId":"1007269","id":"490007269E","lat":51.58051,"lon":-0.21281,"name":"Golders Green Road","parentId":"490G00007269","stationId":"490G00007269","stopLetter":"W","topMostParentId":"490G00007269","towards":"Arnos Grove Or North Finchley"},{"icsId":"1004323","id":"490004323N","lat":51.58617,"lon":-0.20986,"name":"Bridge Lane","parentId":"490G00004323","stationId":"490G00004323","stopLetter":"->N","topMostParentId":"490G00004323","towards":"Arnos Grove Or North Finchley"},{"icsId":"1012257","id":"490012257E","lat":51.58806,"lon":-0.20791,"name":"Southbourne Crescent","parentId":"490G00012257","stationId":"490G00012257","stopLetter":"TN","topMostParentId":"490G00012257","towards":"Arnos Grove Or North Finchley"},{"icsId":"1008069","id":"490008069E","lat":51.58991,"lon":-0.19884,"name":"Henlys Corner","parentId":"490G00008069","stationId":"490G00008069","stopLetter":"TQ","topMostParentId":"490G00008069","towards":"Arnos Grove Or East Finchley"},{"icsId":"1003822","id":"490003822E","lat":51.59021,"lon":-0.19307,"name":"Beechwood Avenue","parentId":"490G00003822","stationId":"490G00003822","stopLetter":"TS","topMostParentId":"490G00003822","towards":"Arnos Grove Or North Finchley"},{"icsId":"1003285","id":"490003285E","lat":51.59203,"lon":-0.18927,"name":"Amberden Avenue","parentId":"490G00003285","stationId":"490G00003285","stopLetter":"A","topMostParentId":"490G00003285","towards":"Arnos Grove Or North Finchley"},{"icsId":"1006338","id":"490006338E","lat":51.59384,"lon":-0.18601,"name":"East End Road","parentId":"490G00006338","stationId":"490G00006338","stopLetter":"B","topMostParentId":"490G00006338","towards":"Arnos Grove Or North Finchley"},{"icsId":"1009321","id":"490009321E","lat":51.5978,"lon":-0.17889,"name":"Long Lane","parentId":"490G00009321","stationId":"490G00009321","stopLetter":"F","topMostParentId":"490G00009321","towards":"Arnos Grove Or North Finchley"},{"icsId":"1006836","id":"490006836E","lat":51.60065,"lon":-0.17486,"name":"Finchley High Road","parentId":"490G00006836","stationId":"490G00006836","stopLetter":"T","topMostParentId":"490G00006836","towards":"Arnos Grove Or North Finchley"},{"icsId":"1012419","id":"490012419N","lat":51.60291,"lon":-0.1745,"name":"Squires Lane","parentId":"490G00012419","stationId":"490G00012419","stopLetter":"L","topMostParentId":"490G00012419","towards":"Friern Barnet Or Whetstone"},{"icsId":"1009082","id":"490009082N","lat":51.60578,"lon":-0.17511,"name":"Leisure Way","parentId":"490G00009082","stationId":"490G00009082","stopLetter":"M","topMostParentId":"490G00009082","towards":"Friern Barnet Or Whetstone"},{"icsId":"1015327","id":"490015327N","lat":51.60792,"lon":-0.17521,"name":"Granville Road","parentId":"490G00015327","stationId":"490G00015327","stopLetter":"N","topMostParentId":"490G00015327","towards":"Whetstone"},{"icsId":"1005229","id":"490005229N","lat":51.61067,"lon":-0.17559,"name":"Christchurch Avenue","parentId":"490G00005229","stationId":"490G00005229","stopLetter":"W","topMostParentId":"490G00005229","towards":"Whetstone"},{"icsId":"1013149","id":"490013149Z2","lat":51.61402,"lon":-0.17693,"name":"Tally Ho Corner","parentId":"490G00013149","stationId":"490G00013149","stopLetter":"Z2","topMostParentId":"490G00013149"}]}]}