{"direction":"outbound","lineId":"120","lineName":"120","mode":"bus","stopPointSequences":[{"stopPoint":[{"icsId":"1008392","id":"490008393W1","lat":51.47096,"lon":-0.35487,"name":"Hounslow Bus Station","parentId":"490G000601","stationId":"490G000601","stopLetter":"B","topMostParentId":"490G000601"},{"icsId":"1007766","id":"490007766L","lat":51.46897,"lon":-0.35883,"name":"Fairfields Road","parentId":"490G00007766","stationId":"490G00007766","stopLetter":"L","topMostParentId":"490G00007766","towards":"Hounslow West Or Heston"},{"icsId":"1013777","id":"490013777R","lat":51.46704,"lon":-0.36369,"name":"Treaty Centre","parentId":"490G00013777","stationId":"490G00013777","stopLetter":"T","topMostParentId":"490G00013777","towards":"Hounslow West Or Heston"},{"icsId":"1008391","id":"490008391N","lat":51.46855,"lon":-0.36639,"name":"Bell Corner / Hounslow Civic Centre","parentId":"490G000600","stationId":"490G000600","stopLetter":"R","topMostParentId":"490G000600","towards":"Heston"},{"icsId":"1000116","id":"4900001161","lat":51.47179,"lon":-0.36724,"name":"Hounslow Central Station","stopLetter":"RR","topMostParentId":"4900001161","towards":"Heston","zone":"4"},{"icsId":"1008394","id":"490008394N1","lat":51.47374,"lon":-0.36607,"name":"Civic Street","parentId":"490G00008394","stationId":"490G00008394","stopLetter":"->N","topMostParentId":"490G00008394","towards":"Heston"},{"icsId":"1007428","id":"490007428N","lat":51.47843,"lon":-0.364,"name":"Great West Road","parentId":"490G00007428","stationId":"490G00007428","stopLetter":"HA","topMostParentId":"490G00007428","towards":"Heston"},{"icsId":"1007433","id":"490007427N","lat":51.47953,"lon":-0.36494,"name":"Sutton Road","parentId":"490G00007433","stationId":"490G00007433","stopLetter":"HB","topMostParentId":"490G00007433","towards":"Cranford Or Southall"},{"icsId":"1008272","id":"490008272W","lat":51.48259,"lon":-0.36785,"name":"Hogarth Gardens","parentId":"490G00008272","stationId":"490G00008272","stopLetter":"HC","topMostParentId":"490G00008272","towards":"Cranford Or Southall"},{"icsId":"1012443","id":"490012443N","lat":51.48425,"lon":-0.37237,"name":"St Leonard's Church","parentId":"490G00012443","stationId":"490G00012443","stopLetter":"HD","topMostParentId":"490G00012443","towards":"Cranford Or Southall"},{"icsId":"1006811","id":"490006811N1","lat":51.48971,"lon":-0.37167,"name":"Fern Lane","parentId":"490G00006811","stationId":"490G00006811","stopLetter":"HE","topMostParentId":"490G00006811","towards":"Southall"},{"icsId":"1010447","id":"490010447N","lat":51.49315,"lon":-0.37031,"name":"Norwood Green","parentId":"490G00010447","stationId":"490G00010447","stopLetter":"->N","topMostParentId":"490G00010447","towards":"Southall"},{"icsId":"1007792","id":"490007792N","lat":51.49626,"lon":-0.37457,"name":"Harewood Terrace","parentId":"490G00007792","stationId":"490G00007792","topMostParentId":"490G00007792","towards":"Yeading"},{"icsId":"1010445","id":"490010445A","lat":51.49858,"lon":-0.37889,"name":"Norwood Gardens","parentId":"490G00010445","stationId":"490G00010445","stopLetter":"A","topMostParentId":"490G00010445","towards":"Greenford Or Yeading"},{"icsId":"1014608","id":"490014608C","lat":51.4993,"lon":-0.38279,"name":"Adelaide Road","parentId":"490G00014608","stationId":"490G00014608","stopLetter":"C","topMostParentId":"490G00014608","towards":"Greenford Or Yeading"},{"icsId":"1008833","id":"490008833E","lat":51.50138,"lon":-0.38263,"name":"King Street","parentId":"490G00008833","stationId":"490G00008833","stopLetter":"E","topMostParentId":"490G00008833","towards":"Ealing Hospital, Greenford Or Northolt"},{"icsId":"1013388","id":"490013388L","lat":51.5029,"lon":-0.38101,"name":"The Green","parentId":"490G00013388","stationId":"490G00013388","stopLetter":"L","topMostParentId":"490G00013388","towards":"Ealing Hospital, Greenford Or Northolt"},{"icsId":"1010754","id":"490010754P","lat":51.50757,"lon":-0.37832,"name":"Park Avenue","parentId":"490G00010754","stationId":"490G00010754","stopLetter":"P","topMostParentId":"490G00010754","towards":"Ealing Hospital, Greenford Or Yeading"},{"icsId":"1012241","id":"490012241N","lat":51.51037,"lon":-0.37612,"name":"Southall Broadway","parentId":"490G00012241","stationId":"490G00012241","stopLetter":"N","topMostParentId":"490G00012241","towards":"Ealing Hospital Or Greenford"},{"icsId":"1014102","id":"490014102E","lat":51.51198,"lon":-0.37563,"name":"Southall Town Hall","parentId":"490G00014102","stationId":"490G00014102","stopLetter":"E","topMostParentId":"490G00014102","towards":"Greenford Or Northolt"},{"icsId":"1010317","id":"490010317C","lat":51.51444,"lon":-0.3756,"name":"North Avenue","parentId":"490G00010317","stationId":"490G00010317","stopLetter":"C","topMostParentId":"490G00010317","towards":"Greenford Or Northolt"},{"icsId":"1004807","id":"490004807N","lat":51.51678,"lon":-0.37562,"name":"Carlyle Avenue","parentId":"490G00004807","stationId":"490G00004807","stopLetter":"SC","topMostParentId":"490G00004807","towards":"Greenford Or Northolt"},{"icsId":"1013442","id":"490013442N","lat":51.51964,"lon":-0.3752,"name":"Denbigh Road","parentId":"490G00013442","stationId":"490G00013442","stopLetter":"A","topMostParentId":"490G00013442","towards":"Northolt"},{"icsId":"1005614","id":"490005614N","lat":51.52237,"lon":-0.37477,"name":"Ascot Gardens","parentId":"490G00005614","stationId":"490G00005614","stopLetter":"B","topMostParentId":"490G00005614","towards":"Northolt"},{"icsId":"1014756","id":"490014756N","lat":51.52502,"lon":-0.37416,"name":"Windermere Road","parentId":"490G00014756","stationId":"490G00014756","stopLetter":"C","topMostParentId":"490G00014756","towards":"Northolt"},{"icsId":"1009028","id":"490009028N","lat":51.52832,"lon":-0.37314,"name":"Lawson Road","parentId":"490G00009028","stationId":"490G00009028","stopLetter":"WG","topMostParentId":"490G00009028","towards":"Northolt"},{"icsId":"1008628","id":"490008628N","lat":51.53029,"lon":-0.37258,"name":"Kenilworth Gardens","parentId":"490G00008628","stationId":"490G00008628","stopLetter":"WH","topMostParentId":"490G00008628","towards":"Northolt"},{"icsId":"1003116","id":"490003116S","lat":51.53265,"lon":-0.37277,"name":"Adrienne Avenue","parentId":"490G00003116","stationId":"490G00003116","stopLetter":"WS","topMostParentId":"490G00003116","towards":"Hayes, Northolt Or Ruislip"},{"icsId":"1004373","id":"490004373W","lat":51.53268,"lon":-0.37981,"name":"Broadmead Road","parentId":"490G00004373","stationId":"490G00004373","stopLetter":"WT","topMostParentId":"490G00004373","towards":"Northolt Or Ruislip"},{"icsId":"1008596","id":"490008596W","lat":51.53353,"lon":-0.3865,"name":"Wayfarer Road","parentId":"490G00008596","stationId":"490G00008596","stopLetter":"->W","topMostParentId":"490G00008596","towards":"Northolt Or Ruislip"},{"icsId":"1014992","id":"490014992N1","lat":51.53729,"lon":-0.38916,"name":"Yeading / White Hart Roundabout","parentId":"490G00014992","stationId":"490G00014992","stopLetter":"V","topMostParentId":"490G00014992","towards":"Northolt Station"},{"icsId":"1003891","id":"490003891N","lat":51.53919,"lon":-0.38598,"name":"Bengarth Road / Northolt Library","parentId":"490G00003891","stationId":"490G00003891","stopLetter":"TD","topMostParentId":"490G00003891","towards":"Northolt Station"},{"icsId":"1013120","id":"490013120N","lat":51.5409,"lon":-0.382,"name":"Sycamore Close","parentId":"490G00013120","stationId":"490G00013120","stopLetter":"TE","topMostParentId":"490G00013120","towards":"Northolt Station"},{"icsId":"1013155","id":"490013155N","lat":51.54252,"lon":-0.37894,"name":"Target Roundabout","parentId":"490G00013155","stationId":"490G00013155","stopLetter":"TF","topMostParentId":"490G00013155","towards":"Northolt Station"},{"icsId":"1006638","id":"490006638N","lat":51.54395,"lon":-0.37539,"name":"Kingston Close","parentId":"490G00006638","stationId":"490G00006638","stopLetter":"TH","topMostParentId":"490G00006638","towards":"Eastcote Or Harrow"},{"icsId":"1003178","id":"490003178W","lat":51.54492,"lon":-0.3729,"name":"Alderney Gardens","parentId":"490G00003178","stationId":"490G00003178","stopLetter":"TJ","topMostParentId":"490G00003178","towards":"Eastcote Or Harrow"},{"icsId":"1009959","id":"490009959C","lat":51.54645,"lon":-0.37048,"name":"Moat Farm Road","parentId":"490G00009959","stationId":"490G00009959","stopLetter":"C","topMostParentId":"490G00009959","towards":"Eastcote, Harrow Or Smiths Farm"},{"icsId":"1000162","id":"490000162A","lat":51.54767,"lon":-0.36878,"name":"Northolt Station","stopLetter":"A","topMostParentId":"490000162A","towards":"Eastcote Or Harrow","zone":"5"}]}]}