{"direction":"outbound","lineId":"124","lineName":"124","mode":"bus","stopPointSequences":[{"stopPoint":[{"icsId":"1004863","id":"490004863Z","lat":51.44304,"lon":-0.02815,"name":"Stanstead Road / St Dunstans College","parentId":"490G00004863","stationId":"490G00004863","stopLetter":"->W","topMostParentId":"490G00004863","towards":"Catford"},{"icsId":"1004862","id":"490001053M","lat":51.44449,"lon":-0.02446,"name":"Catford & Catford Bridge Stations","parentId":"490G000444","stationId":"490G000444","stopLetter":"M","topMostParentId":"490G000444","towards":"Downham Or Hither Green"},{"icsId":"1009117","id":"490009117J","lat":51.44501,"lon":-0.02056,"name":"Catford Road / Lewisham Town Hall","parentId":"490G00009117","stationId":"490G00009117","stopLetter":"J","topMostParentId":"490G00009117","towards":"Grove Park, Hither Green Or Lee"},{"icsId":"1011056","id":"490011056F","lat":51.44524,"lon":-0.01743,"name":"Plassy Road","parentId":"490G00011056","stationId":"490G00011056","stopLetter":"F","topMostParentId":"490G00011056","towards":"Lower Sydenham, Grove Park Or Hither Green"},{"icsId":"1008318","id":"490008318E","lat":51.44329,"lon":-0.01539,"name":"Holy Cross School","parentId":"490G00008318","stationId":"490G00008318","stopLetter":"H","topMostParentId":"490G00008318","towards":"Eltham, Grove Park Or Hither Green"},{"icsId":"1012684","id":"490012684E1","lat":51.44233,"lon":-0.01063,"name":"Sangley Road / St Fillans Road","parentId":"490G00012684","stationId":"490G00012684","stopLetter":"J","topMostParentId":"490G00012684","towards":"Eltham, Grove Park Or Hither Green"},{"icsId":"1012534","id":"490012534S","lat":51.44183,"lon":-0.00194,"name":"Torridon Road / St Andrews Church","parentId":"490G00012534","stationId":"490G00012534","stopLetter":"S","topMostParentId":"490G00012534","towards":"Grove Park"},{"icsId":"1006154","id":"490006154S2","lat":51.4402,"lon":-0.00185,"name":"Dowanhill Road","parentId":"490G00006154","stationId":"490G00006154","stopLetter":"T","topMostParentId":"490G00006154","towards":"Grove Park"},{"icsId":"1003369","id":"490007967S","lat":51.4369,"lon":-0.00166,"name":"Ardoch Road","parentId":"490G00003369","stationId":"490G00003369","stopLetter":"->S","topMostParentId":"490G00003369","towards":"Grove Park"},{"icsId":"1003694","id":"490003694S","lat":51.4364,"lon":0.00073,"name":"Baudwin Road","parentId":"490G00003694","stationId":"490G00003694","stopLetter":"->S","topMostParentId":"490G00003694","towards":"Grove Park"},{"icsId":"1004839","id":"490004839S","lat":51.43513,"lon":0.00246,"name":"Castillon Road","parentId":"490G00004839","stationId":"490G00004839","stopLetter":"->S","topMostParentId":"490G00004839","towards":"Grove Park"},{"icsId":"1004191","id":"490004191W","lat":51.43369,"lon":-0.00111,"name":"Boundfield Road","parentId":"490G00004191","stationId":"490G00004191","stopLetter":"->W","topMostParentId":"490G00004191","towards":"Grove Park"},{"icsId":"1011942","id":"490011942E","lat":51.43249,"lon":1e-04,"name":"Scarlet Road","parentId":"490G00011942","stationId":"490G00011942","stopLetter":"->E","topMostParentId":"490G00011942","towards":"Grove Park"},{"icsId":"1006940","id":"490006940E","lat":51.43309,"lon":0.00393,"name":"Greenvale School","parentId":"490G00006940","stationId":"490G00006940","stopLetter":"M","topMostParentId":"490G00006940","towards":"Grove Park"},{"icsId":"1005868","id":"490005868E","lat":51.43411,"lon":0.00709,"name":"Crutchley Road","parentId":"490G00005868","stationId":"490G00005868","stopLetter":"N","topMostParentId":"490G00005868","towards":"Grove Park"},{"icsId":"1014581","id":"490014581S","lat":51.43427,"lon":0.00945,"name":"Whitefoot Lane","parentId":"490G00014581","stationId":"490G00014581","stopLetter":"P","topMostParentId":"490G00014581","towards":"Grove Park"},{"icsId":"1012134","id":"490012134S","lat":51.43035,"lon":0.01163,"name":"Northover / Shroffold Road","parentId":"490G00012134","stationId":"490G00012134","stopLetter":"R","topMostParentId":"490G00012134","towards":"Grove Park"},{"icsId":"1006172","id":"490006172E","lat":51.42909,"lon":0.01355,"name":"Downham Way / Northover","parentId":"490G00006172","stationId":"490G00006172","stopLetter":"T","topMostParentId":"490G00006172","towards":"Mottingham"},{"icsId":"1013390","id":"490013390E","lat":51.43061,"lon":0.01727,"name":"The Green","parentId":"490G00013390","stationId":"490G00013390","stopLetter":"U","topMostParentId":"490G00013390","towards":"Mottingham"},{"icsId":"1001124","id":"490015256C","lat":51.43074,"lon":0.02007,"name":"Grove Park Station","stopLetter":"C","topMostParentId":"490015256C","towards":"Mottingham"},{"icsId":"1015553","id":"490015553G","lat":51.4316,"lon":0.02295,"name":"Chinbrook Road / Baring Road","parentId":"490G000909","stationId":"490G000909","stopLetter":"G","topMostParentId":"490G000909","towards":"Chislehurst Or Mottingham"},{"icsId":"1003290","id":"490003290E","lat":51.43163,"lon":0.02537,"name":"Amblecote Road","parentId":"490G00003290","stationId":"490G00003290","stopLetter":"H","topMostParentId":"490G00003290","towards":"Chislehurst Or Mottingham"},{"icsId":"1013403","id":"490013403E","lat":51.43159,"lon":0.03055,"name":"Marvels Lane / Chinbrook Road","parentId":"490G00013403","stationId":"490G00013403","stopLetter":"A","topMostParentId":"490G00013403","towards":"Chislehurst Or Mottingham"},{"icsId":"1008922","id":"490008922S","lat":51.43047,"lon":0.03266,"name":"Lambscroft Avenue","parentId":"490G00008922","stationId":"490G00008922","stopLetter":"C","topMostParentId":"490G00008922","towards":"Chislehurst Or Mottingham"},{"icsId":"1008073","id":"490008073E","lat":51.42832,"lon":0.03535,"name":"Henry Cooper Way","parentId":"490G00008073","stationId":"490G00008073","stopLetter":"D","topMostParentId":"490G00008073","towards":"Eltham Or Chislehurst"},{"icsId":"1006215","id":"490006215E","lat":51.42916,"lon":0.03848,"name":"Duddington Close","parentId":"490G00006215","stationId":"490G00006215","stopLetter":"E","topMostParentId":"490G00006215","towards":"Chislehurst Or Eltham"},{"icsId":"1005655","id":"490005655E","lat":51.42997,"lon":0.04306,"name":"Court Farm Road","parentId":"490G00005655","stationId":"490G00005655","stopLetter":"F","topMostParentId":"490G00005655","towards":"Eltham Or Chislehurst"},{"icsId":"1003709","id":"490003709E","lat":51.42972,"lon":0.04605,"name":"Beaconsfield Road","parentId":"490G00003709","stationId":"490G00003709","stopLetter":"A","topMostParentId":"490G00003709","towards":"Eltham Or Chislehurst"},{"icsId":"1015403","id":"490015403E","lat":51.42878,"lon":0.05029,"name":"Dunkery Road / Ravensworth Road","parentId":"490G00015403","stationId":"490G00015403","stopLetter":"B","topMostParentId":"490G00015403","towards":"Chislehurst Or Eltham"},{"icsId":"1006254","id":"490006254E","lat":51.42908,"lon":0.05279,"name":"Dunkery Road / Mottingham Road","parentId":"490G00006254","stationId":"490G00006254","stopLetter":"C","topMostParentId":"490G00006254","towards":"Chislehurst Or Eltham"},{"icsId":"1011447","id":"490011447N","lat":51.43134,"lon":0.05112,"name":"Mottingham Road / Ravensworth Road","parentId":"490G00011447","stationId":"490G00011447","stopLetter":"MJ","topMostParentId":"490G00011447","towards":"Eltham"},{"icsId":"1010064","id":"490010064N","lat":51.43389,"lon":0.04748,"name":"Mottingham / Prince of Wales","parentId":"490G00010064","stationId":"490G00010064","stopLetter":"MK","topMostParentId":"490G00010064","towards":"Eltham"},{"icsId":"1010070","id":"490010067E","lat":51.43642,"lon":0.04542,"name":"Court Road / Mottingham Road","parentId":"490G00010070","stationId":"490G00010070","stopLetter":"ML","topMostParentId":"490G00010070","towards":"Eltham"},{"icsId":"1001200","id":"490001200A","lat":51.43971,"lon":0.05104,"name":"Mottingham Station","stopLetter":"MN","topMostParentId":"490001200A","towards":"Eltham"},{"icsId":"1005672","id":"490005672W","lat":51.44114,"lon":0.04838,"name":"Middle Park Avenue / Court Road","parentId":"490G00005672","stationId":"490G00005672","stopLetter":"MP","topMostParentId":"490G00005672","towards":"Eltham"},{"icsId":"1006540","id":"490006540E2","lat":51.44161,"lon":0.04534,"name":"Eltham Gardens","parentId":"490G00006540","stationId":"490G00006540","stopLetter":"MR","topMostParentId":"490G00006540","towards":"Eltham"},{"icsId":"1009851","id":"490009851W","lat":51.44312,"lon":0.04174,"name":"The Vista","parentId":"490G00009851","stationId":"490G00009851","stopLetter":"MS","topMostParentId":"490G00009851","towards":"Eltham"},{"icsId":"1010238","id":"490010238N2","lat":51.44544,"lon":0.0403,"name":"Newmarket Green","parentId":"490G00010238","stationId":"490G00010238","topMostParentId":"490G00010238","towards":"Eltham"},{"icsId":"1008779","id":"490008779N","lat":51.44785,"lon":0.04378,"name":"Kingsground / Eltham Palace Road","parentId":"490G00008779","stationId":"490G00008779","stopLetter":"->N","topMostParentId":"490G00008779","towards":"Eltham"},{"icsId":"1006542","id":"490006542N","lat":51.45102,"lon":0.04708,"name":"Kingsground / Eltham Hill","parentId":"490G00006542","stationId":"490G00006542","stopLetter":"V","topMostParentId":"490G00006542","towards":"Eltham"},{"icsId":"1006546","id":"490006546E","lat":51.4515,"lon":0.04795,"name":"Sherard Road","parentId":"490G00006546","stationId":"490G00006546","stopLetter":"Y","topMostParentId":"490G00006546","towards":"Chislehurst, Falconwood Or New Eltham"},{"icsId":"1006533","id":"490006537O","lat":51.45076,"lon":0.05552,"name":"Eltham High Street / Roper Street","parentId":"490G00006533","stationId":"490G00006533","stopLetter":"O","topMostParentId":"490G00006533","towards":"Blackfen, Falconwood Or New Eltham"},{"icsId":"1006547","id":"490006534Z","lat":51.45089,"lon":0.0591,"name":"Eltham High Street / Pound Place","parentId":"490G00006547","stationId":"490G00006547","stopLetter":"S","topMostParentId":"490G00006547","towards":"Blackfen, Falconwood Or New Eltham"},{"icsId":"1012279","id":"490012279S2","lat":51.44992,"lon":0.06436,"name":"Southend Crescent / Southend Close","parentId":"490G00012279","stationId":"490G00012279","stopLetter":"Z","topMostParentId":"490G00012279"}]}]}