{"direction":"outbound","lineId":"127","lineName":"127","mode":"bus","stopPointSequences":[{"stopPoint":[{"icsId":"1001229","id":"490001229H","lat":51.33814,"lon":-0.1143,"name":"Purley Station","stopLetter":"H","topMostParentId":"490001229H","towards":"Waddon Or Wallington"},{"icsId":"1011270","id":"490011274P","lat":51.33736,"lon":-0.11649,"name":"Purley High Street / Purley Station","parentId":"490G000715","stationId":"490G000715","stopLetter":"P","topMostParentId":"490G000715","towards":"South Croydon, Waddon Or Wallington"},{"icsId":"1011272","id":"490011272Y","lat":51.33868,"lon":-0.11835,"name":"Purley Library","parentId":"490G00011272","stationId":"490G00011272","stopLetter":"Y","topMostParentId":"490G00011272","towards":"South Croydon, Waddon Or Wallington"},{"icsId":"1011062","id":"490011062W","lat":51.34077,"lon":-0.12384,"name":"Plough Lane","parentId":"490G00011062","stationId":"490G00011062","stopLetter":"->W","topMostParentId":"490G00011062","towards":"Wallington"},{"icsId":"1013272","id":"490013272W","lat":51.34272,"lon":-0.13048,"name":"The Bridle Road","parentId":"490G00013272","stationId":"490G00013272","stopLetter":"->W","topMostParentId":"490G00013272","towards":"Wallington"},{"icsId":"1014828","id":"490014828W","lat":51.34268,"lon":-0.13763,"name":"Woodcote Drive","parentId":"490G00014828","stationId":"490G00014828","stopLetter":"->W","topMostParentId":"490G00014828","towards":"Wallington"},{"icsId":"1015514","id":"490015514W","lat":51.34147,"lon":-0.14084,"name":"Woodcote Lane","parentId":"490G00015514","stationId":"490G00015514","stopLetter":"D","topMostParentId":"490G00015514","towards":"Wallington"},{"icsId":"1012205","id":"490012205W","lat":51.34018,"lon":-0.14253,"name":"Smitham Bottom Lane","parentId":"490G00012205","stationId":"490G00012205","stopLetter":"E","topMostParentId":"490G00012205","towards":"Wallington"},{"icsId":"1006747","id":"490006747N","lat":51.34254,"lon":-0.14591,"name":"Farm Lane","parentId":"490G00006747","stationId":"490G00006747","stopLetter":"V","topMostParentId":"490G00006747","towards":"Beddington Or Carshalton"},{"icsId":"1009358","id":"490009358N","lat":51.34618,"lon":-0.14705,"name":"Lordsbury Field","parentId":"490G00009358","stationId":"490G00009358","stopLetter":"W","topMostParentId":"490G00009358","towards":"Beddington Or Carshalton"},{"icsId":"1014138","id":"490014138N","lat":51.34847,"lon":-0.1483,"name":"Woodcote Green","parentId":"490G00014138","stationId":"490G00014138","stopLetter":"X","topMostParentId":"490G00014138","towards":"Beddington, Belmont Or Carshalton"},{"icsId":"1007680","id":"490007680N","lat":51.35103,"lon":-0.14795,"name":"Hall Road","parentId":"490G00007680","stationId":"490G00007680","stopLetter":"Y","topMostParentId":"490G00007680","towards":"Beddington, Belmont Or Carshalton"},{"icsId":"1004100","id":"490004100N","lat":51.35352,"lon":-0.14837,"name":"Blenheim Gardens","parentId":"490G00004100","stationId":"490G00004100","stopLetter":"Z","topMostParentId":"490G00004100","towards":"Beddington, Belmont Or Carshalton"},{"icsId":"1012466","id":"490012466G","lat":51.35651,"lon":-0.14919,"name":"Woodcote Road / Stafford Road","parentId":"490G00012466","stationId":"490G00012466","stopLetter":"G","topMostParentId":"490G00012466","towards":"Beddington, Belmont Or Carshalton"},{"icsId":"1003775","id":"490003775K","lat":51.35896,"lon":-0.1498,"name":"Wallington Town Centre","parentId":"490G000407","stationId":"490G000407","stopLetter":"K","topMostParentId":"490G000407","towards":"Beddington, Carshalton Or Hackbridge"},{"icsId":"1001306","id":"490001306C","lat":51.36065,"lon":-0.15074,"name":"Wallington Station","stopLetter":"C","topMostParentId":"490001306C","towards":"Beddington, Carshalton Or Hackbridge"},{"icsId":"1010770","id":"490010770W","lat":51.36362,"lon":-0.15283,"name":"Parkgate Road","parentId":"490G00010770","stationId":"490G00010770","stopLetter":"GE","topMostParentId":"490G00010770","towards":"Carshalton"},{"icsId":"1010783","id":"490010783N","lat":51.36539,"lon":-0.15744,"name":"Park Lane","parentId":"490G00010783","stationId":"490G00010783","stopLetter":"GF","topMostParentId":"490G00010783","towards":"Hackbridge Or Rosehill"},{"icsId":"1004821","id":"490004821E","lat":51.36558,"lon":-0.15957,"name":"Carshalton High Street","parentId":"490G00004821","stationId":"490G00004821","stopLetter":"E","topMostParentId":"490G00004821","towards":"Hackbridge, Rosehill Or Sutton"},{"icsId":"1004823","id":"490004823G","lat":51.36587,"lon":-0.16397,"name":"Carshalton Ponds","parentId":"490G00004823","stationId":"490G00004823","stopLetter":"G","topMostParentId":"490G00004823","towards":"Hackbridge Or Rosehill"},{"icsId":"1001051","id":"490001051A","lat":51.36856,"lon":-0.16517,"name":"Carshalton Station","stopLetter":"A","topMostParentId":"490001051A","towards":"Hackbridge Or Rosehill"},{"icsId":"1004564","id":"490004564N","lat":51.37266,"lon":-0.16505,"name":"Bucklers Way","parentId":"490G00004564","stationId":"490G00004564","stopLetter":"J","topMostParentId":"490G00004564","towards":"Mitcham Or Wallington"},{"icsId":"1012915","id":"490012915N","lat":51.37399,"lon":-0.16261,"name":"Strawberry Lane","parentId":"490G00012915","stationId":"490G00012915","stopLetter":"L","topMostParentId":"490G00012915","towards":"Mitcham Or Wallington"},{"icsId":"1010270","id":"490010270E","lat":51.37615,"lon":-0.16056,"name":"Nightingale Close","parentId":"490G00010270","stationId":"490G00010270","stopLetter":"M","topMostParentId":"490G00010270","towards":"Mitcham Or Wallington"},{"icsId":"1005599","id":"490005599S1","lat":51.37783,"lon":-0.15888,"name":"Corbet Close","parentId":"490G00005599","stationId":"490G00005599","stopLetter":"N","topMostParentId":"490G00005599","towards":"Mitcham Or Wallington"},{"icsId":"1000353","id":"490007616A","lat":51.37929,"lon":-0.15671,"name":"Hackbridge Corner","parentId":"490G00000353","stationId":"490G00000353","stopLetter":"A","topMostParentId":"490G00000353","towards":"Mitcham Or Wallington"},{"icsId":"1010610","id":"490010610N2","lat":51.38216,"lon":-0.15705,"name":"Orchard Avenue","parentId":"490G00010610","stationId":"490G00010610","stopLetter":"P","topMostParentId":"490G00010610","towards":"Mitcham"},{"icsId":"1012014","id":"490012014N","lat":51.38459,"lon":-0.15759,"name":"Seymour Road","parentId":"490G00012014","stationId":"490G00012014","stopLetter":"R","topMostParentId":"490G00012014","towards":"Mitcham"},{"icsId":"1009898","id":"490009898C","lat":51.38593,"lon":-0.15789,"name":"Mill Green Road","parentId":"490G00009898","stationId":"490G00009898","stopLetter":"C","topMostParentId":"490G00009898","towards":"Mitcham"},{"icsId":"1013377","id":"490013377N","lat":51.38919,"lon":-0.15851,"name":"Goat Road","parentId":"490G00013377","stationId":"490G00013377","stopLetter":"D","topMostParentId":"490G00013377","towards":"Mitcham"},{"icsId":"1001194","id":"490001194B","lat":51.39387,"lon":-0.15887,"name":"Mitcham Junction Station","stopLetter":"B","topMostParentId":"490001194B","towards":"Mitcham"},{"icsId":"1004824","id":"490004824W","lat":51.39587,"lon":-0.15967,"name":"Mitcham Garden Village / Willow Lane","parentId":"490G00004824","stationId":"490G00004824","stopLetter":"G","topMostParentId":"490G00004824","towards":"Tooting Or Lavender Fields"},{"icsId":"1014723","id":"490014723W","lat":51.398,"lon":-0.16305,"name":"The Wilson Hospital","parentId":"490G00014723","stationId":"490G00014723","stopLetter":"H","topMostParentId":"490G00014723","towards":"Tooting Or Lavender Fields"},{"icsId":"1009952","id":"490009952T","lat":51.39952,"lon":-0.16574,"name":"Mitcham Police Station","parentId":"490G00009952","stationId":"490G00009952","stopLetter":"R","topMostParentId":"490G00009952","towards":"Tooting Or Lavender Fields"},{"icsId":"1009946","id":"490009946P","lat":51.40266,"lon":-0.16773,"name":"Mitcham / Lower Green","parentId":"490G00009946","stationId":"490G00009946","stopLetter":"P","topMostParentId":"490G00009946","towards":"Lavender Fields, Streatham Or Tooting"},{"icsId":"1007213","id":"490007213N1","lat":51.40385,"lon":-0.16548,"name":"Glebe Court","parentId":"490G00007213","stationId":"490G00007213","stopLetter":"J","topMostParentId":"490G00007213","towards":"Lavender Fields, Streatham Or Tooting"},{"icsId":"1009949","id":"490009949Z","lat":51.40679,"lon":-0.1639,"name":"Mitcham Fair Green","parentId":"490G00009949","stationId":"490G00009949","stopLetter":"D","topMostParentId":"490G00009949","towards":"Pollards Hill, Streatham Or Tooting"},{"icsId":"1006171","id":"490006164A","lat":51.40808,"lon":-0.16339,"name":"Downe Road / Mitcham Library","parentId":"490G00006171","stationId":"490G00006171","stopLetter":"A","topMostParentId":"490G00006171","towards":"Pollards Hill, Streatham Or Tooting"},{"icsId":"1013565","id":"490013565N1","lat":51.41027,"lon":-0.16209,"name":"Eveline Road","parentId":"490G00013565","stationId":"490G00013565","stopLetter":"C","topMostParentId":"490G00013565","towards":"Pollards Hill, Streatham Or Tooting"},{"icsId":"1013588","id":"490013588N","lat":51.41166,"lon":-0.16021,"name":"Locks Lane","parentId":"490G00013588","stationId":"490G00013588","stopLetter":"E","topMostParentId":"490G00013588","towards":"Streatham Or Tooting"},{"icsId":"1009619","id":"490009619N","lat":51.41269,"lon":-0.15781,"name":"Manship Road","parentId":"490G00009619","stationId":"490G00009619","stopLetter":"F","topMostParentId":"490G00009619","towards":"Streatham Or Tooting"},{"icsId":"1012725","id":"490012725N","lat":51.41404,"lon":-0.15518,"name":"St James Road","parentId":"490G00012725","stationId":"490G00012725","stopLetter":"G","topMostParentId":"490G00012725","towards":"Streatham Or Tooting"},{"icsId":"1003408","id":"490003408N","lat":51.41751,"lon":-0.1513,"name":"Ashbourne Road","parentId":"490G00003408","stationId":"490G00003408","stopLetter":"P","topMostParentId":"490G00003408","towards":"Streatham Or Tooting"},{"icsId":"1006388","id":"490006388N","lat":51.41911,"lon":-0.14787,"name":"Mitcham Lane / Southcroft Road","parentId":"490G00006388","stationId":"490G00006388","stopLetter":"Q","topMostParentId":"490G00006388","towards":"Streatham Or Tooting"},{"icsId":"1012269","id":"490012269W","lat":51.41992,"lon":-0.14833,"name":"Southcroft Road / Mitcham Lane","parentId":"490G00012269","stationId":"490G00012269","stopLetter":"F","topMostParentId":"490G00012269","towards":"Tooting Broadway"},{"icsId":"1010284","id":"490010284W","lat":51.42081,"lon":-0.15254,"name":"Nimrod Road","parentId":"490G00010284","stationId":"490G00010284","stopLetter":"G","topMostParentId":"490G00010284","towards":"Tooting Broadway"},{"icsId":"1006319","id":"490006319W","lat":51.42152,"lon":-0.15507,"name":"Eastbourne Road","parentId":"490G00006319","stationId":"490G00006319","stopLetter":"TQ","topMostParentId":"490G00006319","towards":"Tooting Broadway"},{"icsId":"1003295","id":"490005830W","lat":51.42263,"lon":-0.15897,"name":"Amen Corner","parentId":"490G00003295","stationId":"490G00003295","stopLetter":"TS","topMostParentId":"490G00003295","towards":"Tooting Broadway"},{"icsId":"1013709","id":"490013709S","lat":51.42448,"lon":-0.16348,"name":"Tooting / the Mitre","parentId":"490G00013709","stationId":"490G00013709","stopLetter":"TH","topMostParentId":"490G00013709","towards":"Colliers Wood, Earlsfield Or Tooting Bec"},{"icsId":"1003990","id":"490003990P","lat":51.42605,"lon":-0.16575,"name":"Bickley Street","parentId":"490G00003990","stationId":"490G00003990","stopLetter":"P","topMostParentId":"490G00003990","towards":"Colliers Wood, Earlsfield Or Tooting Bec"},{"icsId":"1000234","id":"490000234W1","lat":51.42686,"lon":-0.16661,"name":"Tooting Broadway Station","stopLetter":"R","topMostParentId":"490000234W1","zone":"3"}]}]}