{"direction":"outbound","lineId":"128","lineName":"128","mode":"bus","stopPointSequences":[{"stopPoint":[{"icsId":"1001243","id":"490001243ZA","lat":51.57465,"lon":0.18343,"name":"Romford Station","stopLetter":"Z","topMostParentId":"490001243ZA","towards":"Chadwell Heath, Newbury Park Or the Brewery"},{"icsId":"1014452","id":"490014452E","lat":51.57738,"lon":0.18436,"name":"Western Road","parentId":"490G00014452","stationId":"490G00014452","stopLetter":"PP","topMostParentId":"490G00014452","towards":"The Brewery and Queens Hospital"},{"icsId":"1011659","id":"490011659L","lat":51.58037,"lon":0.18269,"name":"Romford Market","parentId":"490G00011659","stationId":"490G00011659","stopLetter":"L","topMostParentId":"490G00011659","towards":"Chadwell Heath, Queen's Hosp. Or Becontree"},{"icsId":"1010407","id":"490010407D","lat":51.57938,"lon":0.17788,"name":"North Street","parentId":"490G00010407","stationId":"490G00010407","stopLetter":"D","topMostParentId":"490G00010407","towards":"Becontree Heath, Chadwell Heath Or Collier Row"},{"icsId":"1009721","id":"490009721B","lat":51.57703,"lon":0.17728,"name":"Mawney Road","parentId":"490G00009721","stationId":"490G00009721","stopLetter":"B","topMostParentId":"490G00009721","towards":"Becontree Heath Or Chadwell Heath"},{"icsId":"1013271","id":"490013271UA","lat":51.57494,"lon":0.17839,"name":"The Brewery","parentId":"490G00013271","stationId":"490G00013271","stopLetter":"S","topMostParentId":"490G00013271","towards":"Queen's Hospital Or Becontree Heath"},{"icsId":"1016444","id":"490016444HL","lat":51.5685,"lon":0.18181,"name":"Queen's Hospital","parentId":"490G00016444","stationId":"490G00016444","stopLetter":"HL","topMostParentId":"490G00016444","towards":"Becontree Heath"},{"icsId":"1010443","id":"490010443W","lat":51.56564,"lon":0.18184,"name":"Norwood Avenue","parentId":"490G00010443","stationId":"490G00010443","stopLetter":"RU","topMostParentId":"490G00010443","towards":"Becontree Heath"},{"icsId":"1000349","id":"490005927W","lat":51.56537,"lon":0.17502,"name":"Rush Green Road / Dagenham Road","parentId":"490G00000349","stationId":"490G00000349","stopLetter":"J","topMostParentId":"490G00000349","towards":"Barking, Dagenham Or Goodmayes"},{"icsId":"1009090","id":"490009090W","lat":51.56467,"lon":0.16971,"name":"Leonard Avenue","parentId":"490G00009090","stationId":"490G00009090","stopLetter":"K","topMostParentId":"490G00009090","towards":"Barking, Dagenham Or Goodmayes"},{"icsId":"1005381","id":"490005381W","lat":51.56371,"lon":0.16565,"name":"Clayton Road","parentId":"490G00005381","stationId":"490G00005381","stopLetter":"L","topMostParentId":"490G00005381","towards":"Barking, Dagenham Or Goodmayes"},{"icsId":"1003660","id":"490003660W","lat":51.56319,"lon":0.16223,"name":"Barton Avenue","parentId":"490G00003660","stationId":"490G00003660","stopLetter":"M","topMostParentId":"490G00003660","towards":"Barking, Dagenham Or Goodmayes"},{"icsId":"1005923","id":"490005923P","lat":51.56186,"lon":0.15594,"name":"Cu London University / Wood Lane","parentId":"490G00005923","stationId":"490G00005923","stopLetter":"P","topMostParentId":"490G00005923","towards":"Barking, Dagenham Or Goodmayes"},{"icsId":"1019017","id":"490003763K","lat":51.56132,"lon":0.14961,"name":"Becontree Heath Leisure Centre","parentId":"490G00019017","stationId":"490G00019017","stopLetter":"K","topMostParentId":"490G00019017","towards":"Goodmayes Or Barking"},{"icsId":"1014550","id":"490014550A","lat":51.56096,"lon":0.14598,"name":"Whalebone Lane South","parentId":"490G00014550","stationId":"490G00014550","stopLetter":"A","topMostParentId":"490G00014550","towards":"Goodmayes"},{"icsId":"1013456","id":"490013456W","lat":51.56119,"lon":0.14096,"name":"Winifred Road","parentId":"490G00013456","stationId":"490G00013456","stopLetter":"->W","topMostParentId":"490G00013456","towards":"Goodmayes"},{"icsId":"1014145","id":"490014145W","lat":51.56126,"lon":0.13547,"name":"Walnut Tree Road","parentId":"490G00014145","stationId":"490G00014145","stopLetter":"N","topMostParentId":"490G00014145","towards":"Goodmayes"},{"icsId":"1013985","id":"490013985W","lat":51.56149,"lon":0.13164,"name":"Valence Avenue","parentId":"490G00013985","stationId":"490G00013985","stopLetter":"P","topMostParentId":"490G00013985","towards":"Goodmayes"},{"icsId":"1003900","id":"490003900W","lat":51.56164,"lon":0.12629,"name":"Greenway","parentId":"490G00003900","stationId":"490G00003900","stopLetter":"Q","topMostParentId":"490G00003900","towards":"Ilford Or Mayesbrook Park"},{"icsId":"1019746","id":"490013542W","lat":51.56211,"lon":0.1232,"name":"Burnside Road","parentId":"490G00019746","stationId":"490G00019746","stopLetter":"R","topMostParentId":"490G00019746","towards":"Ilford"},{"icsId":"1009742","id":"490009742W","lat":51.56302,"lon":0.11936,"name":"Mayfield Road","parentId":"490G00009742","stationId":"490G00009742","stopLetter":"S","topMostParentId":"490G00009742","towards":"Ilford"},{"icsId":"1003131","id":"490003131W","lat":51.56305,"lon":0.115,"name":"Goodmayes Primary School","parentId":"490G00003131","stationId":"490G00003131","stopLetter":"M","topMostParentId":"490G00003131","towards":"Ilford"},{"icsId":"1007291","id":"490007289H","lat":51.56307,"lon":0.11147,"name":"Goodmayes Lane","parentId":"490G00007291","stationId":"490G00007291","stopLetter":"H","topMostParentId":"490G00007291","towards":"Ilford"},{"icsId":"1009475","id":"490009475W","lat":51.56191,"lon":0.10396,"name":"Lynford Gardens","parentId":"490G00009475","stationId":"490G00009475","stopLetter":"S","topMostParentId":"490G00009475","towards":"Ilford"},{"icsId":"1012000","id":"490012000W","lat":51.56085,"lon":0.09877,"name":"Seven Kings Road","parentId":"490G00012000","stationId":"490G00012000","stopLetter":"C","topMostParentId":"490G00012000","towards":"Ilford"},{"icsId":"1012330","id":"490012330W","lat":51.55928,"lon":0.09198,"name":"South Park Drive","parentId":"490G00012330","stationId":"490G00012330","stopLetter":"D","topMostParentId":"490G00012330","towards":"Gants Hill Or Redbridge"},{"icsId":"1007312","id":"490007312W","lat":51.55895,"lon":0.08599,"name":"Gordon Road","parentId":"490G00007312","stationId":"490G00007312","stopLetter":"Q","topMostParentId":"490G00007312","towards":"Gants Hill Or Redbridge"},{"icsId":"1008469","id":"490008469Z","lat":51.55966,"lon":0.08107,"name":"Winston Way Primary School","parentId":"490G00008469","stationId":"490G00008469","stopLetter":"Z","topMostParentId":"490G00008469","towards":"Gants Hill Or Redbridge"},{"icsId":"1007657","id":"490007657W","lat":51.55967,"lon":0.07696,"name":"Hainault Street","parentId":"490G00007657","stationId":"490G00007657","stopLetter":"W","topMostParentId":"490G00007657","towards":"Gants Hill Or Redbridge"},{"icsId":"1008466","id":"490008466Q1","lat":51.55785,"lon":0.07405,"name":"Redbridge Central Library","parentId":"490G00008466","stationId":"490G00008466","stopLetter":"Q","topMostParentId":"490G00008466","towards":"Barking, Gants Hill, Manor Park Or Redbridge"},{"icsId":"1008470","id":"490008470M","lat":51.55814,"lon":0.07174,"name":"High Road Ilford","parentId":"490G000606","stationId":"490G000606","stopLetter":"M","topMostParentId":"490G000606","towards":"Gants Hill Or Redbridge"},{"icsId":"1001157","id":"490001157H","lat":51.55893,"lon":0.0701,"name":"Ilford Station","stopLetter":"H","topMostParentId":"490001157H","towards":"Gants Hill"},{"icsId":"1013966","id":"490013966J","lat":51.5619,"lon":0.06819,"name":"Beal Road","parentId":"490G00013966","stationId":"490G00013966","stopLetter":"VK","topMostParentId":"490G00013966","towards":"Gants Hill"},{"icsId":"1013331","id":"490013331W","lat":51.56448,"lon":0.06624,"name":"Northbrook Road","parentId":"490G00013331","stationId":"490G00013331","stopLetter":"VM","topMostParentId":"490G00013331","towards":"Gants Hill Or Redbridge"},{"icsId":"1013988","id":"490013988N","lat":51.56767,"lon":0.06525,"name":"Valentines Park","parentId":"490G00013988","stationId":"490G00013988","stopLetter":"VP","topMostParentId":"490G00013988","towards":"Gants Hill"},{"icsId":"1003947","id":"490003947N","lat":51.57024,"lon":0.06389,"name":"Bethell Avenue","parentId":"490G00003947","stationId":"490G00003947","stopLetter":"VR","topMostParentId":"490G00003947","towards":"Barkingside, Newbury Park Or South Woodford"},{"icsId":"1003828","id":"490003828N","lat":51.57283,"lon":0.06511,"name":"Beehive Lane","parentId":"490G00003828","stationId":"490G00003828","stopLetter":"CM","topMostParentId":"490G00003828","towards":"Barkingside, Newbury Park Or South Woodford"},{"icsId":"1015202","id":"490015202M","lat":51.5759,"lon":0.06604,"name":"Gants Hill Station / Cranbrook Road","parentId":"490G000878","stationId":"490G000878","stopLetter":"CN","topMostParentId":"490G000878","towards":"Barkingside, Newbury Park Or South Woodford"},{"icsId":"1000085","id":"490015200C","lat":51.57729,"lon":0.06807,"name":"Gants Hill Station","stopLetter":"CP","topMostParentId":"490015200C","towards":"Barkingside","zone":"4"},{"icsId":"1012078","id":"490012078N","lat":51.57807,"lon":0.0706,"name":"Shere Road","parentId":"490G00012078","stationId":"490G00012078","stopLetter":"CQ","topMostParentId":"490G00012078","towards":"Barkingside"},{"icsId":"1007110","id":"490007110N","lat":51.58054,"lon":0.07342,"name":"Gantshill Crescent","parentId":"490G00007110","stationId":"490G00007110","stopLetter":"CR","topMostParentId":"490G00007110","towards":"Barkingside"},{"icsId":"1023101","id":"490007695N","lat":51.58317,"lon":0.07611,"name":"Beattyville Gardens","parentId":"490G00023101","stationId":"490G00023101","stopLetter":"CS","topMostParentId":"490G00023101","towards":"Barkingside"},{"icsId":"1000341","id":"490007060N","lat":51.58574,"lon":0.0788,"name":"Brandville Gardens","parentId":"490G00000341","stationId":"490G00000341","stopLetter":"Q","topMostParentId":"490G00000341","towards":"Barkingside"},{"icsId":"1007012","id":"490007012J","lat":51.58988,"lon":0.08157,"name":"Fremantle Road","parentId":"490G00007012","stationId":"490G00007012","stopLetter":"J","topMostParentId":"490G00007012","towards":"Claybury, Hainault, the Glade Or Woodford"},{"icsId":"1003612","id":"490003612H","lat":51.59025,"lon":0.08123,"name":"Barkingside High Street","parentId":"490G00003612","stationId":"490G00003612","stopLetter":"H","topMostParentId":"490G00003612","towards":"Claybury Broadway Or Gants Hill"},{"icsId":"1010055","id":"490010055W2","lat":51.59101,"lon":0.07519,"name":"Mossford Lane","parentId":"490G00010055","stationId":"490G00010055","stopLetter":"->W","topMostParentId":"490G00010055","towards":"Claybury Broadway"},{"icsId":"1003715","id":"490003715W","lat":51.59114,"lon":0.07154,"name":"Beaminster Gardens","parentId":"490G00003715","stationId":"490G00003715","stopLetter":"->W","topMostParentId":"490G00003715","towards":"Claybury Broadway"},{"icsId":"1003919","id":"490003919W","lat":51.59125,"lon":0.06884,"name":"Berkeley Avenue","parentId":"490G00003919","stationId":"490G00003919","stopLetter":"CQ","topMostParentId":"490G00003919","towards":"Claybury Broadway"},{"icsId":"1011795","id":"490011795W","lat":51.59146,"lon":0.06448,"name":"Rushden Gardens","parentId":"490G00011795","stationId":"490G00011795","stopLetter":"CS","topMostParentId":"490G00011795","towards":"Claybury Broadway"},{"icsId":"1005636","id":"490005636W","lat":51.59169,"lon":0.05749,"name":"Couchmore Avenue","parentId":"490G00005636","stationId":"490G00005636","stopLetter":"CT","topMostParentId":"490G00005636","towards":"Claybury Broadway"},{"icsId":"1010887","id":"490010887W","lat":51.59181,"lon":0.05423,"name":"Peel Drive","parentId":"490G00010887","stationId":"490G00010887","stopLetter":"CU","topMostParentId":"490G00010887","towards":"Claybury Broadway"},{"icsId":"1005368","id":"490005368S2","lat":51.59078,"lon":0.0504,"name":"Claybury Broadway","parentId":"490G00005368","stationId":"490G00005368","stopLetter":"CV","topMostParentId":"490G00005368"},{"icsId":"1005368","id":"490005368N","lat":51.59103,"lon":0.04991,"name":"Claybury Broadway","parentId":"490G00005368","stationId":"490G00005368","stopLetter":"CL","topMostParentId":"490G00005368","towards":"Barkingside"}]}]}