{"direction":"outbound","lineId":"130","lineName":"130","mode":"bus","stopPointSequences":[{"stopPoint":[{"icsId":"1015467","id":"490015467Z","lat":51.3437,"lon":-0.00559,"name":"Vulcan Way","parentId":"490G00015467","stationId":"490G00015467","stopLetter":"->S","topMostParentId":"490G00015467","towards":"Homestead Way Or Parkway"},{"icsId":"1011493","id":"490011493S","lat":51.3411,"lon":-0.00506,"name":"Redstart Close","parentId":"490G00011493","stationId":"490G00011493","stopLetter":"->S","topMostParentId":"490G00011493","towards":"Homestead Way Or Parkway"},{"icsId":"1004680","id":"490004680W","lat":51.33865,"lon":-0.00536,"name":"Calley Down Crescent","parentId":"490G00004680","stationId":"490G00004680","stopLetter":"->W","topMostParentId":"490G00004680","towards":"Addington Village Interchange"},{"icsId":"1009926","id":"490009926W","lat":51.33918,"lon":-0.00899,"name":"New Addington Baptist Church","parentId":"490G00009926","stationId":"490G00009926","stopLetter":"J","topMostParentId":"490G00009926","towards":"Addington Village Interchange"},{"icsId":"1004928","id":"490004928N","lat":51.34013,"lon":-0.01399,"name":"Central Parade","parentId":"490G00004928","stationId":"490G00004928","stopLetter":"K","topMostParentId":"490G00004928","towards":"Addington Village Interchange"},{"icsId":"1002062","id":"490010848N","lat":51.34287,"lon":-0.01807,"name":"New Addington Tram Stop","stopLetter":"A","topMostParentId":"490010848N","towards":"Addington Village Interchange"},{"icsId":"1002050","id":"490002050A","lat":51.34571,"lon":-0.02101,"name":"King Henry's Drive Tram Stop","stopLetter":"N","topMostParentId":"490002050A","towards":"Addington Village Interchange"},{"icsId":"1004843","id":"490013322N","lat":51.34732,"lon":-0.022,"name":"Castle Hill Avenue","parentId":"490G000442","stationId":"490G000442","stopLetter":"P","topMostParentId":"490G000442","towards":"Addington Village"},{"icsId":"1008522","id":"490008522E","lat":51.35081,"lon":-0.02316,"name":"Ivers Way","parentId":"490G000612","stationId":"490G000612","stopLetter":"FC","topMostParentId":"490G000612","towards":"Parkway"},{"icsId":"1010184","id":"490010184E","lat":51.35302,"lon":-0.0161,"name":"Netley Close","parentId":"490G00010184","stationId":"490G00010184","stopLetter":"->E","topMostParentId":"490G00010184","towards":"Parkway"},{"icsId":"1009824","id":"490009824N","lat":51.3542,"lon":-0.01389,"name":"Merrow Way","parentId":"490G00009824","stationId":"490G00009824","stopLetter":"->N","topMostParentId":"490G00009824","towards":"Addington Village Interchange"},{"icsId":"1004844","id":"490004844W","lat":51.35623,"lon":-0.0158,"name":"Castle Hill School","parentId":"490G00004844","stationId":"490G00004844","stopLetter":"->W","topMostParentId":"490G00004844","towards":"Addington Village Interchange"},{"icsId":"1013449","id":"490013449N","lat":51.35784,"lon":-0.0171,"name":"The Lindens","parentId":"490G00013449","stationId":"490G00013449","stopLetter":"->N","topMostParentId":"490G00013449","towards":"Addington Village Interchange"},{"icsId":"1010420","id":"490010420W","lat":51.35807,"lon":-0.02107,"name":"North Walk","parentId":"490G00010420","stationId":"490G00010420","stopLetter":"->W","topMostParentId":"490G00010420","towards":"Addington Village Interchange"},{"icsId":"1006968","id":"490006968N","lat":51.35626,"lon":-0.02172,"name":"Foxcombe","parentId":"490G00006968","stationId":"490G00006968","stopLetter":"->N","topMostParentId":"490G00006968","towards":"Addington Village Interchange"},{"icsId":"1019735","id":"490013307W","lat":51.3543,"lon":-0.02124,"name":"Brierley","parentId":"490G00019735","stationId":"490G00019735","stopLetter":"->W","topMostParentId":"490G00019735","towards":"Addington Village Interchange"},{"icsId":"1003345","id":"490003345W","lat":51.3532,"lon":-0.02401,"name":"Applegarth","parentId":"490G00003345","stationId":"490G00003345","stopLetter":"FD","topMostParentId":"490G00003345","towards":"Addington Village Interchange"},{"icsId":"1003101","id":"490003101D","lat":51.35658,"lon":-0.03239,"name":"Addington Village Interchange","parentId":"490G000380","stationId":"490G000380","stopLetter":"D","topMostParentId":"490G000380"},{"icsId":"1003094","id":"490003094W","lat":51.35396,"lon":-0.03892,"name":"Addington Park","parentId":"490G000379","stationId":"490G000379","stopLetter":"C","topMostParentId":"490G000379","towards":"Addiscombe Or East Croydon"},{"icsId":"1002041","id":"490002041A","lat":51.35476,"lon":-0.04331,"name":"Gravel Hill Tram Stop","stopLetter":"D","topMostParentId":"490002041A","towards":"Addiscombe Or East Croydon"},{"icsId":"1007993","id":"490007993N","lat":51.35632,"lon":-0.05085,"name":"Heathfield Farm","parentId":"490G00007993","stationId":"490G00007993","stopLetter":"M","topMostParentId":"490G00007993","towards":"Addiscombe Or East Croydon"},{"icsId":"1002024","id":"490002024A","lat":51.35941,"lon":-0.0556,"name":"Coombe Lane Tram Stop","stopLetter":"A","topMostParentId":"490002024A","towards":"Addiscombe Or East Croydon"},{"icsId":"1011005","id":"490011005N","lat":51.36444,"lon":-0.05197,"name":"Pine Coombe","parentId":"490G00011005","stationId":"490G00011005","stopLetter":"N","topMostParentId":"490G00011005","towards":"Addiscombe Or East Croydon"},{"icsId":"1010505","id":"490010505N","lat":51.36661,"lon":-0.05282,"name":"Oaks Road","parentId":"490G00010505","stationId":"490G00010505","stopLetter":"Q","topMostParentId":"490G00010505","towards":"Addiscombe Or East Croydon"},{"icsId":"1012103","id":"490012103N","lat":51.36962,"lon":-0.05453,"name":"Shirley Windmill","parentId":"490G00012103","stationId":"490G00012103","stopLetter":"U","topMostParentId":"490G00012103","towards":"Addiscombe Or East Croydon"},{"icsId":"1012094","id":"490012094N","lat":51.37278,"lon":-0.05597,"name":"Shirley Church Road","parentId":"490G00012094","stationId":"490G00012094","stopLetter":"V","topMostParentId":"490G00012094","towards":"Addiscombe Or East Croydon"},{"icsId":"1012101","id":"490012099N","lat":51.37689,"lon":-0.06062,"name":"Shirley Park / Shirley Avenue","parentId":"490G00012101","stationId":"490G00012101","stopLetter":"J","topMostParentId":"490G00012101","towards":"Norwood Junction"},{"icsId":"1012098","id":"490012098N","lat":51.37869,"lon":-0.06191,"name":"Shirley Clinic","parentId":"490G00012098","stationId":"490G00012098","stopLetter":"K","topMostParentId":"490G00012098","towards":"East Croydon Or Norwood Junction"},{"icsId":"1004007","id":"490004007N","lat":51.38089,"lon":-0.06312,"name":"Bingham Road","parentId":"490G00004007","stationId":"490G00004007","stopLetter":"L","topMostParentId":"490G00004007","towards":"East Croydon Or Norwood Junction"},{"icsId":"1003421","id":"490003421N","lat":51.38246,"lon":-0.06421,"name":"Oasis Academy","parentId":"490G00003421","stationId":"490G00003421","stopLetter":"AJ","topMostParentId":"490G00003421","towards":"East Croydon Or Norwood Junction"},{"icsId":"1003419","id":"490003419D","lat":51.38479,"lon":-0.06408,"name":"Ashburton Park","parentId":"490G00003419","stationId":"490G00003419","stopLetter":"WS","topMostParentId":"490G00003419","towards":"Elmers End Or Norwood Junction"},{"icsId":"1002086","id":"490002086B","lat":51.38699,"lon":-0.06414,"name":"Woodside Tram Stop","stopLetter":"WN","topMostParentId":"490002086B","towards":"Norwood Junction"},{"icsId":"1005852","id":"490005852N","lat":51.39086,"lon":-0.06552,"name":"Croydon Arena","parentId":"490G00005852","stationId":"490G00005852","stopLetter":"WJ","topMostParentId":"490G00005852","towards":"Norwood Junction"},{"icsId":"1012321","id":"490012321N1","lat":51.39283,"lon":-0.0668,"name":"South Norwood Leisure Centre","parentId":"490G00012321","stationId":"490G00012321","stopLetter":"PH","topMostParentId":"490G00012321","towards":"Norwood Junction"},{"icsId":"1013371","id":"490013371N","lat":51.39587,"lon":-0.06882,"name":"Harrington Road","parentId":"490G00013371","stationId":"490G00013371","stopLetter":"PG","topMostParentId":"490G00013371","towards":"Penge"},{"icsId":"1001216","id":"490001216E","lat":51.39863,"lon":-0.07511,"name":"Norwood Junction Station","stopLetter":"E","topMostParentId":"490001216E","towards":"Upper Norwood Or Thornton Heath"},{"icsId":"1012320","id":"490012320A","lat":51.39778,"lon":-0.07789,"name":"South Norwood Clock Tower","parentId":"490G00012320","stationId":"490G00012320","stopLetter":"A","topMostParentId":"490G00012320","towards":"Croydon Or Thornton Heath"},{"icsId":"1010805","id":"490010805W","lat":51.39696,"lon":-0.08059,"name":"Selhurst Road / Park Road","parentId":"490G00010805","stationId":"490G00010805","stopLetter":"->W","topMostParentId":"490G00010805","towards":"Croydon Or Thornton Heath"},{"icsId":"1020275","id":"490020275NW","lat":51.3977,"lon":-0.08321,"name":"Park Road","parentId":"490G00020275","stationId":"490G00020275","topMostParentId":"490G00020275","towards":"Thornton Heath"},{"icsId":"1010818","id":"490010818S","lat":51.3992,"lon":-0.08643,"name":"Selhurst Park Stadium","parentId":"490G00010818","stationId":"490G00010818","stopLetter":"->S","topMostParentId":"490G00010818","towards":"West Croydon Or Thornton Heath"},{"icsId":"1005424","id":"490005424R","lat":51.39815,"lon":-0.0911,"name":"Clifton Road","parentId":"490G00005424","stationId":"490G00005424","stopLetter":"R","topMostParentId":"490G00005424","towards":"West Croydon Or Thornton Heath"},{"icsId":"1015449","id":"490015449H","lat":51.39871,"lon":-0.09715,"name":"Thornton Heath Clock Tower","parentId":"490G000896","stationId":"490G000896","stopLetter":"H","topMostParentId":"490G000896","towards":"Norbury Or Thornton Heath Pond"},{"icsId":"1010744","id":"490015449E","lat":51.3993,"lon":-0.09912,"name":"Parchmore Road","parentId":"490G00010744","stationId":"490G00010744","stopLetter":"E","topMostParentId":"490G00010744","towards":"Norwood Junction"}]}]}