{"direction":"outbound","lineId":"131","lineName":"131","mode":"bus","stopPointSequences":[{"stopPoint":[{"icsId":"1006705","id":"490006705B2","lat":51.41044,"lon":-0.29974,"name":"Fairfield Bus Station","parentId":"490G00006705","stationId":"490G00006705","stopLetter":"D","topMostParentId":"490G00006705","towards":"Ham Or Norbiton"},{"icsId":"1006412","id":"490006412E2","lat":51.41015,"lon":-0.30251,"name":"Eden Street","parentId":"490G00006412","stationId":"490G00006412","stopLetter":"E2","topMostParentId":"490G00006412","towards":"Kingston Hospital Or New Malden"},{"icsId":"1005800","id":"490005800A2","lat":51.41236,"lon":-0.29887,"name":"Cromwell Road Bus Station","parentId":"490G000476","stationId":"490G000476","stopLetter":"A2","topMostParentId":"490G000476","towards":"Kingston Vale, New Malden Or Raynes Park"},{"icsId":"1013664","id":"490013664C1","lat":51.41075,"lon":-0.29599,"name":"Tiffin School / London Road","parentId":"490G00013664","stationId":"490G00013664","stopLetter":"B","topMostParentId":"490G00013664","towards":"Kingston Vale, New Malden Or Raynes Park"},{"icsId":"1014039","id":"490014039E","lat":51.41008,"lon":-0.29103,"name":"Vicarage House","parentId":"490G00014039","stationId":"490G00014039","stopLetter":"->E","topMostParentId":"490G00014039","towards":"New Malden"},{"icsId":"1004703","id":"490004703E","lat":51.40896,"lon":-0.28654,"name":"Cambridge Grove","parentId":"490G00004703","stationId":"490G00004703","stopLetter":"A","topMostParentId":"490G00004703","towards":"New Malden"},{"icsId":"1014286","id":"490014286E","lat":51.40714,"lon":-0.2829,"name":"Waters Road","parentId":"490G00014286","stationId":"490G00014286","stopLetter":"B","topMostParentId":"490G00014286","towards":"New Malden"},{"icsId":"1008804","id":"490008804E","lat":51.40672,"lon":-0.28182,"name":"Kingsmeadow","parentId":"490G00008804","stationId":"490G00008804","stopLetter":"C","topMostParentId":"490G00008804","towards":"New Malden"},{"icsId":"1006079","id":"490006079E","lat":51.40458,"lon":-0.27724,"name":"Archdale Place","parentId":"490G00006079","stationId":"490G00006079","stopLetter":"D","topMostParentId":"490G00006079","towards":"New Malden"},{"icsId":"1003361","id":"490003361E","lat":51.40353,"lon":-0.27432,"name":"California Road","parentId":"490G00003361","stationId":"490G00003361","stopLetter":"E","topMostParentId":"490G00003361","towards":"New Malden"},{"icsId":"1014356","id":"490014356E","lat":51.40215,"lon":-0.26989,"name":"Wellington Crescent","parentId":"490G00014356","stationId":"490G00014356","stopLetter":"F","topMostParentId":"490G00014356","towards":"Raynes Park"},{"icsId":"1014411","id":"490014411E","lat":51.4009,"lon":-0.26584,"name":"Elm Road / New Malden Baptist Church","parentId":"490G00014411","stationId":"490G00014411","stopLetter":"->E","topMostParentId":"490G00014411","towards":"Raynes Park"},{"icsId":"1012751","id":"490012751E","lat":51.39959,"lon":-0.26085,"name":"St Joseph's Church","parentId":"490G00012751","stationId":"490G00012751","stopLetter":"->E","topMostParentId":"490G00012751","towards":"Raynes Park"},{"icsId":"1002230","id":"490015206M","lat":51.39879,"lon":-0.25703,"name":"New Malden / the Fountain","parentId":"490G00002230","stationId":"490G00002230","stopLetter":"M","topMostParentId":"490G00002230","towards":"Raynes Park"},{"icsId":"1010235","id":"490010235F","lat":51.39887,"lon":-0.25355,"name":"Walton Avenue","parentId":"490G000677","stationId":"490G000677","stopLetter":"F","topMostParentId":"490G000677","towards":"Kingston Vale Or Raynes Park"},{"icsId":"1011348","id":"490011348E","lat":51.39909,"lon":-0.25013,"name":"Queens Road","parentId":"490G00011348","stationId":"490G00011348","stopLetter":"A","topMostParentId":"490G00011348","towards":"Kingston Vale Or Raynes Park"},{"icsId":"1011674","id":"490011674E","lat":51.39942,"lon":-0.24437,"name":"Shannon Corner / Rookwood Avenue","parentId":"490G00011674","stationId":"490G00011674","stopLetter":"B","topMostParentId":"490G00011674","towards":"Raynes Park Or Kingston Vale"},{"icsId":"1015435","id":"490015435E","lat":51.39981,"lon":-0.24155,"name":"Shannon Corner / Burlington Road","parentId":"490G00015435","stationId":"490G00015435","stopLetter":"C","topMostParentId":"490G00015435","towards":"Motspur Park Or Raynes Park"},{"icsId":"1004884","id":"490004884E","lat":51.40022,"lon":-0.23911,"name":"Cavendish Avenue","parentId":"490G00004884","stationId":"490G00004884","stopLetter":"D","topMostParentId":"490G00004884","towards":"Motspur Park Or Raynes Park"},{"icsId":"1014399","id":"490014399N","lat":51.40299,"lon":-0.23672,"name":"West Barnes Level Crossing","parentId":"490G00014399","stationId":"490G00014399","stopLetter":"E","topMostParentId":"490G00014399","towards":"Wimbledon"},{"icsId":"1013763","id":"490013763N","lat":51.40512,"lon":-0.23574,"name":"Trafalgar Court","parentId":"490G00013763","stationId":"490G00013763","stopLetter":"F","topMostParentId":"490G00013763","towards":"Wimbledon"},{"icsId":"1006761","id":"490006761N","lat":51.40766,"lon":-0.23534,"name":"Farnham Gardens","parentId":"490G00006761","stationId":"490G00006761","stopLetter":"G","topMostParentId":"490G00006761","towards":"Wimbledon"},{"icsId":"1014397","id":"490014397E","lat":51.40972,"lon":-0.23384,"name":"Durham Road","parentId":"490G00014397","stationId":"490G00014397","stopLetter":"A","topMostParentId":"490G00014397","towards":"Wimbledon"},{"icsId":"1001237","id":"490001237C","lat":51.40968,"lon":-0.23078,"name":"Raynes Park Station","stopLetter":"B","topMostParentId":"490001237C","towards":"Wimbledon"},{"icsId":"1011457","id":"490011457E","lat":51.41063,"lon":-0.22874,"name":"Raynes Park Methodist Church","parentId":"490G00011457","stationId":"490G00011457","stopLetter":"D","topMostParentId":"490G00011457","towards":"Wimbledon"},{"icsId":"1003392","id":"490003392W1","lat":51.41243,"lon":-0.22411,"name":"Arterberry Road","parentId":"490G00003392","stationId":"490G00003392","stopLetter":"E","topMostParentId":"490G00003392","towards":"Wimbledon"},{"icsId":"1015361","id":"490015361E","lat":51.4136,"lon":-0.222,"name":"Lower Downs Road","parentId":"490G00015361","stationId":"490G00015361","stopLetter":"->E","topMostParentId":"490G00015361","towards":"Wimbledon"},{"icsId":"1003155","id":"490003155E","lat":51.41518,"lon":-0.21949,"name":"Albert Grove","parentId":"490G00003155","stationId":"490G00003155","stopLetter":"->E","topMostParentId":"490G00003155","towards":"Wimbledon"},{"icsId":"1005961","id":"490005961E","lat":51.41716,"lon":-0.21621,"name":"Darlaston Road","parentId":"490G00005961","stationId":"490G00005961","stopLetter":"->E","topMostParentId":"490G00005961","towards":"Colliers Wood"},{"icsId":"1012378","id":"490012378E","lat":51.41923,"lon":-0.21266,"name":"Spencer Hill","parentId":"490G00012378","stationId":"490G00012378","stopLetter":"W","topMostParentId":"490G00012378","towards":"Colliers Wood"},{"icsId":"1006987","id":"490006987N","lat":51.4212,"lon":-0.20962,"name":"Francis Grove","parentId":"490G00006987","stationId":"490G00006987","stopLetter":"N","topMostParentId":"490G00006987","towards":"Colliers Wood, Southfields Or Wimbledon Chase"},{"icsId":"1000272","id":"490015472D","lat":51.42066,"lon":-0.20543,"name":"Wimbledon Station","stopLetter":"D","topMostParentId":"490015472D","towards":"Colliers Wood, Morden Or Wimbledon Chase","zone":"3"},{"icsId":"1014742","id":"490014742X","lat":51.4192,"lon":-0.19978,"name":"Wimbledon Theatre","parentId":"490G00014742","stationId":"490G00014742","stopLetter":"X","topMostParentId":"490G00014742","towards":"Morden Or Colliers Wood"},{"icsId":"1013807","id":"490013807E","lat":51.41942,"lon":-0.19588,"name":"The Polka Theatre","parentId":"490G00013807","stationId":"490G00013807","stopLetter":"SU","topMostParentId":"490G00013807","towards":"Colliers Wood Or Morden"},{"icsId":"1009835","id":"490009835J","lat":51.41746,"lon":-0.19251,"name":"Merton Road","parentId":"490G00009835","stationId":"490G00009835","stopLetter":"SV","topMostParentId":"490G00009835","towards":"Colliers Wood Or Morden"},{"icsId":"1000216","id":"490000216D","lat":51.41572,"lon":-0.19051,"name":"South Wimbledon Station","stopLetter":"SZ","topMostParentId":"490000216D","towards":"Mitcham Or Tooting","zone":"3+4"},{"icsId":"1007938","id":"490007938F","lat":51.41611,"lon":-0.18536,"name":"Abbey Road","parentId":"490G00007938","stationId":"490G00007938","stopLetter":"SH","topMostParentId":"490G00007938","towards":"Mitcham Or Tooting"},{"icsId":"1009830","id":"490009830E","lat":51.41642,"lon":-0.18153,"name":"Merton Abbey","parentId":"490G00009830","stationId":"490G00009830","stopLetter":"E","topMostParentId":"490G00009830","towards":"Mitcham Or Tooting"},{"icsId":"1000055","id":"490000055D","lat":51.41889,"lon":-0.17755,"name":"Colliers Wood Station","stopLetter":"D","topMostParentId":"490000055D","towards":"Tooting Broadway","zone":"3"},{"icsId":"1014149","id":"490014149N","lat":51.42094,"lon":-0.17556,"name":"Walpole Road","parentId":"490G00014149","stationId":"490G00014149","stopLetter":"L","topMostParentId":"490G00014149","towards":"Tooting Broadway"},{"icsId":"1009332","id":"490009332H11","lat":51.42336,"lon":-0.1731,"name":"Longley Road","parentId":"490G00009332","stationId":"490G00009332","stopLetter":"HQ","topMostParentId":"490G00009332","towards":"Streatham Or Tooting Bec"},{"icsId":"1010468","id":"490010468H8","lat":51.42569,"lon":-0.17028,"name":"Nutwell Street","parentId":"490G00010468","stationId":"490G00010468","stopLetter":"HN","topMostParentId":"490G00010468","towards":"Mitcham, Streatham Or Tooting Bec"},{"icsId":"1000234","id":"490015513L","lat":51.42738,"lon":-0.16881,"name":"Tooting Broadway Station","stopLetter":"L","topMostParentId":"490015513L","towards":"Tooting Bec","zone":"3"}]}]}