{"direction":"outbound","lineId":"133","lineName":"133","mode":"bus","stopPointSequences":[{"stopPoint":[{"icsId":"1001279","id":"490001279E","lat":51.42546,"lon":-0.13123,"name":"Streatham Station","stopLetter":"SF","topMostParentId":"490001279E","towards":"Pollards Hill Or Streatham Hill"},{"icsId":"1012761","id":"490012761SQ","lat":51.42838,"lon":-0.13133,"name":"St Leonard's Church","parentId":"490G00012761","stationId":"490G00012761","stopLetter":"SK","topMostParentId":"490G00012761","towards":"Balham, Streatham Hill Or Tooting"},{"icsId":"1003758","id":"490003758O","lat":51.43256,"lon":-0.12917,"name":"Becmead Avenue","parentId":"490G00003758","stationId":"490G00003758","stopLetter":"O","topMostParentId":"490G00003758","towards":"Brixton, Clapham Common Or Tulse Hill"},{"icsId":"1008765","id":"490008765M","lat":51.43449,"lon":-0.12862,"name":"Kingscourt Road","parentId":"490G00008765","stationId":"490G00008765","stopLetter":"M","topMostParentId":"490G00008765","towards":"Clapham Common, Brixton Or Tulse Hill"},{"icsId":"1010078","id":"490010078K","lat":51.43594,"lon":-0.12819,"name":"Mount Ephraim Road","parentId":"490G00010078","stationId":"490G00010078","stopLetter":"K","topMostParentId":"490G00010078","towards":"Clapham Common, Brixton Or Tulse Hill"},{"icsId":"1019944","id":"490001281B","lat":51.43919,"lon":-0.12634,"name":"Streatham Hill Stn  / Streatham Hill","parentId":"490G000969","stationId":"490G000969","stopLetter":"B","topMostParentId":"490G000969","towards":"Brixton, Clapham Common Or Tulse Hill"},{"icsId":"1003598","id":"490003598S","lat":51.44078,"lon":-0.12557,"name":"Barrhill Road","parentId":"490G00003598","stationId":"490G00003598","stopLetter":"S","topMostParentId":"490G00003598","towards":"Clapham Common, Brixton Or Tulse Hill"},{"icsId":"1013186","id":"490013186TA","lat":51.44261,"lon":-0.12476,"name":"Telford Avenue","parentId":"490G00013186","stationId":"490G00013186","stopLetter":"TA","topMostParentId":"490G00013186","towards":"Brixton Or Clapham Common"},{"icsId":"1005234","id":"490005234N","lat":51.44459,"lon":-0.12475,"name":"Christchurch Road","parentId":"490G00005234","stationId":"490G00005234","stopLetter":"BS","topMostParentId":"490G00005234","towards":"Brixton Or Clapham Common"},{"icsId":"1008310","id":"490008310N","lat":51.44692,"lon":-0.12479,"name":"Holmewood Road","parentId":"490G00008310","stationId":"490G00008310","stopLetter":"BT","topMostParentId":"490G00008310","towards":"Camberwell Or Kennington Church"},{"icsId":"1015218","id":"490015218N","lat":51.44886,"lon":-0.12385,"name":"New Park Road","parentId":"490G00015218","stationId":"490G00015218","stopLetter":"BU","topMostParentId":"490G00015218","towards":"Camberwell Or Kennington Church"},{"icsId":"1008544","id":"490008544N","lat":51.45108,"lon":-0.12214,"name":"Jebb Avenue / Brixton Prison","parentId":"490G00008544","stationId":"490G00008544","stopLetter":"BV","topMostParentId":"490G00008544","towards":"Camberwell Or Kennington Church"},{"icsId":"1004101","id":"490004101N","lat":51.45428,"lon":-0.12014,"name":"Blenheim Gardens","parentId":"490G00004101","stationId":"490G00004101","stopLetter":"BW","topMostParentId":"490G00004101","towards":"Camberwell Or Kennington Church"},{"icsId":"1011793","id":"490011793N","lat":51.45767,"lon":-0.11799,"name":"Rush Common","parentId":"490G00011793","stationId":"490G00011793","stopLetter":"BY","topMostParentId":"490G00011793","towards":"Camberwell Or Kennington Church"},{"icsId":"1008919","id":"490008919Y","lat":51.45962,"lon":-0.11674,"name":"Lambeth Town Hall","parentId":"490G000627","stationId":"490G000627","stopLetter":"Y","topMostParentId":"490G000627","towards":"Camberwell Or Elephant & Castle"},{"icsId":"1000031","id":"490000031S","lat":51.46214,"lon":-0.11528,"name":"Brixton Station","stopLetter":"S","topMostParentId":"490000031S","towards":"Elephant & Castle","zone":"2"},{"icsId":"1007523","id":"490007523E","lat":51.46538,"lon":-0.11398,"name":"Brixton Road / Brixton Police Station","parentId":"490G000549","stationId":"490G000549","stopLetter":"E","topMostParentId":"490G000549","towards":"Elephant & Castle"},{"icsId":"1014085","id":"490014085N","lat":51.46742,"lon":-0.11292,"name":"Villa Road","parentId":"490G00014085","stationId":"490G00014085","stopLetter":"RA","topMostParentId":"490G00014085","towards":"Elephant & Castle Or Imperial War Museum"},{"icsId":"1009373","id":"490009373N1","lat":51.46958,"lon":-0.11261,"name":"Loughborough Road","parentId":"490G00009373","stationId":"490G00009373","stopLetter":"RB","topMostParentId":"490G00009373","towards":"Kennington Oval"},{"icsId":"1007587","id":"490007587N","lat":51.47288,"lon":-0.11288,"name":"Groveway","parentId":"490G00007587","stationId":"490G00007587","stopLetter":"RC","topMostParentId":"490G00007587","towards":"Elephant & Castle Or Imperial War Museum"},{"icsId":"1008248","id":"490008248N","lat":51.47474,"lon":-0.11305,"name":"Hillyard Street","parentId":"490G00008248","stationId":"490G00008248","stopLetter":"RD","topMostParentId":"490G00008248","towards":"Elephant & Castle Or Imperial War Museum"},{"icsId":"1014013","id":"490014013N","lat":51.47731,"lon":-0.11244,"name":"Vassall Road","parentId":"490G00014013","stationId":"490G00014013","stopLetter":"RE","topMostParentId":"490G00014013","towards":"Elephant & Castle Or Imperial War Museum"},{"icsId":"1008642","id":"490008642H","lat":51.48064,"lon":-0.11106,"name":"St Mark's Church","parentId":"490G00008642","stationId":"490G00008642","stopLetter":"H","topMostParentId":"490G00008642","towards":"Elephant & Castle, Lambeth Bdg Or Lambeth Nth"},{"icsId":"1008656","id":"490008645Y","lat":51.48516,"lon":-0.10954,"name":"Kennington Road","parentId":"490G00008656","stationId":"490G00008656","stopLetter":"Y","topMostParentId":"490G00008656","towards":"Elephant & Castle"},{"icsId":"1000121","id":"490000121B","lat":51.48761,"lon":-0.10679,"name":"Kennington Station","stopLetter":"KB","topMostParentId":"490000121B","towards":"London Bridge","zone":"1+2"},{"icsId":"1010925","id":"490010925N","lat":51.48997,"lon":-0.10438,"name":"Penton Place","parentId":"490G00010925","stationId":"490G00010925","stopLetter":"BK","topMostParentId":"490G00010925","towards":"London Bridge"},{"icsId":"1010223","id":"490010223N","lat":51.49168,"lon":-0.10283,"name":"Newington Butts","parentId":"490G00010223","stationId":"490G00010223","stopLetter":"BL","topMostParentId":"490G00010223","towards":"London Bridge"},{"icsId":"1000073","id":"490000073S","lat":51.49396,"lon":-0.10072,"name":"Elephant & Castle Station","stopLetter":"S","topMostParentId":"490000073S","towards":"London Bridge","zone":"1+2"},{"icsId":"1009297","id":"490000073F","lat":51.49643,"lon":-0.09998,"name":"Elephant & Castle / Newington Causeway","parentId":"490G000644","stationId":"490G000644","stopLetter":"F","topMostParentId":"490G000644","towards":"Southwark Bridge, Bermondsey Or London Bridge"},{"icsId":"1003548","id":"490012354N","lat":51.49859,"lon":-0.09783,"name":"Inner London Crown Court","parentId":"490G00003548","stationId":"490G00003548","stopLetter":"P","topMostParentId":"490G00003548","towards":"London Bridge Or Rotherhithe"},{"icsId":"1000026","id":"490000026C","lat":51.50088,"lon":-0.09394,"name":"Borough Station","stopLetter":"C","topMostParentId":"490000026C","towards":"Liverpool Street","zone":"1"},{"icsId":"1013910","id":"490013910G","lat":51.50304,"lon":-0.09203,"name":"Union Street","parentId":"490G00013910","stationId":"490G00013910","stopLetter":"G","topMostParentId":"490G00013910","towards":"Aldgate, Liverpool Street Or Moorgate"},{"icsId":"1018542","id":"490000139M","lat":51.5067,"lon":-0.08833,"name":"London Bridge","parentId":"490G000922","stationId":"490G000922","stopLetter":"M","topMostParentId":"HUBLBG","towards":"Bank, St Paul's Or Liverpool Street"},{"icsId":"1000148","id":"490009267D","lat":51.50946,"lon":-0.08748,"name":"Monument Station","stopLetter":"Q","topMostParentId":"490009267D","towards":"Bank, St Pauls Or Liverpool Street","zone":"1"},{"icsId":"1007607","id":"490000013F","lat":51.51226,"lon":-0.08805,"name":"Bank Station  / King William Street","parentId":"490G000557","stationId":"490G000557","stopLetter":"F","topMostParentId":"HUBBAN","towards":"Moorgate Or Liverpool Street"},{"icsId":"1007596","id":"490007596L","lat":51.51359,"lon":-0.0913,"name":"Poultry / Bank Station","parentId":"490G00007596","stationId":"490G00007596","stopLetter":"L","topMostParentId":"490G00007596","towards":"Holborn"},{"icsId":"1015124","id":"490015124Z","lat":51.51419,"lon":-0.09505,"name":"Bread Street","parentId":"490G000861","stationId":"490G000861","stopLetter":"SN","topMostParentId":"490G000861","towards":"Tottenham Court Road"},{"icsId":"1000225","id":"490000225T","lat":51.51525,"lon":-0.09851,"name":"St Paul's Station","stopLetter":"SQ","topMostParentId":"490000225T","towards":"Aldwych Or Tottenham Court Road","zone":"1"},{"icsId":"1001067","id":"490001067R","lat":51.51648,"lon":-0.10291,"name":"City Thameslink Station","stopLetter":"HK","topMostParentId":"490001067R","towards":"Tottenham Crt Rd, Aldwych Or King's Cross"},{"icsId":"1015096","id":"490015096L","lat":51.51753,"lon":-0.10651,"name":"Holborn Circus","parentId":"490G00015096","stationId":"490G00015096","stopLetter":"L","topMostParentId":"490G00015096","towards":"Tottenham Crt Rd, Aldwych Or King's Cross"},{"icsId":"1008275","id":"490008275G","lat":51.51777,"lon":-0.10875,"name":"Holborn Circus / Fetter Lane","parentId":"490G00008275","stationId":"490G00008275","stopLetter":"G","topMostParentId":"490G00008275","towards":"Aldwych Or Tottenham Court Road"},{"icsId":"1000044","id":"490000044F","lat":51.51816,"lon":-0.11218,"name":"Chancery Lane Station","stopLetter":"F","topMostParentId":"490000044F","towards":"Aldwych Or Tottenham Court Road","zone":"1"},{"icsId":"1004514","id":"490004514W","lat":51.51811,"lon":-0.11464,"name":"Brownlow Street","parentId":"490G00004514","stationId":"490G00004514","stopLetter":"R","topMostParentId":"490G00004514","towards":"Aldwych Or Tottenham Court Road"},{"icsId":"1000112","id":"490015239K","lat":51.51767,"lon":-0.11848,"name":"Holborn Station","stopLetter":"K","topMostParentId":"490015239K","towards":"Waterloo Or Tottenham Court Road","zone":"1"},{"id":"490002402ZW","lat":51.51854,"lon":-0.11924,"name":"Drake Street","stopLetter":"->S","topMostParentId":"490002402ZW"}]}]}