{"direction":"outbound","lineId":"134","lineName":"134","mode":"bus","stopPointSequences":[{"stopPoint":[{"icsId":"1015443","id":"490015518E","lat":51.61334,"lon":-0.17594,"name":"North Finchley Bus Station","parentId":"490G00015443","stationId":"490G00015443","stopLetter":"E","topMostParentId":"490G00015443","towards":"Friern Barnet Or East Finchley"},{"icsId":"1010369","id":"490010369G","lat":51.61243,"lon":-0.17487,"name":"North Finchley High Road","parentId":"490G00010369","stationId":"490G00010369","stopLetter":"J","topMostParentId":"490G00010369","towards":"Friern Barnet"},{"icsId":"1007575","id":"490007575E","lat":51.61164,"lon":-0.17146,"name":"Grove Road","parentId":"490G00007575","stationId":"490G00007575","stopLetter":"F","topMostParentId":"490G00007575","towards":"New Southgate Or Muswell Hill"},{"icsId":"1008250","id":"490008250E","lat":51.61155,"lon":-0.16707,"name":"Woodhouse College","parentId":"490G00008250","stationId":"490G00008250","stopLetter":"FU","topMostParentId":"490G00008250","towards":"New Southgate Or Muswell Hill"},{"icsId":"1009102","id":"490009102E","lat":51.6116,"lon":-0.16413,"name":"Lewes Road","parentId":"490G00009102","stationId":"490G00009102","stopLetter":"FV","topMostParentId":"490G00009102","towards":"New Southgate Or Muswell Hill"},{"icsId":"1007030","id":"490007030E","lat":51.61242,"lon":-0.15977,"name":"Colney Hatch Lane","parentId":"490G00007030","stationId":"490G00007030","stopLetter":"FW","topMostParentId":"490G00007030","towards":"New Southgate Or Muswell Hill"},{"icsId":"1007029","id":"490007029S","lat":51.6121,"lon":-0.15745,"name":"Friern Barnet Road","parentId":"490G00007029","stationId":"490G00007029","stopLetter":"FD","topMostParentId":"490G00007029","towards":"Muswell Hill"},{"icsId":"1003443","id":"490003443S","lat":51.61123,"lon":-0.15504,"name":"Hillside Avenue","parentId":"490G00003443","stationId":"490G00003443","stopLetter":"FE","topMostParentId":"490G00003443","towards":"Muswell Hill"},{"icsId":"1010327","id":"490010327S","lat":51.60757,"lon":-0.1524,"name":"North Circular Road","parentId":"490G00010327","stationId":"490G00010327","stopLetter":"CK","topMostParentId":"490G00010327","towards":"Muswell Hill"},{"icsId":"1007720","id":"490007714S","lat":51.60541,"lon":-0.14924,"name":"Cromwell Road","parentId":"490G00007720","stationId":"490G00007720","stopLetter":"CL","topMostParentId":"490G00007720","towards":"Highgate"},{"icsId":"1010896","id":"490010896S","lat":51.60205,"lon":-0.14788,"name":"Pembroke Road / St Peters Church","parentId":"490G00010896","stationId":"490G00010896","stopLetter":"CM","topMostParentId":"490G00010896","towards":"Highgate"},{"icsId":"1014725","id":"490014725S","lat":51.59997,"lon":-0.14748,"name":"Wilton Road","parentId":"490G00014725","stationId":"490G00014725","stopLetter":"CN","topMostParentId":"490G00014725","towards":"Highgate"},{"icsId":"1003212","id":"490003212S","lat":51.59604,"lon":-0.14519,"name":"Alexandra Park Road","parentId":"490G00003212","stationId":"490G00003212","stopLetter":"CQ","topMostParentId":"490G00003212","towards":"Highgate"},{"icsId":"1015187","id":"490015186B","lat":51.59164,"lon":-0.14276,"name":"Muswell Hill","parentId":"490G00015187","stationId":"490G00015187","stopLetter":"B","topMostParentId":"490G00015187","towards":"Archway Or East Finchley"},{"icsId":"1015186","id":"490015187E","lat":51.59071,"lon":-0.14287,"name":"Queens Avenue","parentId":"490G00015186","stationId":"490G00015186","stopLetter":"E","topMostParentId":"490G00015186","towards":"Archway"},{"icsId":"1005250","id":"490005250N","lat":51.58896,"lon":-0.14588,"name":"Fortis Green Road","parentId":"490G00005250","stationId":"490G00005250","stopLetter":"N","topMostParentId":"490G00005250","towards":"Archway"},{"icsId":"1019783","id":"490015530S2","lat":51.58706,"lon":-0.1469,"name":"Woodside Avenue","parentId":"490G00019783","stationId":"490G00019783","topMostParentId":"490G00019783","towards":"Archway"},{"icsId":"1005712","id":"490005712S1","lat":51.5857,"lon":-0.14703,"name":"Cranley Gardens","parentId":"490G00005712","stationId":"490G00005712","stopLetter":"->S","topMostParentId":"490G00005712","towards":"Archway"},{"icsId":"1010602","id":"490010602S","lat":51.58362,"lon":-0.14663,"name":"Onslow Gardens","parentId":"490G00010602","stationId":"490G00010602","stopLetter":"B","topMostParentId":"490G00010602","towards":"Archway"},{"icsId":"1008162","id":"490008161S","lat":51.58132,"lon":-0.14673,"name":"Highgate Wood","parentId":"490G00008162","stationId":"490G00008162","stopLetter":"W","topMostParentId":"490G00008162","towards":"Archway"},{"icsId":"1014875","id":"490014875D","lat":51.57859,"lon":-0.14742,"name":"Wood Lane / Highgate Station","parentId":"490G000845","stationId":"490G000845","stopLetter":"V","topMostParentId":"490G000845","towards":"Archway"},{"icsId":"1000109","id":"490000109S","lat":51.577,"lon":-0.14553,"name":"Highgate Station","stopLetter":"T","topMostParentId":"490000109S","towards":"Highbury Corner Or Tufnell Park","zone":"3"},{"icsId":"1012359","id":"490012359S","lat":51.57558,"lon":-0.14298,"name":"Southwood Avenue","parentId":"490G000756","stationId":"490G000756","stopLetter":"U","topMostParentId":"490G000756","towards":"Highbury Corner Or Tufnell Park"},{"icsId":"1010433","id":"490010433S","lat":51.57342,"lon":-0.14094,"name":"Northwood Road","parentId":"490G00010433","stationId":"490G00010433","stopLetter":"HQ","topMostParentId":"490G00010433","towards":"Highbury Corner Or Tufnell Park"},{"icsId":"1008943","id":"490008943S","lat":51.57167,"lon":-0.1393,"name":"Langdon Park Road","parentId":"490G00008943","stationId":"490G00008943","stopLetter":"HW","topMostParentId":"490G00008943","towards":"Highbury Corner Or Tufnell Park"},{"icsId":"1014277","id":"490014277Q","lat":51.56879,"lon":-0.13649,"name":"Waterlow Road","parentId":"490G00014277","stationId":"490G00014277","stopLetter":"Q","topMostParentId":"490G00014277","towards":"Tufnell Park Or Highbury Corner"},{"icsId":"1000008","id":"490000008W","lat":51.56483,"lon":-0.13482,"name":"Archway Station","stopLetter":"W","topMostParentId":"490000008W","towards":"Highgate Village Or Tufnell Park","zone":"2+3"},{"icsId":"1003989","id":"490003989Z","lat":51.56204,"lon":-0.13636,"name":"Pemberton Gardens","parentId":"490G00003989","stationId":"490G00003989","stopLetter":"S","topMostParentId":"490G00003989","towards":"Kentish Town Or Kings Cross"},{"icsId":"1009985","id":"490009985S","lat":51.55975,"lon":-0.13743,"name":"Monnery Road","parentId":"490G00009985","stationId":"490G00009985","stopLetter":"TM","topMostParentId":"490G00009985","towards":"Kentish Town Or Kings Cross"},{"icsId":"1000239","id":"490015053C","lat":51.55741,"lon":-0.13811,"name":"Tufnell Park Station","stopLetter":"TN","topMostParentId":"490015053C","towards":"Kentish Town Or Kings Cross","zone":"2"},{"icsId":"1008904","id":"490008904S1","lat":51.55475,"lon":-0.1399,"name":"Lady Somerset Road","parentId":"490G00008904","stationId":"490G00008904","stopLetter":"TQ","topMostParentId":"490G00008904","towards":"Camden Town"},{"icsId":"1008661","id":"490008662G","lat":51.55253,"lon":-0.14097,"name":"Fortess Walk","parentId":"490G00008661","stationId":"490G00008661","stopLetter":"KA","topMostParentId":"490G00008661","towards":"Camden Town"},{"icsId":"1000123","id":"490000123A","lat":51.55021,"lon":-0.14071,"name":"Kentish Town Station","stopLetter":"KB","topMostParentId":"490000123A","towards":"Camden Town Or Chalk Farm","zone":"2"},{"icsId":"1004894","id":"490007082K","lat":51.54819,"lon":-0.14115,"name":"Kentish Town Post Office","parentId":"490G00004894","stationId":"490G00004894","stopLetter":"KC","topMostParentId":"490G00004894","towards":"Camden Town Or Chalk Farm"},{"icsId":"1011199","id":"490011199S","lat":51.54593,"lon":-0.14166,"name":"Kentish Town Road / Prince of Wales Road","parentId":"490G00011199","stationId":"490G00011199","stopLetter":"KD","topMostParentId":"490G00011199","towards":"Kings Cross Or Camden Town"},{"icsId":"1011755","id":"490011755S","lat":51.5442,"lon":-0.14143,"name":"Royal College Street","parentId":"490G00011755","stationId":"490G00011755","stopLetter":"KL","topMostParentId":"490G00011755","towards":"Camden Town"},{"icsId":"1004713","id":"490004713D","lat":51.54197,"lon":-0.14103,"name":"Camden Gardens","parentId":"490G00004713","stationId":"490G00004713","stopLetter":"D","topMostParentId":"490G00004713","towards":"Kings Cross, Warren Street Or Oxford Circus"},{"icsId":"1000036","id":"490000036S","lat":51.5398,"lon":-0.14135,"name":"Camden Town Station","stopLetter":"S","topMostParentId":"490000036S","towards":"Great Portland St Or Tottenham Court Road","zone":"2"},{"icsId":"1011168","id":"490011168S2","lat":51.53716,"lon":-0.13952,"name":"Pratt Street","parentId":"490G00011168","stationId":"490G00011168","stopLetter":"V","topMostParentId":"490G00011168","towards":"Warren Street Station"},{"icsId":"1000152","id":"490000152C","lat":51.53344,"lon":-0.13862,"name":"Mornington Crescent Station","stopLetter":"C","topMostParentId":"490000152C","towards":"Warren Street Station","zone":"2"},{"icsId":"1012158","id":"490012158S","lat":51.53074,"lon":-0.1386,"name":"Silverdale","parentId":"490G00012158","stationId":"490G00012158","stopLetter":"W","topMostParentId":"490G00012158","towards":"Great Portland Street Or Tottenham Court Road"},{"icsId":"1002319","id":"490010158S","lat":51.52707,"lon":-0.13852,"name":"William Road","parentId":"490G00002319","stationId":"490G00002319","stopLetter":"K","topMostParentId":"490G00002319","towards":"Great Portland Street Or Tottenham Court Road"},{"icsId":"1015047","id":"490015042U","lat":51.52581,"lon":-0.13847,"name":"Warren Street Station  / Euston Road","parentId":"490G00015047","stationId":"490G00015047","stopLetter":"U","topMostParentId":"490G00015047","towards":"Baker Street Or Tottenham Court Road"},{"icsId":"1002141","id":"490000252E","lat":51.52519,"lon":-0.13714,"name":"University College Hospital / Euston Rd","parentId":"490G000361","stationId":"490G000361","stopLetter":"Y","topMostParentId":"490G000361","towards":"Camden Town"}]}]}