{"direction":"outbound","lineId":"136","lineName":"136","mode":"bus","stopPointSequences":[{"stopPoint":[{"icsId":"1001124","id":"490015256D","lat":51.43063,"lon":0.02038,"name":"Grove Park Station","stopLetter":"D","topMostParentId":"490015256D","towards":"Catford Or Lower Sydenham"},{"icsId":"1013390","id":"490013390W","lat":51.43026,"lon":0.01597,"name":"The Green","parentId":"490G00013390","stationId":"490G00013390","stopLetter":"E","topMostParentId":"490G00013390","towards":"Catford Or Lower Sydenham"},{"icsId":"1010393","id":"490010393S","lat":51.42812,"lon":0.01356,"name":"Northover","parentId":"490G00010393","stationId":"490G00010393","stopLetter":"F","topMostParentId":"490G00010393","towards":"Catford Or Lower Sydenham"},{"icsId":"1012324","id":"490012324W","lat":51.42547,"lon":0.01332,"name":"Downham Way / Southover","parentId":"490G00012324","stationId":"490G00012324","stopLetter":"DU","topMostParentId":"490G00012324","towards":"Catford Or Lower Sydenham"},{"icsId":"1007977","id":"490007977W","lat":51.42418,"lon":0.01069,"name":"Headcorn Road","parentId":"490G00007977","stationId":"490G00007977","stopLetter":"DV","topMostParentId":"490G00007977","towards":"Catford Or Lower Sydenham"},{"icsId":"1013993","id":"490013993W","lat":51.4247,"lon":0.00766,"name":"Downham Way / Valeswood Road","parentId":"490G00013993","stationId":"490G00013993","stopLetter":"DW","topMostParentId":"490G00013993","towards":"Catford Or Lower Sydenham"},{"icsId":"1012635","id":"490012635W","lat":51.42593,"lon":0.00442,"name":"St Barnabas Hall","parentId":"490G00012635","stationId":"490G00012635","stopLetter":"DX","topMostParentId":"490G00012635","towards":"Bromley, Catford Or Lower Sydenham"},{"icsId":"1007221","id":"490007221W","lat":51.42571,"lon":0.00132,"name":"Glenbow Road","parentId":"490G00007221","stationId":"490G00007221","stopLetter":"DY","topMostParentId":"490G00007221","towards":"Bromley, Catford Or Lower Sydenham"},{"icsId":"1011423","id":"490011423W","lat":51.42467,"lon":-0.00244,"name":"Rangefield Road","parentId":"490G00011423","stationId":"490G00011423","stopLetter":"DZ","topMostParentId":"490G00011423","towards":"Catford Or Lower Sydenham"},{"icsId":"1004430","id":"490004430N","lat":51.42479,"lon":-0.00435,"name":"Bromley Road / Downham Way","parentId":"490G00004430","stationId":"490G00004430","stopLetter":"DK","topMostParentId":"490G00004430","towards":"Catford"},{"icsId":"1010528","id":"490010528N","lat":51.42616,"lon":-0.00678,"name":"Old Bromley Road","parentId":"490G00010528","stationId":"490G00010528","stopLetter":"SU","topMostParentId":"490G00010528","towards":"Catford"},{"icsId":"1012286","id":"490012286N1","lat":51.42681,"lon":-0.00994,"name":"Green Man Community Hub","parentId":"490G00012286","stationId":"490G00012286","stopLetter":"SV","topMostParentId":"490G00012286","towards":"Catford"},{"icsId":"1002403","id":"490013572N","lat":51.429,"lon":-0.01405,"name":"Southend Lane","parentId":"490G00002403","stationId":"490G00002403","stopLetter":"SW","topMostParentId":"490G00002403","towards":"Lewisham"},{"icsId":"1004866","id":"490004866N","lat":51.43101,"lon":-0.01559,"name":"Catford Police Station","parentId":"490G00004866","stationId":"490G00004866","stopLetter":"BA","topMostParentId":"490G00004866","towards":"Lewisham"},{"icsId":"1003852","id":"490003852A","lat":51.43257,"lon":-0.01742,"name":"Bellingham Road","parentId":"490G000410","stationId":"490G000410","stopLetter":"BB","topMostParentId":"490G000410","towards":"Lewisham"},{"icsId":"1010248","id":"490010248N","lat":51.43655,"lon":-0.01848,"name":"Newquay Road","parentId":"490G00010248","stationId":"490G00010248","stopLetter":"BC","topMostParentId":"490G00010248","towards":"Brockley Or Lewisham"},{"icsId":"1005020","id":"490005020N","lat":51.4384,"lon":-0.01924,"name":"Inchmery Road","parentId":"490G00005020","stationId":"490G00005020","stopLetter":"BD","topMostParentId":"490G00005020","towards":"Brockley Or Lewisham"},{"icsId":"1003596","id":"490003596N","lat":51.44054,"lon":-0.02071,"name":"Bargery Road","parentId":"490G00003596","stationId":"490G00003596","stopLetter":"->N","topMostParentId":"490G00003596","towards":"Brockley Or Lewisham"},{"icsId":"1015150","id":"490015150W","lat":51.44381,"lon":-0.02046,"name":"Bromley Road / Lewisham Town Hall","parentId":"490G00015150","stationId":"490G00015150","stopLetter":"W","topMostParentId":"490G00015150","towards":"Lewisham"},{"icsId":"1013282","id":"490013282A","lat":51.44711,"lon":-0.01873,"name":"The Catford Centre","parentId":"490G00013282","stationId":"490G00013282","stopLetter":"A","topMostParentId":"490G00013282","towards":"Lewisham"},{"icsId":"1011703","id":"490011703HE","lat":51.44925,"lon":-0.01724,"name":"Rosenthal Road","parentId":"490G00011703","stationId":"490G00011703","stopLetter":"B","topMostParentId":"490G00011703","towards":"Lewisham"},{"icsId":"1000914","id":"490007163HF","lat":51.45184,"lon":-0.01691,"name":"Mount Pleasant Road","parentId":"490G000231","stationId":"490G000231","stopLetter":"HF","topMostParentId":"490G000231","towards":"Blackheath, Deptford Or New Cross"},{"icsId":"1009109","id":"490009109HH","lat":51.45286,"lon":-0.01658,"name":"Lewisham Hospital","parentId":"490G00009109","stationId":"490G00009109","stopLetter":"HH","topMostParentId":"490G00009109","towards":"Blackheath, Deptford Or New Cross"},{"icsId":"1009113","id":"490009113HJ","lat":51.45455,"lon":-0.01611,"name":"Lewisham Park","parentId":"490G00009113","stationId":"490G00009113","stopLetter":"HJ","topMostParentId":"490G00009113","towards":"Blackheath, Deptford Or New Cross"},{"icsId":"1009111","id":"490009111HL","lat":51.4572,"lon":-0.01362,"name":"Lewisham Fire Station","parentId":"490G00009111","stationId":"490G00009111","stopLetter":"HL","topMostParentId":"490G00009111","towards":"Blackheath, Deptford, Lee Or New Cross"},{"icsId":"1009105","id":"490009105U","lat":51.46043,"lon":-0.01119,"name":"Lewisham Centre","parentId":"490G00009105","stationId":"490G00009105","stopLetter":"U","topMostParentId":"490G00009105","towards":"Deptford Or New Cross"},{"icsId":"1009106","id":"490011522E","lat":51.46253,"lon":-0.01012,"name":"Lewisham Police Station","parentId":"490G00009106","stationId":"490G00009106","stopLetter":"E","topMostParentId":"490G00009106","towards":"Deptford Or New Cross"},{"icsId":"1001177","id":"490001177S","lat":51.46523,"lon":-0.01235,"name":"Lewisham Station","stopLetter":"J","topMostParentId":"490001177S","towards":"New Cross","zone":"2+3"},{"icsId":"1000386","id":"490001177F","lat":51.46448,"lon":-0.01413,"name":"Lewisham Station   / Loampit Vale","stopLetter":"F","topMostParentId":"490001177F","towards":"Deptford Or New Cross"},{"icsId":"1008549","id":"490008549W","lat":51.46497,"lon":-0.01747,"name":"Loampit Vale / Jerrard Street","parentId":"490G00008549","stationId":"490G00008549","stopLetter":"SG","topMostParentId":"490G00008549","towards":"New Cross"},{"icsId":"1013896","id":"490013896W","lat":51.4667,"lon":-0.02161,"name":"Undercliff Road","parentId":"490G00013896","stationId":"490G00013896","stopLetter":"SH","topMostParentId":"490G00013896","towards":"New Cross"},{"icsId":"1009107","id":"490009107W","lat":51.4683,"lon":-0.02556,"name":"Lewisham College","parentId":"490G000635","stationId":"490G000635","stopLetter":"SJ","topMostParentId":"490G000635","towards":"Peckham"},{"icsId":"1009441","id":"490009441W","lat":51.4707,"lon":-0.02942,"name":"Lucas Street","parentId":"490G00009441","stationId":"490G00009441","stopLetter":"D","topMostParentId":"490G00009441","towards":"Peckham"},{"icsId":"1009530","id":"490009530N","lat":51.47174,"lon":-0.03075,"name":"Malpas Road","parentId":"490G00009530","stationId":"490G00009530","stopLetter":"E","topMostParentId":"490G00009530","towards":"Peckham"},{"icsId":"1003298","id":"490003298N","lat":51.47353,"lon":-0.03344,"name":"Amersham Road","parentId":"490G00003298","stationId":"490G00003298","stopLetter":"F","topMostParentId":"490G00003298","towards":"Bricklayers Arms Or Peckham"},{"icsId":"1007276","id":"490007276Y","lat":51.47505,"lon":-0.03533,"name":"Marquis of Granby / Goldsmiths","parentId":"490G00007276","stationId":"490G00007276","stopLetter":"Y","topMostParentId":"490G00007276","towards":"Peckham"},{"icsId":"1000156","id":"490000156O","lat":51.47505,"lon":-0.03945,"name":"New Cross Gate Station","stopLetter":"O","topMostParentId":"490000156O","towards":"Peckham Or Bricklayers Arms"},{"icsId":"1010204","id":"490010204K","lat":51.47425,"lon":-0.04526,"name":"New Cross Bus Garage","parentId":"490G00010204","stationId":"490G00010204","stopLetter":"K","topMostParentId":"490G00010204","towards":"Peckham"},{"icsId":"1010205","id":"490010205A","lat":51.47391,"lon":-0.04859,"name":"New Cross Fire Station","parentId":"490G00010205","stationId":"490G00010205","stopLetter":"A","topMostParentId":"490G00010205","towards":"East Dulwich Or Camberwell Green"},{"icsId":"1011088","id":"490011088QA","lat":51.47305,"lon":-0.05208,"name":"Pomeroy Street","parentId":"490G00011088","stationId":"490G00011088","stopLetter":"QA","topMostParentId":"490G00011088","towards":"East Dulwich Or Camberwell Green"},{"icsId":"1001233","id":"490001233QB","lat":51.4736,"lon":-0.05918,"name":"Queen's Road Peckham Station","stopLetter":"QB","topMostParentId":"490001233QB","towards":"Camberwell Or East Dulwich"},{"icsId":"1004799","id":"490004799QC","lat":51.47393,"lon":-0.06175,"name":"Carlton Grove","parentId":"490G00004799","stationId":"490G00004799","stopLetter":"QC","topMostParentId":"490G00004799","towards":"Camberwell Or East Dulwich"},{"icsId":"1005382","id":"490005382J","lat":51.47295,"lon":-0.06561,"name":"Clayton Road","parentId":"490G00005382","stationId":"490G00005382","stopLetter":"J","topMostParentId":"490G00005382","towards":"Camberwell Or Elephant & Castle"},{"icsId":"1007768","id":"490011842R","lat":51.47267,"lon":-0.06982,"name":"Hanover Park","parentId":"490G00007768","stationId":"490G00007768","stopLetter":"R","topMostParentId":"490G00007768","towards":"Brixton, Oval Or Elephant & Castle"},{"icsId":"1014252","id":"490014252W","lat":51.47373,"lon":-0.07339,"name":"Harris Academy","parentId":"490G00014252","stationId":"490G00014252","stopLetter":"S","topMostParentId":"490G00014252","towards":"Brixton, Oval Or Elephant & Castle"},{"icsId":"1012248","id":"490012248W","lat":51.4742,"lon":-0.07655,"name":"Peckham Road / Southampton Way","parentId":"490G00012248","stationId":"490G00012248","stopLetter":"T","topMostParentId":"490G00012248","towards":"Brixton, Oval Or Elephant & Castle"},{"icsId":"1012249","id":"490012249N","lat":51.47642,"lon":-0.07931,"name":"Southampton Way Estate","parentId":"490G00012249","stationId":"490G00012249","stopLetter":"D","topMostParentId":"490G00012249","towards":"Elephant & Castle"},{"icsId":"1011974","id":"490011974N","lat":51.47767,"lon":-0.08171,"name":"Sedgmoor Place","parentId":"490G00011974","stationId":"490G00011974","stopLetter":"E","topMostParentId":"490G00011974","towards":"Elephant & Castle"},{"icsId":"1005631","id":"490005631N","lat":51.47951,"lon":-0.08546,"name":"Cottage Green","parentId":"490G00005631","stationId":"490G00005631","stopLetter":"F","topMostParentId":"490G00005631","towards":"Elephant & Castle"},{"icsId":"1012710","id":"490012710N","lat":51.48233,"lon":-0.08577,"name":"St George's Way / Burgess Park","parentId":"490G00012710","stationId":"490G00012710","stopLetter":"X","topMostParentId":"490G00012710","towards":"Elephant & Castle"},{"icsId":"1003143","id":"490003143E","lat":51.48424,"lon":-0.08526,"name":"Albany Road / Wells Way","parentId":"490G00003143","stationId":"490G00003143","stopLetter":"O","topMostParentId":"490G00003143","towards":"Elephant & Castle Or Tower Bridge"},{"icsId":"1003274","id":"490003274N","lat":51.48727,"lon":-0.08489,"name":"Alsace Road","parentId":"490G00003274","stationId":"490G00003274","stopLetter":"A","topMostParentId":"490G00003274","towards":"Elephant & Castle Or Tower Bridge"},{"icsId":"1019184","id":"490013658N1","lat":51.48924,"lon":-0.08671,"name":"East Street","parentId":"490G00019184","stationId":"490G00019184","stopLetter":"B","topMostParentId":"490G00019184","towards":"London Bridge"},{"icsId":"1003557","id":"490003557N","lat":51.49132,"lon":-0.08956,"name":"Balfour Street","parentId":"490G00003557","stationId":"490G00003557","stopLetter":"C","topMostParentId":"490G00003557","towards":"London Bridge"},{"icsId":"1015379","id":"490015379N","lat":51.49171,"lon":-0.09166,"name":"Larcom Street","parentId":"490G00015379","stationId":"490G00015379","stopLetter":"RU","topMostParentId":"490G00015379","towards":"London Bridge"},{"icsId":"1000715","id":"490000715Z","lat":51.49232,"lon":-0.09593,"name":"Elephant Park","parentId":"490G000133","stationId":"490G000133","stopLetter":"->W","topMostParentId":"490G000133","towards":"Elephant & Castle"},{"icsId":"1007739","id":"490007739N","lat":51.49223,"lon":-0.09838,"name":"Hampton Street","parentId":"490G00007739","stationId":"490G00007739","stopLetter":"->N","topMostParentId":"490G00007739","towards":"Blackfriars Or London Bridge"},{"icsId":"1000073","id":"490000073S","lat":51.49396,"lon":-0.10072,"name":"Elephant & Castle Station","stopLetter":"S","topMostParentId":"490000073S","towards":"London Bridge","zone":"1+2"},{"icsId":"1009297","id":"490000073F","lat":51.49643,"lon":-0.09998,"name":"Elephant & Castle / Newington Causeway","parentId":"490G000644","stationId":"490G000644","stopLetter":"F","topMostParentId":"490G000644","towards":"Southwark Bridge, Bermondsey Or London Bridge"}]}]}