{"direction":"outbound","lineId":"137","lineName":"137","mode":"bus","stopPointSequences":[{"stopPoint":[{"icsId":"1013186","id":"490013186TA","lat":51.44261,"lon":-0.12476,"name":"Telford Avenue","parentId":"490G00013186","stationId":"490G00013186","stopLetter":"TA","topMostParentId":"490G00013186","towards":"Brixton Or Clapham Common"},{"icsId":"1005234","id":"490005234N","lat":51.44459,"lon":-0.12475,"name":"Christchurch Road","parentId":"490G00005234","stationId":"490G00005234","stopLetter":"BS","topMostParentId":"490G00005234","towards":"Brixton Or Clapham Common"},{"icsId":"1012931","id":"490012931W","lat":51.44596,"lon":-0.12687,"name":"Streatham Place","parentId":"490G00012931","stationId":"490G00012931","stopLetter":"BP","topMostParentId":"490G00012931","towards":"Clapham Common"},{"icsId":"1010243","id":"490010243W","lat":51.44716,"lon":-0.12954,"name":"Atkins Road / New Park Road","parentId":"490G00010243","stationId":"490G00010243","stopLetter":"H","topMostParentId":"490G00010243","towards":"Clapham Common"},{"icsId":"1003472","id":"490003472N","lat":51.4484,"lon":-0.13177,"name":"Kings Avenue / Atkins Road","parentId":"490G00003472","stationId":"490G00003472","stopLetter":"J","topMostParentId":"490G00003472","towards":"Brixton"},{"icsId":"1013621","id":"490013621N","lat":51.45166,"lon":-0.13055,"name":"Thorncliffe Road","parentId":"490G00013621","stationId":"490G00013621","stopLetter":"K","topMostParentId":"490G00013621","towards":"Brixton"},{"icsId":"1005350","id":"490005350N","lat":51.4546,"lon":-0.12954,"name":"Clarence Avenue","parentId":"490G00005350","stationId":"490G00005350","stopLetter":"L","topMostParentId":"490G00005350","towards":"Brixton"},{"icsId":"1009460","id":"490009460N","lat":51.45787,"lon":-0.12906,"name":"Lyham Road","parentId":"490G00009460","stationId":"490G00009460","stopLetter":"M","topMostParentId":"490G00009460","towards":"Brixton"},{"icsId":"1003796","id":"490003796D","lat":51.45965,"lon":-0.12974,"name":"Bedford Road","parentId":"490G00003796","stationId":"490G00003796","stopLetter":"D","topMostParentId":"490G00003796","towards":"Battersea Park Or Clapham Junction"},{"icsId":"1010776","id":"490010776W","lat":51.45959,"lon":-0.13397,"name":"Park Hill","parentId":"490G00010776","stationId":"490G00010776","stopLetter":"F","topMostParentId":"490G00010776","towards":"Battersea Park Or Clapham Junction"},{"icsId":"1000050","id":"490000050K","lat":51.46152,"lon":-0.13821,"name":"Clapham Common Station","stopLetter":"K","topMostParentId":"490000050K","towards":"Battersea Park Or Clapham Junction","zone":"2"},{"icsId":"1015236","id":"490015236M","lat":51.4611,"lon":-0.14036,"name":"Long Road / Clapham Common","parentId":"490G000883","stationId":"490G000883","stopLetter":"M","topMostParentId":"490G000883","towards":"Battersea Park Or Clapham Junction"},{"icsId":"1011673","id":"490011673W","lat":51.46118,"lon":-0.14454,"name":"Rookery Road","parentId":"490G00011673","stationId":"490G00011673","stopLetter":"N","topMostParentId":"490G00011673","towards":"Battersea Park Or Clapham Junction"},{"icsId":"1004912","id":"490004912N","lat":51.46206,"lon":-0.14922,"name":"Cedars Road / Clapham Common North Side","parentId":"490G00004912","stationId":"490G00004912","stopLetter":"Q","topMostParentId":"490G00004912","towards":"Battersea Park Or Clapham Junction"},{"icsId":"1005919","id":"490005919N","lat":51.46432,"lon":-0.14996,"name":"Sacred Heart House","parentId":"490G00005919","stationId":"490G00005919","stopLetter":"N","topMostParentId":"490G00005919","towards":"Battersea Park Or Clapham Junction"},{"icsId":"1015538","id":"490015538N1","lat":51.46556,"lon":-0.15034,"name":"Wandsworth Road","parentId":"490G00015538","stationId":"490G00015538","stopLetter":"P","topMostParentId":"490G00015538","towards":"Battersea Park Or Clapham Junction"},{"icsId":"1014192","id":"490014192N2","lat":51.46685,"lon":-0.15072,"name":"Queenstown Road / Wandsworth Road","parentId":"490G00014192","stationId":"490G00014192","stopLetter":"Q","topMostParentId":"490G00014192","towards":"Sloane Square Or Vauxhall"},{"icsId":"1011163","id":"490011163N","lat":51.47068,"lon":-0.14946,"name":"Prairie Street","parentId":"490G00011163","stationId":"490G00011163","stopLetter":"R","topMostParentId":"490G00011163","towards":"Sloane Square Or Vauxhall"},{"icsId":"1012161","id":"490012161N","lat":51.47284,"lon":-0.14854,"name":"Silverthorne Road","parentId":"490G00012161","stationId":"490G00012161","stopLetter":"S","topMostParentId":"490G00012161","towards":"Sloane Square Or Vauxhall"},{"icsId":"1001234","id":"490001234N","lat":51.47432,"lon":-0.14702,"name":"Queenstown Road Station","stopLetter":"K","topMostParentId":"490001234N","towards":"Sloane Square Or Vauxhall"},{"icsId":"1001016","id":"490001016D","lat":51.47695,"lon":-0.14846,"name":"Battersea Park Station","stopLetter":"D","topMostParentId":"490001016D","towards":"Sloane Square Or Victoria"},{"icsId":"1012235","id":"490012235N","lat":51.48015,"lon":-0.149,"name":"Sopwith Way","parentId":"490G00012235","stationId":"490G00012235","stopLetter":"E","topMostParentId":"490G00012235","towards":"Sloane Square Or Victoria"},{"icsId":"1005064","id":"490005064N","lat":51.48322,"lon":-0.14968,"name":"Battersea Park / Chelsea Gate","parentId":"490G00005064","stationId":"490G00005064","stopLetter":"CJ","topMostParentId":"490G00005064","towards":"Sloane Square Or Victoria"},{"icsId":"1009205","id":"490009205N","lat":51.48635,"lon":-0.1508,"name":"Lister Hospital","parentId":"490G00009205","stationId":"490G00009205","stopLetter":"CK","topMostParentId":"490G00009205","towards":"South Kensington, Knightsbridge Or Victoria"},{"icsId":"1005063","id":"490005063N","lat":51.48833,"lon":-0.15397,"name":"Royal Hospital Chelsea","parentId":"490G00005063","stationId":"490G00005063","stopLetter":"T","topMostParentId":"490G00005063","towards":"Knightsbridge Or South Kensington"},{"icsId":"1011764","id":"490011763N","lat":51.48995,"lon":-0.15647,"name":"Royal Hospital Road","parentId":"490G00011764","stationId":"490G00011764","stopLetter":"L","topMostParentId":"490G00011764","towards":"South Kensington, Fulham Or Knightsbridge"},{"icsId":"1000206","id":"490000206K","lat":51.49145,"lon":-0.15749,"name":"Sloane Square Station","stopLetter":"K","topMostParentId":"490000206K","towards":"South Kensington, Fulham Or Knightsbridge","zone":"1"},{"icsId":"1015175","id":"490015175A","lat":51.49333,"lon":-0.15799,"name":"Sloane Street / Sloane Square Station","parentId":"490G000868","stationId":"490G000868","stopLetter":"A","topMostParentId":"490G000868","towards":"Hyde Park Corner Or South Kensington"},{"icsId":"1011097","id":"490011097N","lat":51.49636,"lon":-0.15889,"name":"Pont Street","parentId":"490G00011097","stationId":"490G00011097","stopLetter":"KM","topMostParentId":"490G00011097","towards":"Hyde Park Corner Or South Kensington"},{"icsId":"1000130","id":"490000130K1","lat":51.5009,"lon":-0.16021,"name":"Knightsbridge Station","parentId":"940GZZLUKNB","stationId":"940GZZLUKNB","stopLetter":"KJ","topMostParentId":"940GZZLUKNB","towards":"Hyde Park Corner Or South Kensington","zone":"1"},{"icsId":"1000119","id":"490000119W","lat":51.50304,"lon":-0.15316,"name":"Hyde Park Corner Station","stopLetter":"W","topMostParentId":"490000119W","towards":"Marble Arch","zone":"1"},{"icsId":"1009277","id":"490009277Y","lat":51.50509,"lon":-0.15211,"name":"London Hilton Hotel","parentId":"490G00009277","stationId":"490G00009277","stopLetter":"Y","topMostParentId":"490G00009277","towards":"Marble Arch"},{"icsId":"1006111","id":"490006111N2","lat":51.5083,"lon":-0.15479,"name":"Dorchester Hotel","parentId":"490G00006111","stationId":"490G00006111","stopLetter":"T","topMostParentId":"490G00006111","towards":"Baker Street, Edgware Road Or Oxford Circus"},{"icsId":"1000144","id":"490000144W","lat":51.51161,"lon":-0.15835,"name":"Marble Arch","stopLetter":"W","topMostParentId":"490000144W","towards":"Baker Street, Edgware Road Or Oxford Circus","zone":"1"}]}]}