{"direction":"outbound","lineId":"14","lineName":"14","mode":"bus","stopPointSequences":[{"stopPoint":[{"icsId":"1011285","id":"490011285E2","lat":51.45351,"lon":-0.22117,"name":"Putney Heath / Green Man","parentId":"490G00011285","stationId":"490G00011285","stopLetter":"L","topMostParentId":"490G00011285","towards":"Putney Bridge, Southfields Or Wandsworth"},{"icsId":"1011299","id":"490011285N","lat":51.45418,"lon":-0.22026,"name":"Putney Hill / Green Man","parentId":"490G00011299","stationId":"490G00011299","stopLetter":"M","topMostParentId":"490G00011299","towards":"Putney Bridge Or Wandsworth"},{"icsId":"1009494","id":"490012340N","lat":51.45728,"lon":-0.21875,"name":"Lytton Grove","parentId":"490G00009494","stationId":"490G00009494","stopLetter":"N","topMostParentId":"490G00009494","towards":"Putney Bridge Or Wandsworth"},{"icsId":"1004634","id":"490001231N","lat":51.46,"lon":-0.21752,"name":"St John's Avenue","parentId":"490G00004634","stationId":"490G00004634","stopLetter":"C","topMostParentId":"490G00004634"},{"icsId":"1001231","id":"490001231B","lat":51.46147,"lon":-0.21714,"name":"Putney Station","stopLetter":"B","topMostParentId":"490001231B","towards":"Fulham"},{"icsId":"1011289","id":"490011286M","lat":51.46443,"lon":-0.21523,"name":"Putney Exchange","parentId":"490G00011289","stationId":"490G00011289","stopLetter":"M","topMostParentId":"490G00011289","towards":"Fulham"},{"icsId":"1011278","id":"490011278S","lat":51.46674,"lon":-0.21331,"name":"St Mary's Church / Putney Pier","parentId":"490G00011278","stationId":"490G00011278","stopLetter":"S","topMostParentId":"490G00011278","towards":"Fulham Or Hammersmith"},{"icsId":"1007281","id":"490015157V","lat":51.46804,"lon":-0.21184,"name":"Putney Bridge","parentId":"490G000536","stationId":"490G000536","stopLetter":"FH","topMostParentId":"490G000536","towards":"Chelsea, Fulham Or Hammersmith"},{"icsId":"1008436","id":"490007051N","lat":51.471,"lon":-0.2111,"name":"Fulham High Street","parentId":"490G00008436","stationId":"490G00008436","stopLetter":"FJ","topMostParentId":"490G00008436","towards":"Fulham, Earls Court Or Hammersmith"},{"icsId":"1007054","id":"490007054E","lat":51.47195,"lon":-0.21062,"name":"Fulham Palace Road","parentId":"490G00007054","stationId":"490G00007054","stopLetter":"FP","topMostParentId":"490G00007054","towards":"Fulham Broadway"},{"icsId":"1010123","id":"490010123E2","lat":51.47392,"lon":-0.20749,"name":"Munster Road","parentId":"490G00010123","stationId":"490G00010123","stopLetter":"FR","topMostParentId":"490G00010123","towards":"Fulham Broadway"},{"icsId":"1011385","id":"490011385E","lat":51.47637,"lon":-0.20457,"name":"Radipole Road","parentId":"490G00011385","stationId":"490G00011385","stopLetter":"S","topMostParentId":"490G00011385","towards":"South Kensington Or Sands End"},{"icsId":"1010861","id":"490010861T","lat":51.47773,"lon":-0.20162,"name":"Parsons Green Lane / Fulham Library","parentId":"490G000699","stationId":"490G000699","stopLetter":"T","topMostParentId":"490G000699","towards":"Sands End Or South Kensington"},{"icsId":"1000352","id":"490008547E","lat":51.48022,"lon":-0.19844,"name":"Fulham Broadway","parentId":"490G00000352","stationId":"490G00000352","stopLetter":"E","topMostParentId":"490G00000352","towards":"South Kensington, Sands End Or Wandsworth"},{"icsId":"1000084","id":"490000084L","lat":51.48029,"lon":-0.19448,"name":"Fulham Broadway Station","stopLetter":"L","topMostParentId":"490000084L","towards":"Chelsea Or South Kensington","zone":"2"},{"icsId":"1005075","id":"490005075E","lat":51.48034,"lon":-0.19253,"name":"Chelsea Village","parentId":"490G00005075","stationId":"490G00005075","stopLetter":"U","topMostParentId":"490G00005075","towards":"Chelsea Or South Kensington"},{"icsId":"1005069","id":"490005069E","lat":51.48018,"lon":-0.19002,"name":"Chelsea Football Club","parentId":"490G00005069","stationId":"490G00005069","stopLetter":"V","topMostParentId":"490G00005069","towards":"Chelsea Or South Kensington"},{"icsId":"1008380","id":"490008380HD","lat":51.48227,"lon":-0.18694,"name":"Hortensia Road","parentId":"490G00008380","stationId":"490G00008380","stopLetter":"HD","topMostParentId":"490G00008380","towards":"South Kensington Or Sloane Square"},{"icsId":"1006437","id":"490006437HE","lat":51.48379,"lon":-0.18489,"name":"Edith Grove","parentId":"490G00006437","stationId":"490G00006437","stopLetter":"HE","topMostParentId":"490G00006437","towards":"Sloane Square Or South Kensington"},{"icsId":"1005062","id":"490005062HF","lat":51.48515,"lon":-0.18249,"name":"Chelsea and Westminster Hospital","parentId":"490G00005062","stationId":"490G00005062","stopLetter":"HF","topMostParentId":"490G00005062","towards":"Sloane Square Or South Kensington"},{"icsId":"1003726","id":"490003726E","lat":51.48756,"lon":-0.17855,"name":"Fulham Road / Beaufort Street","parentId":"490G00003726","stationId":"490G00003726","stopLetter":"HH","topMostParentId":"490G00003726","towards":"Sloane Square Or South Kensington"},{"icsId":"1006514","id":"490006514N","lat":51.48911,"lon":-0.17615,"name":"Old Church Street","parentId":"490G00006514","stationId":"490G00006514","stopLetter":"HJ","topMostParentId":"490G00006514","towards":"South Kensington Or Sloane Square"},{"icsId":"1015421","id":"490015421E","lat":51.49072,"lon":-0.17373,"name":"Royal Brompton Hosp / Royal Marsden Hosp","parentId":"490G00015421","stationId":"490G00015421","stopLetter":"HM","topMostParentId":"490G00015421","towards":"Hyde Park Corner Or Sloane Square"},{"icsId":"1010603","id":"490010603N","lat":51.49227,"lon":-0.17227,"name":"Onslow Square","parentId":"490G00010603","stationId":"490G00010603","stopLetter":"HT","topMostParentId":"490G00010603","towards":"Hyde Park Corner Or Kensington High Street"},{"icsId":"1015173","id":"490015173D","lat":51.49344,"lon":-0.17375,"name":"Sth Kensington Stn  / Old Brompton Rd","parentId":"490G000866","stationId":"490G000866","stopLetter":"B","topMostParentId":"490G000866","towards":"Hyde Park Corner Or Kensington High Street"},{"icsId":"1000212","id":"490000212E","lat":51.49446,"lon":-0.17481,"name":"South Kensington Station","stopLetter":"E","topMostParentId":"490000212E","towards":"Knightsbridge Or Royal Albert Hall","zone":"1"},{"icsId":"1004436","id":"490004436C","lat":51.49623,"lon":-0.17088,"name":"Victoria and Albert Museum","parentId":"490G00004436","stationId":"490G00004436","stopLetter":"M","topMostParentId":"490G00004436","towards":"Hyde Park Corner Or Sloane Square"},{"icsId":"1004437","id":"490004437E","lat":51.49762,"lon":-0.16767,"name":"Brompton Square","parentId":"490G00004437","stationId":"490G00004437","stopLetter":"KW","topMostParentId":"490G00004437","towards":"Sloane Square Or Hyde Park Corner"},{"icsId":"1007841","id":"490007841KB","lat":51.49943,"lon":-0.16423,"name":"Harrods","parentId":"490G00007841","stationId":"490G00007841","stopLetter":"KB","topMostParentId":"490G00007841","towards":"Hyde Park Corner Or Sloane Square"},{"icsId":"1000130","id":"490000130KD","lat":51.50072,"lon":-0.16235,"name":"Knightsbridge Station","stopLetter":"KD","topMostParentId":"490000130KD","towards":"Hyde Park Corner Or Sloane Square","zone":"1"},{"icsId":"1000119","id":"490000119T","lat":51.50302,"lon":-0.15351,"name":"Hyde Park Corner Station","stopLetter":"T","topMostParentId":"490000119T","towards":"Oxford Circus Or Piccadilly Circus","zone":"1"},{"icsId":"1010574","id":"490010574D","lat":51.50428,"lon":-0.14803,"name":"Old Park Lane / Hard Rock Cafe","parentId":"490G00010574","stationId":"490G00010574","stopLetter":"D","topMostParentId":"490G00010574","towards":"Tottenham Court Road"},{"icsId":"1000093","id":"490000093PB","lat":51.50701,"lon":-0.14255,"name":"Green Park Station","stopLetter":"J","topMostParentId":"490000093PB","towards":"Trafalgar Square Or Tottenham Court Road","zone":"1"},{"icsId":"1010526","id":"490011748H","lat":51.50829,"lon":-0.13936,"name":"Old Bond Street / Royal Academy","parentId":"490G00010526","stationId":"490G00010526","stopLetter":"L","topMostParentId":"490G00010526","towards":"Trafalgar Square Or Tottenham Court Road"},{"icsId":"1000179","id":"490000179B","lat":51.50931,"lon":-0.13624,"name":"Piccadilly Circus","stopLetter":"B","topMostParentId":"490000179B","towards":"Trafalgar Square Or Tottenham Court Road","zone":"1"},{"icsId":"1011791","id":"490015185H","lat":51.5105,"lon":-0.13421,"name":"Trocadero / Haymarket","parentId":"490G00011791","stationId":"490G00011791","stopLetter":"H","topMostParentId":"490G00011791","towards":"Holborn Or Warren Street Station"},{"icsId":"1016425","id":"490016425WA","lat":51.51268,"lon":-0.13039,"name":"Gerrard Place / Chinatown","parentId":"490G00016425","stationId":"490G00016425","stopLetter":"P","topMostParentId":"490G00016425","towards":"Holborn Or Warren Street Station"},{"icsId":"1019157","id":"490004695A","lat":51.51434,"lon":-0.1298,"name":"Denmark Street","parentId":"490G00019157","stationId":"490G00019157","stopLetter":"A","topMostParentId":"490G00019157","towards":"Warren Street Or Holborn"},{"icsId":"1003794","id":"490004359OA","lat":51.51844,"lon":-0.12563,"name":"British Museum","parentId":"490G00003794","stationId":"490G00003794","stopLetter":"U","topMostParentId":"490G00003794","towards":"Russell Square"},{"icsId":"1011816","id":"490011816N","lat":51.52012,"lon":-0.12608,"name":"Montague Street","parentId":"490G00011816","stationId":"490G00011816","stopLetter":"L","topMostParentId":"490G00011816","towards":"Russell Square"},{"icsId":"1000200","id":"490000200E","lat":51.52233,"lon":-0.12713,"name":"Russell Square","stopLetter":"E","topMostParentId":"490000200E","towards":"Piccadilly Circus Or Waterloo","zone":"1"}]}]}