{"direction":"outbound","lineId":"141","lineName":"141","mode":"bus","stopPointSequences":[{"stopPoint":[{"icsId":"1010333","id":"490010333W","lat":51.61126,"lon":-0.10946,"name":"Tottenhall Road","parentId":"490G00010333","stationId":"490G00010333","stopLetter":"W","topMostParentId":"490G00010333","towards":"Wood Green"},{"icsId":"1003875","id":"490003925S","lat":51.60842,"lon":-0.11027,"name":"Berkshire Gardens","parentId":"490G00003875","stationId":"490G00003875","stopLetter":"BT","topMostParentId":"490G00003875","towards":"Turnpike Lane"},{"icsId":"1009709","id":"490009709S","lat":51.60701,"lon":-0.11092,"name":"Arcadian Gardens","parentId":"490G00009709","stationId":"490G00009709","stopLetter":"BU","topMostParentId":"490G00009709","towards":"Wood Green Or Turnpike Lane"},{"icsId":"1010274","id":"490010274S","lat":51.60341,"lon":-0.11173,"name":"Nightingale Road","parentId":"490G00010274","stationId":"490G00010274","stopLetter":"BV","topMostParentId":"490G00010274","towards":"Turnpike Lane"},{"icsId":"1004746","id":"490004746S","lat":51.60179,"lon":-0.11203,"name":"Canning Crescent","parentId":"490G00004746","stationId":"490G00004746","stopLetter":"BW","topMostParentId":"490G00004746","towards":"Wood Green Or Turnpike Lane"},{"icsId":"1007797","id":"490007797S","lat":51.59995,"lon":-0.11127,"name":"Haringey Civic Centre","parentId":"490G00007797","stationId":"490G00007797","stopLetter":"BY","topMostParentId":"490G00007797","towards":"Turnpike Lane"},{"icsId":"1000275","id":"490000275D","lat":51.59759,"lon":-0.11019,"name":"Wood Green Station","stopLetter":"D","topMostParentId":"490000275D","towards":"Turnpike Lane Station","zone":"3"},{"icsId":"1019962","id":"490015567G2","lat":51.59663,"lon":-0.10924,"name":"Lordship Lane","parentId":"490G000971","stationId":"490G000971","stopLetter":"G","topMostParentId":"490G000971","towards":"Turnpike Lane"},{"icsId":"1009461","id":"490009461KA","lat":51.59314,"lon":-0.10669,"name":"Brampton Park Road","parentId":"490G00009461","stationId":"490G00009461","stopLetter":"KA","topMostParentId":"490G00009461","towards":"Manor House Or Tottenham"},{"icsId":"1000241","id":"490000241M","lat":51.59084,"lon":-0.10367,"name":"Turnpike Lane Station","stopLetter":"M","topMostParentId":"490000241M","towards":"Manor House Or Hornsey","zone":"3"},{"icsId":"1014465","id":"490014465Z","lat":51.58793,"lon":-0.10123,"name":"West Green Road","parentId":"490G00014465","stationId":"490G00014465","stopLetter":"Z","topMostParentId":"490G00014465","towards":"Manor House"},{"icsId":"1006728","id":"490006728S","lat":51.58621,"lon":-0.10064,"name":"Falkland Road","parentId":"490G00006728","stationId":"490G00006728","stopLetter":"H","topMostParentId":"490G00006728","towards":"Manor House"},{"icsId":"1003916","id":"490003916S","lat":51.58471,"lon":-0.09985,"name":"Beresford Road","parentId":"490G00003916","stationId":"490G00003916","stopLetter":"HZ","topMostParentId":"490G00003916","towards":"Manor House"},{"icsId":"1012434","id":"490012434HK","lat":51.58298,"lon":-0.09976,"name":"St Ann's Road","parentId":"490G00012434","stationId":"490G00012434","stopLetter":"HK","topMostParentId":"490G00012434","towards":"Manor House"},{"icsId":"1009719","id":"490011676HN","lat":51.58101,"lon":-0.09938,"name":"Mattison Road","parentId":"490G00009719","stationId":"490G00009719","stopLetter":"HN","topMostParentId":"490G00009719","towards":"Manor House"},{"icsId":"1001139","id":"490001139HO","lat":51.5778,"lon":-0.09857,"name":"Harringay Green Lanes Station","stopLetter":"HM","topMostParentId":"490001139HO","towards":"Finsbury Park Or Newington Green"},{"icsId":"1006574","id":"490006574HB","lat":51.57597,"lon":-0.09845,"name":"Endymion Road","parentId":"490G00006574","stationId":"490G00006574","stopLetter":"HB","topMostParentId":"490G00006574","towards":"Finsbury Park Or Newington Green"},{"icsId":"1011743","id":"490011743HC","lat":51.573,"lon":-0.09724,"name":"Rowley Gardens","parentId":"490G00011743","stationId":"490G00011743","stopLetter":"HC","topMostParentId":"490G00011743","towards":"Finsbury Park Or Newington Green"},{"icsId":"1000142","id":"490000142C","lat":51.57134,"lon":-0.09624,"name":"Manor House Station","stopLetter":"C","topMostParentId":"490000142C","towards":"Newington Green","zone":"2+3"},{"icsId":"1011751","id":"490000142J","lat":51.56985,"lon":-0.09516,"name":"Portland Rise Estate","parentId":"490G00011751","stationId":"490G00011751","stopLetter":"J","topMostParentId":"490G00011751","towards":"Newington Green"},{"icsId":"1011127","id":"490011127S","lat":51.56721,"lon":-0.09394,"name":"Gloucester Drive","parentId":"490G00011127","stationId":"490G00011127","stopLetter":"L","topMostParentId":"490G00011127","towards":"Newington Green"},{"icsId":"1009364","id":"490009364S","lat":51.56439,"lon":-0.09266,"name":"Lordship Park","parentId":"490G00009364","stationId":"490G00009364","stopLetter":"PD","topMostParentId":"490G00009364","towards":"Newington Green"},{"icsId":"1008767","id":"490008767S","lat":51.56254,"lon":-0.0917,"name":"Kings Crescent Estate","parentId":"490G00008767","stationId":"490G00008767","stopLetter":"PJ","topMostParentId":"490G00008767","towards":"Newington Green"},{"icsId":"1016700","id":"490008766S","lat":51.55956,"lon":-0.09129,"name":"Riversdale Road","parentId":"490G00016700","stationId":"490G00016700","stopLetter":"PK","topMostParentId":"490G00016700","towards":"Newington Green Or Stoke Newington"},{"icsId":"1019866","id":"490012836S","lat":51.5569,"lon":-0.09025,"name":"Stoke Newington Church Street","parentId":"490G00019866","stationId":"490G00019866","stopLetter":"PN","topMostParentId":"490G00019866","towards":"Angel Islington Or Old Street"},{"icsId":"1004600","id":"490004600S","lat":51.55491,"lon":-0.08934,"name":"Petherton Road","parentId":"490G00004600","stationId":"490G00004600","stopLetter":"NP","topMostParentId":"490G00004600","towards":"Angel Islington Or Old Street"},{"icsId":"1003114","id":"490003114S","lat":51.55333,"lon":-0.08802,"name":"Aden Grove","parentId":"490G00003114","stationId":"490G00003114","stopLetter":"NQ","topMostParentId":"490G00003114","towards":"Angel Islington Or Old Street"},{"icsId":"1010224","id":"490010224S3","lat":51.55248,"lon":-0.08609,"name":"Albion Road","parentId":"490G000675","stationId":"490G000675","stopLetter":"NR","topMostParentId":"490G000675","towards":"Angel Islington Or Old Street"},{"icsId":"1015396","id":"490015396S","lat":51.55164,"lon":-0.08453,"name":"Newington Green","parentId":"490G000893","stationId":"490G000893","stopLetter":"NE","topMostParentId":"490G000893","towards":"Angel Islington, Finsbury Park Or Hoxton"},{"icsId":"1009869","id":"490009869S","lat":51.54918,"lon":-0.08435,"name":"Mildmay Grove","parentId":"490G00009869","stationId":"490G00009869","stopLetter":"NH","topMostParentId":"490G00009869","towards":"Old Street"},{"icsId":"1015133","id":"490015133S","lat":51.54698,"lon":-0.08378,"name":"Balls Pond Road","parentId":"490G00015133","stationId":"490G00015133","stopLetter":"BB","topMostParentId":"490G00015133","towards":"Old Street"},{"icsId":"1003367","id":"490003367S","lat":51.54421,"lon":-0.08391,"name":"Southgate Road / Ardleigh Road","parentId":"490G00003367","stationId":"490G00003367","stopLetter":"BA","topMostParentId":"490G00003367","towards":"Old Street"},{"icsId":"1015109","id":"490015109S","lat":51.54207,"lon":-0.08471,"name":"Northchurch Road","parentId":"490G00015109","stationId":"490G00015109","stopLetter":"XB","topMostParentId":"490G00015109","towards":"Old Street"},{"icsId":"1006169","id":"490006169S1","lat":51.54029,"lon":-0.08538,"name":"Downham Road","parentId":"490G00006169","stationId":"490G00006169","stopLetter":"XC","topMostParentId":"490G00006169","towards":"Old Street"},{"icsId":"1015282","id":"490015282S","lat":51.53801,"lon":-0.08622,"name":"Canal Walk","parentId":"490G00015282","stationId":"490G00015282","stopLetter":"XD","topMostParentId":"490G00015282","towards":"Moorgate"},{"icsId":"1003601","id":"490003601W","lat":51.53626,"lon":-0.08929,"name":"Baring Street","parentId":"490G00003601","stationId":"490G00003601","stopLetter":"XG","topMostParentId":"490G00003601","towards":"Moorgate"},{"icsId":"1006289","id":"490006289S","lat":51.53401,"lon":-0.08793,"name":"Eagle Wharf Road","parentId":"490G00006289","stationId":"490G00006289","stopLetter":"XL","topMostParentId":"490G00006289","towards":"Moorgate"},{"icsId":"1009942","id":"490009942S","lat":51.53263,"lon":-0.08711,"name":"Mintern Street","parentId":"490G00009942","stationId":"490G00009942","stopLetter":"XM","topMostParentId":"490G00009942","towards":"Moorgate Or London Fields"},{"icsId":"1003960","id":"490003960S","lat":51.52979,"lon":-0.08671,"name":"Bevenden Street","parentId":"490G00003960","stationId":"490G00003960","stopLetter":"XN","topMostParentId":"490G00003960","towards":"Moorgate"},{"icsId":"1015193","id":"490015193D","lat":51.52738,"lon":-0.08791,"name":"Old Street Stn   / Moorfields Eye Hosp","parentId":"490G000872","stationId":"490G000872","stopLetter":"D","topMostParentId":"490G000872","towards":"Moorgate"},{"icsId":"1015195","id":"490015195M","lat":51.5242,"lon":-0.08742,"name":"City Road / Leonard Street","parentId":"490G000873","stationId":"490G000873","stopLetter":"M","topMostParentId":"490G000873","towards":"Bank"},{"icsId":"1006612","id":"490006612E","lat":51.52291,"lon":-0.08716,"name":"Epworth Street","parentId":"490G00006612","stationId":"490G00006612","stopLetter":"E","topMostParentId":"490G00006612","towards":"Bank"},{"icsId":"1001882","id":"490015209K","lat":51.52009,"lon":-0.08733,"name":"Finsbury Square / Moorgate","stopLetter":"K","topMostParentId":"490015209K","towards":"Bank Or Liverpool Street"},{"icsId":"1000149","id":"490000149Z","lat":51.5178,"lon":-0.0884,"name":"Moorgate Station","stopLetter":"L","topMostParentId":"490000149Z","towards":"Aldwych Or London Bridge","zone":"1"},{"icsId":"1004043","id":"490004043P","lat":51.51631,"lon":-0.08225,"name":"Wormwood Street","parentId":"490G00004043","stationId":"490G00004043","stopLetter":"P","topMostParentId":"490G00004043","towards":"Aldgate Or Monument"},{"icsId":"1002303","id":"490004043S","lat":51.51573,"lon":-0.082,"name":"Camomile Street","parentId":"490G00002303","stationId":"490G00002303","stopLetter":"Y","topMostParentId":"490G00002303","towards":"London Bridge Or St Paul's"},{"icsId":"1019174","id":"490000148U","lat":51.51135,"lon":-0.08542,"name":"Fenchurch Street","parentId":"490G000934","stationId":"490G000934","stopLetter":"U","topMostParentId":"490G000934","towards":"London Bridge or Southwark Bridge"},{"icsId":"1000148","id":"490009267E","lat":51.5095,"lon":-0.08703,"name":"Monument Station","stopLetter":"P","topMostParentId":"490009267E","towards":"Borough Or Bermondsey","zone":"1"},{"icsId":"1019954","id":"490000139CZ","lat":51.50513,"lon":-0.08663,"name":"London Bridge Station","parentId":"490G000970","stationId":"490G000970","stopLetter":"C","topMostParentId":"HUBLBG"}]}]}