{"direction":"outbound","lineId":"148","lineName":"148","mode":"bus","stopPointSequences":[{"stopPoint":[{"icsId":"1004687","id":"490004687S","lat":51.47306,"lon":-0.09329,"name":"Denmark Hill / Camberwell Green","parentId":"490G00004687","stationId":"490G00004687","stopLetter":"S","topMostParentId":"490G00004687","towards":"Oval Or Elephant & Castle"},{"icsId":"1015298","id":"490015298F","lat":51.47529,"lon":-0.09328,"name":"Camberwell Green","parentId":"490G00015298","stationId":"490G00015298","stopLetter":"F","topMostParentId":"490G00015298","towards":"Elephant & Castle"},{"icsId":"1009784","id":"490009784D","lat":51.47682,"lon":-0.09408,"name":"Medlar Street","parentId":"490G00009784","stationId":"490G00009784","stopLetter":"D","topMostParentId":"490G00009784","towards":"Elephant & Castle"},{"icsId":"1014979","id":"490014979N2","lat":51.4785,"lon":-0.09423,"name":"Wyndham Road","parentId":"490G00014979","stationId":"490G00014979","stopLetter":"U","topMostParentId":"490G00014979","towards":"Tower Bridge Or Elephant & Castle"},{"icsId":"1004221","id":"490004221N","lat":51.48058,"lon":-0.09446,"name":"Bowyer Place","parentId":"490G00004221","stationId":"490G00004221","stopLetter":"Z","topMostParentId":"490G00004221","towards":"Tower Bridge Or Elephant & Castle"},{"icsId":"1003138","id":"490003138N2","lat":51.48168,"lon":-0.09454,"name":"Camberwell Road / Albany Road","parentId":"490G00003138","stationId":"490G00003138","stopLetter":"X","topMostParentId":"490G00003138","towards":"Tower Bridge Or Elephant & Castle"},{"icsId":"1014501","id":"490014501M","lat":51.4841,"lon":-0.09407,"name":"Westmoreland Road","parentId":"490G00014501","stationId":"490G00014501","stopLetter":"M","topMostParentId":"490G00014501","towards":"Waterloo Or Westminster"},{"icsId":"1006380","id":"490006380H","lat":51.48694,"lon":-0.09523,"name":"East Street","parentId":"490G00006380","stationId":"490G00006380","stopLetter":"H","topMostParentId":"490G00006380","towards":"Waterloo Or Westminster"},{"icsId":"1008975","id":"490008975C","lat":51.48997,"lon":-0.09689,"name":"Larcom Street","parentId":"490G00008975","stationId":"490G00008975","stopLetter":"C","topMostParentId":"490G00008975","towards":"Waterloo Or Westminster"},{"icsId":"1008122","id":"490008122N","lat":51.4914,"lon":-0.09784,"name":"Heygate Street","parentId":"490G00008122","stationId":"490G00008122","stopLetter":"Z","topMostParentId":"490G00008122","towards":"Waterloo Or Westminster"},{"icsId":"1000073","id":"490000073V","lat":51.49447,"lon":-0.10085,"name":"Elephant & Castle Station","stopLetter":"V","topMostParentId":"490000073V","towards":"Waterloo Or Westminster","zone":"1+2"},{"icsId":"1009270","id":"490009270Z","lat":51.49525,"lon":-0.10206,"name":"London College of Communication","parentId":"490G000641","stationId":"490G000641","stopLetter":"Z","topMostParentId":"490G000641","towards":"Pimlico, Vauxhall Or Westminster"},{"icsId":"1008479","id":"490008473N","lat":51.49645,"lon":-0.1059,"name":"St George's Road / Imperial War Museum","parentId":"490G000609","stationId":"490G000609","stopLetter":"N","topMostParentId":"490G000609","towards":"Pimlico Or Westminster"},{"icsId":"1000132","id":"490000132B","lat":51.49856,"lon":-0.11182,"name":"Lambeth North Station","stopLetter":"B","topMostParentId":"490000132B","towards":"Pimlico Or Trafalgar Square","zone":"1"},{"icsId":"1009420","id":"490009420W","lat":51.4994,"lon":-0.11377,"name":"Lower Marsh","parentId":"490G00009420","stationId":"490G00009420","stopLetter":"A","topMostParentId":"490G00009420","towards":"Pimlico Or Trafalgar Square"},{"icsId":"1018956","id":"490005646D","lat":51.50072,"lon":-0.11937,"name":"St Thomas' Hospital / County Hall","parentId":"490G00018956","stationId":"490G00018956","stopLetter":"D","topMostParentId":"490G00018956","towards":"Trafalgar Square Or Victoria"},{"icsId":"1000373","id":"490015048W","lat":51.50016,"lon":-0.1269,"name":"Parliament Square / Westminster Abbey","stopLetter":"P","topMostParentId":"490015048W","towards":"Hyde Park Corner Or Sloane Square"},{"icsId":"1019865","id":"490014495V","lat":51.49869,"lon":-0.13144,"name":"Great Smith Street / Westminster Abbey","parentId":"490G00019865","stationId":"490G00019865","stopLetter":"V","topMostParentId":"490G00019865","towards":"Victoria"},{"icsId":"1000221","id":"490010260SD","lat":51.49758,"lon":-0.1348,"name":"St James's Park Station","stopLetter":"SD","topMostParentId":"490010260SD","towards":"Pimlico, Sloane Square Or Marble Arch","zone":"1"},{"icsId":"1003384","id":"490003384SB","lat":51.49715,"lon":-0.13745,"name":"Westminster City Hall","parentId":"490G000394","stationId":"490G000394","stopLetter":"SB","topMostParentId":"490G000394","towards":"Marble Arch, Pimlico Or Sloane Square"},{"icsId":"1014502","id":"490014496M","lat":51.4966,"lon":-0.1411,"name":"Westminster Cathedral / Victoria Stn","parentId":"490G000830","stationId":"490G000830","stopLetter":"M","topMostParentId":"490G000830","towards":"Marble Arch, Pimlico Or Sloane Square"},{"icsId":"1007544","id":"490007544Q","lat":51.49692,"lon":-0.14556,"name":"Grosvenor Gardens","parentId":"490G000551","stationId":"490G000551","stopLetter":"Q","topMostParentId":"490G000551","towards":"Green Park, Kensington Or Marble Arch"},{"icsId":"1014728","id":"490005138N","lat":51.49938,"lon":-0.14828,"name":"Wilton Street","parentId":"490G00014728","stationId":"490G00014728","stopLetter":"U","topMostParentId":"490G00014728","towards":"Green Park, Kensington Or Marble Arch"},{"icsId":"1000119","id":"490000119K","lat":51.50135,"lon":-0.15105,"name":"Hyde Park Corner","stopLetter":"K","topMostParentId":"490000119K","towards":"Green Park, Kensington Or Marble Arch","zone":"1"},{"icsId":"1009277","id":"490009277Y","lat":51.50509,"lon":-0.15211,"name":"London Hilton Hotel","parentId":"490G00009277","stationId":"490G00009277","stopLetter":"Y","topMostParentId":"490G00009277","towards":"Marble Arch"},{"icsId":"1006111","id":"490006111N2","lat":51.5083,"lon":-0.15479,"name":"Dorchester Hotel","parentId":"490G00006111","stationId":"490G00006111","stopLetter":"T","topMostParentId":"490G00006111","towards":"Baker Street, Edgware Road Or Oxford Circus"},{"icsId":"1000144","id":"490000144W","lat":51.51161,"lon":-0.15835,"name":"Marble Arch","stopLetter":"W","topMostParentId":"490000144W","towards":"Baker Street, Edgware Road Or Oxford Circus","zone":"1"},{"icsId":"1008447","id":"490000144A","lat":51.51283,"lon":-0.16332,"name":"Marble Arch / Bayswater Road","parentId":"490G00008447","stationId":"490G00008447","stopLetter":"A","topMostParentId":"490G00008447","towards":"Notting Hill Gate"},{"icsId":"1008446","id":"490008446W","lat":51.51246,"lon":-0.16693,"name":"Hyde Park Street","parentId":"490G00008446","stationId":"490G00008446","stopLetter":"B","topMostParentId":"490G00008446","towards":"Lancaster Gate Or Notting Hill"},{"icsId":"1014055","id":"490014055W","lat":51.51209,"lon":-0.17065,"name":"Victoria Gate","parentId":"490G00014055","stationId":"490G00014055","stopLetter":"LD","topMostParentId":"490G00014055","towards":"Lancaster Gate Or Notting Hill"},{"icsId":"1000133","id":"490000133B","lat":51.5116,"lon":-0.17523,"name":"Lancaster Gate Station","stopLetter":"LC","topMostParentId":"490000133B","towards":"Notting Hill Gate","zone":"1"},{"icsId":"1009081","id":"490009081W","lat":51.5108,"lon":-0.18075,"name":"Leinster Terrace","parentId":"490G00009081","stationId":"490G00009081","stopLetter":"LG","topMostParentId":"490G00009081","towards":"Notting Hill Gate"},{"icsId":"1011121","id":"490011121W","lat":51.5104,"lon":-0.18411,"name":"Porchester Terrace","parentId":"490G00011121","stationId":"490G00011121","stopLetter":"D","topMostParentId":"490G00011121","towards":"Notting Hill Gate"},{"icsId":"1000187","id":"490000187A","lat":51.51021,"lon":-0.18776,"name":"Queensway Station","stopLetter":"A","topMostParentId":"490000187A","towards":"Shepherd's Bush Or Kensington High Street","zone":"1"},{"icsId":"1010727","id":"490010727W","lat":51.50999,"lon":-0.19137,"name":"Palace Court","parentId":"490G00010727","stationId":"490G00010727","stopLetter":"S","topMostParentId":"490G00010727","towards":"Shepherd's Bush Or Kensington High Street"},{"icsId":"1000167","id":"490000167H","lat":51.50928,"lon":-0.19467,"name":"Notting Hill Gate Station","stopLetter":"H","topMostParentId":"490000167H","towards":"Shepherds Bush","zone":"1+2"},{"icsId":"1019162","id":"490015465E","lat":51.50865,"lon":-0.19836,"name":"Notting Hill Gate Stn  / Hillgate St","parentId":"490G00019162","stationId":"490G00019162","stopLetter":"E","topMostParentId":"490G00019162","towards":"Shepherds Bush"},{"icsId":"1000113","id":"490000113A","lat":51.50759,"lon":-0.20386,"name":"Holland Park","stopLetter":"HA","topMostParentId":"490000113A","towards":"Shepherds Bush","zone":"2"},{"icsId":"1000113","id":"490000113G","lat":51.50696,"lon":-0.20612,"name":"Holland Park Station","stopLetter":"HB","topMostParentId":"490000113G","towards":"Shepherds Bush","zone":"2"},{"icsId":"1010305","id":"490010305W","lat":51.5057,"lon":-0.21112,"name":"Norland Square","parentId":"490G00010305","stationId":"490G00010305","stopLetter":"HC","topMostParentId":"490G00010305","towards":"Goldhawk Road Or White City"},{"icsId":"1008651","id":"490008651W","lat":51.5051,"lon":-0.21419,"name":"Royal Crescent","parentId":"490G00008651","stationId":"490G00008651","stopLetter":"HD","topMostParentId":"490G00008651","towards":"Hammersmith Or White City Bus Station"},{"icsId":"1000203","id":"490015036L","lat":51.50395,"lon":-0.21958,"name":"Shepherd's Bush Station","stopLetter":"E","topMostParentId":"490015036L","towards":"Goldhawk Road Or White City","zone":"2"},{"icsId":"1012068","id":"490012068S","lat":51.50387,"lon":-0.22424,"name":"Shepherds Bush Green","parentId":"490G000742","stationId":"490G000742","stopLetter":"N","topMostParentId":"490G000742","towards":"Ladbroke Grove, White City Or Queensway"},{"icsId":"1009501","id":"490009501Q","lat":51.50634,"lon":-0.2247,"name":"Uxbridge Rd / Westfield Shopping Centre","parentId":"490G000650","stationId":"490G000650","stopLetter":"S","topMostParentId":"490G000650","towards":"East Acton Or Harlesden"},{"icsId":"1003375","id":"490003375AP","lat":51.50904,"lon":-0.22402,"name":"White City Bus Station","parentId":"490G00003375","stationId":"490G00003375","stopLetter":"WG","topMostParentId":"490G00003375"}]}]}