{"direction":"outbound","lineId":"149","lineName":"149","mode":"bus","stopPointSequences":[{"stopPoint":[{"icsId":"1009983","id":"490009983G","lat":51.62541,"lon":-0.059,"name":"Edmonton Green Bus Station","parentId":"490G00009983","stationId":"490G00009983","stopLetter":"G","topMostParentId":"490G00009983","towards":"Tottenham Or North Middlesex Hospital"},{"icsId":"1006445","id":"490006445A","lat":51.62267,"lon":-0.06132,"name":"Edmonton Police Station","parentId":"490G00006445","stationId":"490G00006445","stopLetter":"J","topMostParentId":"490G00006445","towards":"Palmers Green, Tottenham Or Wood Green"},{"icsId":"1011968","id":"490011968S","lat":51.62113,"lon":-0.06179,"name":"Shrubbery Road","parentId":"490G00011968","stationId":"490G00011968","stopLetter":"K","topMostParentId":"490G00011968","towards":"Palmers Green, Tottenham Or Wood Green"},{"icsId":"1010801","id":"490010801G","lat":51.61787,"lon":-0.06316,"name":"Brettenham Road","parentId":"490G00010801","stationId":"490G00010801","stopLetter":"G","topMostParentId":"490G00010801","towards":"Palmers Green, Tottenham Or Wood Green"},{"icsId":"1003322","id":"490015189E","lat":51.61601,"lon":-0.06386,"name":"Angel Corner","parentId":"490G00003322","stationId":"490G00003322","stopLetter":"E","topMostParentId":"490G00003322","towards":"Tottenham"},{"icsId":"1005520","id":"490005690K","lat":51.61194,"lon":-0.06486,"name":"Colyton Way","parentId":"490G00005520","stationId":"490G00005520","stopLetter":"K","topMostParentId":"490G00005520","towards":"Stamford Hill and Manor House"},{"icsId":"1005690","id":"490010463S","lat":51.60931,"lon":-0.06646,"name":"Nutfield Close","parentId":"490G00005690","stationId":"490G00005690","stopLetter":"L","topMostParentId":"490G00005690","towards":"Manor House Or Stamford Hill"},{"icsId":"1001335","id":"490001335D","lat":51.60591,"lon":-0.06805,"name":"White Hart Lane Station","stopLetter":"M","topMostParentId":"490001335D","towards":"Stamford Hill Or Manor House"},{"icsId":"1013733","id":"490013733V","lat":51.6029,"lon":-0.0677,"name":"Tottenham Hotspur Football Club","parentId":"490G00013733","stationId":"490G00013733","stopLetter":"N","topMostParentId":"490G00013733","towards":"Stamford Hill Or Manor House"},{"icsId":"1013738","id":"490013738S","lat":51.60179,"lon":-0.06756,"name":"Tottenham Sports Centre","parentId":"490G00013738","stationId":"490G00013738","stopLetter":"P","topMostParentId":"490G00013738","towards":"Stamford Hill Or Manor House"},{"icsId":"1009360","id":"490009360S","lat":51.59893,"lon":-0.068,"name":"Lordship Lane","parentId":"490G00009360","stationId":"490G00009360","stopLetter":"A","topMostParentId":"490G00009360","towards":"Stamford Hill Or Manor House"},{"icsId":"1011950","id":"490011950S","lat":51.59725,"lon":-0.06802,"name":"Scotland Green","parentId":"490G00011950","stationId":"490G00011950","stopLetter":"B","topMostParentId":"490G00011950","towards":"Manor House Or Stamford Hill"},{"icsId":"1019454","id":"490019454S","lat":51.59305,"lon":-0.06965,"name":"Tottenham High Road / Bruce Grove Stn","parentId":"490G00019454","stationId":"490G00019454","stopLetter":"C","topMostParentId":"490G00019454","towards":"Manor House Or Stamford Hill"},{"icsId":"1013736","id":"490013736T","lat":51.59125,"lon":-0.06988,"name":"Tottenham Police Station","parentId":"490G00013736","stationId":"490G00013736","stopLetter":"D","topMostParentId":"490G00013736","towards":"Manor House Or Stamford Hill"},{"icsId":"1015083","id":"490013739N","lat":51.58793,"lon":-0.07066,"name":"Tottenham Town Hall","parentId":"490G000860","stationId":"490G000860","stopLetter":"W","topMostParentId":"490G000860","towards":"Manor House Or Stamford Hill"},{"icsId":"1013739","id":"490015083G","lat":51.5857,"lon":-0.0716,"name":"College of North East London","parentId":"490G00013739","stationId":"490G00013739","stopLetter":"G","topMostParentId":"490G00013739","towards":"Manor House Or Stamford Hill"},{"icsId":"1000201","id":"490015081Q","lat":51.58318,"lon":-0.07208,"name":"Seven Sisters Station","stopLetter":"K","topMostParentId":"490015081Q","towards":"Stoke Newington","zone":"3"},{"icsId":"1001264","id":"490001264W","lat":51.58058,"lon":-0.07256,"name":"South Tottenham Station","stopLetter":"TD","topMostParentId":"490001264W","towards":"Stoke Newington"},{"icsId":"1012433","id":"490012433S","lat":51.57775,"lon":-0.07302,"name":"St Ann's Road","parentId":"490G00012433","stationId":"490G00012433","stopLetter":"TE","topMostParentId":"490G00012433","towards":"Stoke Newington"},{"icsId":"1006456","id":"490006456F","lat":51.5745,"lon":-0.07226,"name":"Egerton Road","parentId":"490G00006456","stationId":"490G00006456","stopLetter":"SK","topMostParentId":"490G00006456","towards":"Stoke Newington"},{"icsId":"1012524","id":"490012524L","lat":51.5723,"lon":-0.07253,"name":"Stamford Hill Broadway","parentId":"490G00012524","stationId":"490G00012524","stopLetter":"SL","topMostParentId":"490G00012524","towards":"Dalston Junction"},{"icsId":"1006261","id":"490006261S","lat":51.56997,"lon":-0.07279,"name":"Stamford Hill Library","parentId":"490G00006261","stationId":"490G00006261","stopLetter":"SM","topMostParentId":"490G00006261","towards":"Dalston Junction Or Newington Green"},{"icsId":"1009477","id":"490009477S","lat":51.56776,"lon":-0.07294,"name":"Lynmouth Road","parentId":"490G00009477","stationId":"490G00009477","stopLetter":"SN","topMostParentId":"490G00009477","towards":"Dalston Junction Or Newington Green"},{"icsId":"1001273","id":"490001273C","lat":51.56478,"lon":-0.07305,"name":"Stoke Newington Station","stopLetter":"C","topMostParentId":"490001273C","towards":"Clapton Pond, Dalston Or Newington Green"},{"icsId":"1010427","id":"490010427D","lat":51.56302,"lon":-0.07187,"name":"Northwold Road / Stoke Newington Common","parentId":"490G00010427","stationId":"490G00010427","stopLetter":"D","topMostParentId":"490G00010427","towards":"Newington Green, Clapton Pond Or Dalston"},{"icsId":"1015168","id":"490015168L","lat":51.55977,"lon":-0.0701,"name":"Rectory Road / Brooke Road","parentId":"490G00015168","stationId":"490G00015168","stopLetter":"L","topMostParentId":"490G00015168","towards":"Dalston Junction Or Hackney Central"},{"icsId":"1009607","id":"490009607N","lat":51.5572,"lon":-0.06982,"name":"Manse Road","parentId":"490G000655","stationId":"490G000655","stopLetter":"N","topMostParentId":"490G000655","towards":"Dalston Junction"},{"icsId":"1003307","id":"490003307Q","lat":51.55622,"lon":-0.07449,"name":"Stoke Newington Road / Amhurst Road","parentId":"490G00003307","stationId":"490G00003307","stopLetter":"Q","topMostParentId":"490G00003307","towards":"Dalston"},{"icsId":"1011217","id":"490011217S","lat":51.55325,"lon":-0.07479,"name":"Princess May Road","parentId":"490G00011217","stationId":"490G00011217","stopLetter":"->S","topMostParentId":"490G00011217","towards":"Shoreditch Or Hoxton"},{"icsId":"1012019","id":"490012019V","lat":51.5514,"lon":-0.07499,"name":"Shacklewell Lane","parentId":"490G00012019","stationId":"490G00012019","stopLetter":"V","topMostParentId":"490G00012019","towards":"Shoreditch Or Hoxton"},{"icsId":"1015851","id":"490015851T","lat":51.5501,"lon":-0.07511,"name":"Rio Cinema","parentId":"490G00015851","stationId":"490G00015851","stopLetter":"T","topMostParentId":"490G00015851","towards":"Shoreditch Or Hoxton"},{"icsId":"1001081","id":"490001081R","lat":51.54881,"lon":-0.07512,"name":"Dalston Kingsland Station","stopLetter":"R","topMostParentId":"490001081R","towards":"Shoreditch Or Hoxton"},{"icsId":"1001568","id":"490005945M","lat":51.54667,"lon":-0.07558,"name":"Dalston Junction Station","stopLetter":"M","topMostParentId":"490005945M","towards":"Shoreditch Or Hoxton"},{"icsId":"1006948","id":"490006929D","lat":51.5443,"lon":-0.07596,"name":"Forest Road","parentId":"490G00006948","stationId":"490G00006948","stopLetter":"D","topMostParentId":"490G00006948","towards":"Hoxton Or Shoreditch"},{"icsId":"1009859","id":"490009859S","lat":51.54124,"lon":-0.0764,"name":"Middleton Road","parentId":"490G00009859","stationId":"490G00009859","stopLetter":"KH","topMostParentId":"490G00009859","towards":"Shoreditch"},{"icsId":"1006170","id":"490006170S1","lat":51.53866,"lon":-0.07671,"name":"Haggerston Station","parentId":"490G00006170","stationId":"490G00006170","stopLetter":"KK","topMostParentId":"490G00006170","towards":"Aldgate Or Liverpool Street"},{"icsId":"1008893","id":"490008893S","lat":51.53523,"lon":-0.07687,"name":"Laburnum Street","parentId":"490G00008893","stationId":"490G00008893","stopLetter":"KL","topMostParentId":"490G00008893","towards":"Old Street, Aldgate Or Liverpool Street"},{"icsId":"1012445","id":"490012445S","lat":51.53368,"lon":-0.07699,"name":"St Leonard's Hospital","parentId":"490G00012445","stationId":"490G00012445","stopLetter":"KM","topMostParentId":"490G00012445","towards":"Liverpool Street,  Aldgate Or Old Street"},{"icsId":"1006733","id":"490007154S","lat":51.5316,"lon":-0.07695,"name":"Hoxton Station  / Museum of the Home","parentId":"490G000509","stationId":"490G000509","stopLetter":"KN","topMostParentId":"490G000509","towards":"Aldgate, Old St, Angel Or Liverpool St."},{"icsId":"1006726","id":"490006726S","lat":51.52963,"lon":-0.07742,"name":"Falkirk Street","parentId":"490G00006726","stationId":"490G00006726","stopLetter":"KP","topMostParentId":"490G00006726","towards":"Old Street, Aldgate Or Liverpool Street"},{"icsId":"1007625","id":"490007625T","lat":51.52794,"lon":-0.07794,"name":"Shoreditch Church","parentId":"490G00007625","stationId":"490G00007625","stopLetter":"T","topMostParentId":"490G00007625","towards":"Old Street, Aldgate Or Liverpool Street"},{"icsId":"1001571","id":"490012113N","lat":51.52496,"lon":-0.07727,"name":"Shoreditch High Street Station","stopLetter":"N","topMostParentId":"490012113N","towards":"Aldgate, Bank Or Monument"},{"icsId":"1005524","id":"490005524D","lat":51.52193,"lon":-0.07815,"name":"Commercial Street / Worship Street","parentId":"490G00005524","stationId":"490G00005524","stopLetter":"D","topMostParentId":"490G00005524","towards":"Aldgate, Bank Or Monument"},{"icsId":"1012391","id":"490011187S","lat":51.51978,"lon":-0.07897,"name":"Primrose Street","parentId":"490G00012391","stationId":"490G00012391","stopLetter":"J","topMostParentId":"490G00012391","towards":"Aldgate, Bank Or Monument"},{"icsId":"1000138","id":"490000138K","lat":51.51726,"lon":-0.08061,"name":"Liverpool Street Station","stopLetter":"K","topMostParentId":"490000138K","towards":"London Bridge","zone":"1"},{"icsId":"1002303","id":"490004043S","lat":51.51573,"lon":-0.082,"name":"Camomile Street","parentId":"490G00002303","stationId":"490G00002303","stopLetter":"Y","topMostParentId":"490G00002303","towards":"London Bridge Or St Paul's"},{"icsId":"1019174","id":"490000148U","lat":51.51135,"lon":-0.08542,"name":"Fenchurch Street","parentId":"490G000934","stationId":"490G000934","stopLetter":"U","topMostParentId":"490G000934","towards":"London Bridge or Southwark Bridge"},{"icsId":"1000148","id":"490009267E","lat":51.5095,"lon":-0.08703,"name":"Monument Station","stopLetter":"P","topMostParentId":"490009267E","towards":"Borough Or Bermondsey","zone":"1"},{"icsId":"1019954","id":"490019954J","lat":51.50544,"lon":-0.08665,"name":"London Bridge Bus Station","parentId":"490G000970","stationId":"490G000970","stopLetter":"->E","topMostParentId":"HUBLBG"}]}]}