{"direction":"outbound","lineId":"153","lineName":"153","mode":"bus","stopPointSequences":[{"stopPoint":[{"icsId":"1006849","id":"490000083G","lat":51.56469,"lon":-0.10569,"name":"Finsbury Park Interchange","parentId":"490G000516","stationId":"490G000516","stopLetter":"G","topMostParentId":"HUBFPK"},{"icsId":"1011623","id":"490011623P","lat":51.56389,"lon":-0.10459,"name":"Rock Street","parentId":"490G00011623","stationId":"490G00011623","stopLetter":"P","topMostParentId":"490G00011623","towards":"Holloway Nags Head"},{"icsId":"1000083","id":"490000083S","lat":51.56374,"lon":-0.10638,"name":"Finsbury Park Station","stopLetter":"S","topMostParentId":"490000083S","towards":"Holloway Nags Head","zone":"2"},{"icsId":"1006889","id":"490006889W","lat":51.56233,"lon":-0.10778,"name":"Isledon Road","parentId":"490G000519","stationId":"490G000519","stopLetter":"W","topMostParentId":"490G000519","towards":"Holloway, Nags Head"},{"icsId":"1003929","id":"490003929S","lat":51.55966,"lon":-0.11042,"name":"Berriman Road","parentId":"490G00003929","stationId":"490G00003929","stopLetter":"NM","topMostParentId":"490G00003929","towards":"Camden Town, Kings Cross Or Tufnell Park"},{"icsId":"1013695","id":"490008368S","lat":51.55799,"lon":-0.11191,"name":"Sobell Centre","parentId":"490G00013695","stationId":"490G00013695","stopLetter":"NN","topMostParentId":"490G00013695","towards":"Camden Town, Kings Cross Or Tufnell Park"},{"icsId":"1019904","id":"490008296N","lat":51.55682,"lon":-0.11532,"name":"Holloway Road / Camden Road","parentId":"490G00019904","stationId":"490G00019904","stopLetter":"N","topMostParentId":"490G00019904","towards":"Tufnell Park Or Barnsbury"},{"icsId":"1013694","id":"490013694S","lat":51.55552,"lon":-0.11595,"name":"Tollington Road","parentId":"490G00013694","stationId":"490G00013694","stopLetter":"S","topMostParentId":"490G00013694","towards":"Barnsbury Or Highbury Corner"},{"icsId":"1000114","id":"490000114Y","lat":51.55208,"lon":-0.11144,"name":"Holloway Road Station","stopLetter":"SY","topMostParentId":"490000114Y","towards":"Barnsbury Or Highbury Corner","zone":"2"},{"icsId":"1009224","id":"490009224S2","lat":51.55014,"lon":-0.11048,"name":"Liverpool Road","parentId":"490G00009224","stationId":"490G00009224","stopLetter":"SX","topMostParentId":"490G00009224","towards":"Angel Islington"},{"icsId":"1009377","id":"490009377W","lat":51.54892,"lon":-0.11282,"name":"Lough Road","parentId":"490G00009377","stationId":"490G00009377","stopLetter":"SW","topMostParentId":"490G00009377","towards":"Angel Islington"},{"icsId":"1008597","id":"490008597S","lat":51.54767,"lon":-0.11403,"name":"Westbourne Road / Jupiter Way","parentId":"490G00008597","stationId":"490G00008597","stopLetter":"C","topMostParentId":"490G00008597","towards":"Angel Islington"},{"icsId":"1003403","id":"490003403S","lat":51.54591,"lon":-0.112,"name":"Ellington Street / Arundel Square","parentId":"490G00003403","stationId":"490G00003403","stopLetter":"U","topMostParentId":"490G00003403","towards":"Angel Islington"},{"icsId":"1010518","id":"490010518S","lat":51.54411,"lon":-0.1105,"name":"Offord Road","parentId":"490G00010518","stationId":"490G00010518","stopLetter":"V","topMostParentId":"490G00010518","towards":"Angel Islington"},{"icsId":"1013415","id":"490013415S","lat":51.54274,"lon":-0.11331,"name":"The Hemingford Arms","parentId":"490G000786","stationId":"490G000786","stopLetter":"T","topMostParentId":"490G000786","towards":"Angel Islington"},{"icsId":"1011592","id":"490011592S","lat":51.53978,"lon":-0.11349,"name":"Richmond Avenue","parentId":"490G00011592","stationId":"490G00011592","stopLetter":"W","topMostParentId":"490G00011592","towards":"Angel Islington"},{"icsId":"1005581","id":"490011554S","lat":51.53697,"lon":-0.11376,"name":"Copenhagen Street","parentId":"490G00005581","stationId":"490G00005581","stopLetter":"X","topMostParentId":"490G00005581","towards":"Smithfield"},{"icsId":"1005585","id":"490005581S","lat":51.53533,"lon":-0.11109,"name":"Barnsbury Road","parentId":"490G00005585","stationId":"490G00005585","stopLetter":"Y","topMostParentId":"490G00005585","towards":"Angel Or Smithfield"},{"icsId":"1009225","id":"490009225W","lat":51.53451,"lon":-0.1082,"name":"Liverpool Road / Chapel Market","parentId":"490G00009225","stationId":"490G00009225","stopLetter":"W","topMostParentId":"490G00009225","towards":"Angel Islington, Barbican Or Hoxton"},{"icsId":"1013229","id":"490013229M","lat":51.531,"lon":-0.10594,"name":"St John Street / Goswell Road","parentId":"490G00013229","stationId":"490G00013229","stopLetter":"M","topMostParentId":"490G00013229","towards":"Barbican, Holborn Or Holborn Circus"},{"icsId":"1007026","id":"490007026SB","lat":51.52899,"lon":-0.10469,"name":"Friend Street / Sadler's Wells Theatre","parentId":"490G00007026","stationId":"490G00007026","stopLetter":"UE","topMostParentId":"490G00007026","towards":"Barbican"},{"icsId":"1012388","id":"490012388S","lat":51.52697,"lon":-0.10422,"name":"Spencer Street / City University","parentId":"490G00012388","stationId":"490G00012388","stopLetter":"UF","topMostParentId":"490G00012388","towards":"Barbican"},{"icsId":"1015106","id":"490015106W","lat":51.52475,"lon":-0.10354,"name":"Percival Street","parentId":"490G00015106","stationId":"490G00015106","stopLetter":"UH","topMostParentId":"490G00015106","towards":"Barbican"},{"icsId":"1012746","id":"490012745S","lat":51.52326,"lon":-0.10225,"name":"St John Street / Clerkenwell Road","parentId":"490G00012746","stationId":"490G00012746","stopLetter":"->S","topMostParentId":"490G00012746","towards":"Barbican"},{"icsId":"1007327","id":"490007327E","lat":51.52315,"lon":-0.09966,"name":"Goswell Road","parentId":"490G00007327","stationId":"490G00007327","stopLetter":"BS","topMostParentId":"490G00007327","towards":"Moorgate Or Shoreditch"},{"icsId":"1003573","id":"490003573S","lat":51.52234,"lon":-0.09746,"name":"Baltic Street West","parentId":"490G00003573","stationId":"490G00003573","stopLetter":"BP","topMostParentId":"490G00003573","towards":"Aldwych, Moorgate Or St Barts Hospital"},{"icsId":"1000014","id":"490000014B","lat":51.5209,"lon":-0.09738,"name":"Barbican Station","stopLetter":"BB","topMostParentId":"490000014B","towards":"Aldwych, Moorgate Or St Barts Hospital","zone":"1"},{"icsId":"1003818","id":"490003818E","lat":51.52059,"lon":-0.09443,"name":"Beech Street","parentId":"490G00003818","stationId":"490G00003818","stopLetter":"BN","topMostParentId":"490G00003818","towards":"Liverpool Street"},{"icsId":"1003831","id":"490003831E","lat":51.52065,"lon":-0.08838,"name":"Finsbury Street","parentId":"490G00003831","stationId":"490G00003831","stopLetter":"R","topMostParentId":"490G00003831","towards":"Liverpool Street"},{"icsId":"1001882","id":"490015209K","lat":51.52009,"lon":-0.08733,"name":"Finsbury Square / Moorgate","stopLetter":"K","topMostParentId":"490015209K","towards":"Bank Or Liverpool Street"},{"icsId":"1015153","id":"490015153V","lat":51.51845,"lon":-0.08485,"name":"Eldon Street","parentId":"490G000863","stationId":"490G000863","stopLetter":"V","topMostParentId":"490G000863","towards":"Liverpool Street"},{"icsId":"1003172","id":"490003172A","lat":51.51669,"lon":-0.08478,"name":"All Hallows Church","parentId":"490G00003172","stationId":"490G00003172","stopLetter":"U","topMostParentId":"490G00003172","towards":"Aldgate Or Liverpool Street"},{"icsId":"1000138","id":"490000138N","lat":51.51801,"lon":-0.08274,"name":"Liverpool Street Station","stopLetter":"->N","topMostParentId":"490000138N","zone":"1"}]}]}