{"direction":"outbound","lineId":"156","lineName":"156","mode":"bus","stopPointSequences":[{"stopPoint":[{"icsId":"1014731","id":"490014731E","lat":51.41887,"lon":-0.20344,"name":"Wimbledon Bus Station","parentId":"490G00014731","stationId":"490G00014731","stopLetter":"E","topMostParentId":"490G00014731"},{"icsId":"1000272","id":"490000272P","lat":51.42089,"lon":-0.20674,"name":"Wimbledon Station","stopLetter":"P","topMostParentId":"490000272P","towards":"Southfields","zone":"3"},{"icsId":"1019043","id":"490014734A","lat":51.42203,"lon":-0.20689,"name":"Alexandra Road / Wimbledon","parentId":"490G000930","stationId":"490G000930","stopLetter":"A","topMostParentId":"HUBWIM","towards":"Southfields Or Tooting"},{"icsId":"1014735","id":"490014735N","lat":51.42427,"lon":-0.20324,"name":"Wimbledon Magistrates Court","parentId":"490G00014735","stationId":"490G00014735","stopLetter":"->N","topMostParentId":"490G00014735","towards":"Southfields Or Tooting"},{"icsId":"1012910","id":"490012910E","lat":51.42666,"lon":-0.20079,"name":"Strathearn Road","parentId":"490G00012910","stationId":"490G00012910","stopLetter":"HE","topMostParentId":"490G00012910","towards":"Southfields Or Tooting"},{"icsId":"1003515","id":"490003515E","lat":51.42775,"lon":-0.19544,"name":"Avondale Road","parentId":"490G00003515","stationId":"490G00003515","stopLetter":"HF","topMostParentId":"490G00003515","towards":"Southfields Or Tooting"},{"icsId":"1019846","id":"490011060C","lat":51.42778,"lon":-0.19186,"name":"Gap Road / Plough Lane","parentId":"490G00019846","stationId":"490G00019846","stopLetter":"HG","topMostParentId":"490G00019846","towards":"Southfields Or Tooting"},{"icsId":"1011030","id":"490011030N","lat":51.43102,"lon":-0.19318,"name":"Pitt Crescent","parentId":"490G00011030","stationId":"490G00011030","stopLetter":"HH","topMostParentId":"490G00011030","towards":"Wandsworth"},{"icsId":"1014736","id":"490014736S2","lat":51.43479,"lon":-0.19616,"name":"Wimbledon Park / Arthur Road","parentId":"490G000836","stationId":"490G000836","stopLetter":"H","topMostParentId":"490G000836","towards":"Wandsworth"},{"icsId":"1012939","id":"490012939N","lat":51.43737,"lon":-0.19738,"name":"Stroud Road","parentId":"490G00012939","stationId":"490G00012939","stopLetter":"J","topMostParentId":"490G00012939","towards":"Wandsworth"},{"icsId":"1011537","id":"490011537N","lat":51.44003,"lon":-0.19704,"name":"Penwith Road","parentId":"490G00011537","stationId":"490G00011537","stopLetter":"K","topMostParentId":"490G00011537","towards":"Wandsworth"},{"icsId":"1009009","id":"490009009N","lat":51.44258,"lon":-0.19773,"name":"Lavenham Road","parentId":"490G00009009","stationId":"490G00009009","stopLetter":"H","topMostParentId":"490G00009009","towards":"Wandsworth"},{"icsId":"1004485","id":"490004485N","lat":51.44469,"lon":-0.19841,"name":"Southfields Academy","parentId":"490G00004485","stationId":"490G00004485","stopLetter":"J","topMostParentId":"490G00004485","towards":"Wandsworth"},{"icsId":"1012532","id":"490012532N","lat":51.44717,"lon":-0.19888,"name":"Standen Road","parentId":"490G00012532","stationId":"490G00012532","stopLetter":"K","topMostParentId":"490G00012532","towards":"Clapham Junction"},{"icsId":"1013493","id":"490013493N","lat":51.45048,"lon":-0.19925,"name":"The Park Tavern","parentId":"490G00013493","stationId":"490G00013493","stopLetter":"L","topMostParentId":"490G00013493","towards":"Clapham Junction"},{"icsId":"1004492","id":"490004492N","lat":51.45503,"lon":-0.19717,"name":"Broomhill Road","parentId":"490G00004492","stationId":"490G00004492","stopLetter":"->N","topMostParentId":"490G00004492","towards":"Clapham Junction"},{"icsId":"1014184","id":"490014184W","lat":51.45673,"lon":-0.19473,"name":"Wandsworth / Southside","parentId":"490G00014184","stationId":"490G00014184","stopLetter":"W","topMostParentId":"490G00014184","towards":"Clapham Junction"},{"icsId":"1014190","id":"490014190G","lat":51.45813,"lon":-0.19531,"name":"Wandsworth Plain","parentId":"490G00014190","stationId":"490G00014190","stopLetter":"G","topMostParentId":"490G00014190","towards":"Clapham Junction"},{"icsId":"1014195","id":"490014195N","lat":51.45764,"lon":-0.18992,"name":"Wandsworth Town Hall","parentId":"490G00014195","stationId":"490G00014195","stopLetter":"N","topMostParentId":"490G00014195","towards":"Clapham Junction"},{"icsId":"1003259","id":"490003259E","lat":51.45771,"lon":-0.18552,"name":"East Hill / Alma Road","parentId":"490G00003259","stationId":"490G00003259","stopLetter":"A","topMostParentId":"490G00003259","towards":"Clapham Junction"},{"icsId":"1009638","id":"490015404E","lat":51.45945,"lon":-0.18085,"name":"Marcilly Road","parentId":"490G00009638","stationId":"490G00009638","stopLetter":"B","topMostParentId":"490G00009638","towards":"Clapham Common, Battersea Or Vauxhall"},{"icsId":"1011066","id":"490011066E","lat":51.46134,"lon":-0.17432,"name":"Plough Road","parentId":"490G00011066","stationId":"490G00011066","stopLetter":"C","topMostParentId":"490G00011066","towards":"Clapham Common, Battersea Or Vauxhall"},{"icsId":"1001069","id":"490001069D","lat":51.46362,"lon":-0.16842,"name":"Clapham Junction Station","stopLetter":"D","topMostParentId":"490001069D","towards":"Vauxhall"},{"icsId":"1009007","id":"490009008K","lat":51.46421,"lon":-0.16459,"name":"Lavender Hill Police Station","parentId":"490G00009007","stationId":"490G00009007","stopLetter":"K","topMostParentId":"490G00009007","towards":"Clapham Common Or Vauxhall"},{"icsId":"1010524","id":"490010524E","lat":51.46465,"lon":-0.16141,"name":"Battersea Arts Centre","parentId":"490G00010524","stationId":"490G00010524","stopLetter":"A","topMostParentId":"490G00010524","towards":"Clapham Common Or Vauxhall"},{"icsId":"1013681","id":"490013681E","lat":51.46552,"lon":-0.1564,"name":"Tipthorpe Road","parentId":"490G00013681","stationId":"490G00013681","stopLetter":"B","topMostParentId":"490G00013681","towards":"Clapham Common Or Vauxhall"},{"icsId":"1011360","id":"490011360N","lat":51.4663,"lon":-0.15139,"name":"Cedars Road","parentId":"490G00011360","stationId":"490G00011360","stopLetter":"G","topMostParentId":"490G00011360","towards":"Vauxhall"},{"icsId":"1014192","id":"490014192N2","lat":51.46685,"lon":-0.15072,"name":"Queenstown Road / Wandsworth Road","parentId":"490G00014192","stationId":"490G00014192","stopLetter":"Q","topMostParentId":"490G00014192","towards":"Sloane Square Or Vauxhall"},{"icsId":"1011163","id":"490011163N","lat":51.47068,"lon":-0.14946,"name":"Prairie Street","parentId":"490G00011163","stationId":"490G00011163","stopLetter":"R","topMostParentId":"490G00011163","towards":"Sloane Square Or Vauxhall"},{"icsId":"1012161","id":"490012161N","lat":51.47284,"lon":-0.14854,"name":"Silverthorne Road","parentId":"490G00012161","stationId":"490G00012161","stopLetter":"S","topMostParentId":"490G00012161","towards":"Sloane Square Or Vauxhall"},{"icsId":"1001234","id":"490001234N","lat":51.47432,"lon":-0.14702,"name":"Queenstown Road Station","stopLetter":"K","topMostParentId":"490001234N","towards":"Sloane Square Or Vauxhall"},{"icsId":"1001016","id":"490001016A","lat":51.47711,"lon":-0.14717,"name":"Battersea Park Station","stopLetter":"A","topMostParentId":"490001016A","towards":"Vauxhall"},{"icsId":"1003686","id":"490003686E","lat":51.4782,"lon":-0.14504,"name":"Battersea Dogs & Cats Home","parentId":"490G00003686","stationId":"490G00003686","stopLetter":"J","topMostParentId":"490G00003686","towards":"Vauxhall"},{"icsId":"1002195","id":"490012196E","lat":51.47987,"lon":-0.14131,"name":"Battersea Power Station","stopLetter":"A","topMostParentId":"490012196E","towards":"Vauxhall"},{"icsId":"1005777","id":"490005777E","lat":51.48166,"lon":-0.13756,"name":"Riverlight Quay","parentId":"490G00005777","stationId":"490G00005777","stopLetter":"B","topMostParentId":"490G00005777","towards":"Vauxhall"},{"icsId":"1001274","id":"490006515E","lat":51.48328,"lon":-0.13365,"name":"United States Embassy","parentId":"490G000272","stationId":"490G000272","stopLetter":"C","topMostParentId":"490G000272","towards":"Camberwell Or Elephant & Castle"},{"icsId":"1000714","id":"490014193E","lat":51.48462,"lon":-0.12909,"name":"St George Wharf Pier","parentId":"490G000270","stationId":"490G000270","stopLetter":"->E","topMostParentId":"490G000270","towards":"Camberwell Or Elephant & Castle"},{"icsId":"1020252","id":"490000247H","lat":51.48485,"lon":-0.12454,"name":"Vauxhall Bus Station","stopLetter":"H","topMostParentId":"490000247H"}]}]}