{"direction":"outbound","lineId":"158","lineName":"158","mode":"bus","stopPointSequences":[{"stopPoint":[{"icsId":"1005180","id":"490005180C","lat":51.61718,"lon":-0.01814,"name":"Chingford Mount","parentId":"490G000452","stationId":"490G000452","stopLetter":"C","topMostParentId":"490G000452","towards":"Blackhorse Road Or Highams Park"},{"icsId":"1007676","id":"490007676J","lat":51.61663,"lon":-0.01735,"name":"Hall Lane","parentId":"490G000561","stationId":"490G000561","stopLetter":"J","topMostParentId":"490G000561","towards":"Blackhorse Road Or Walthamstow"},{"icsId":"1008981","id":"490008981S","lat":51.61354,"lon":-0.01741,"name":"Larkswood Road","parentId":"490G00008981","stationId":"490G00008981","stopLetter":"U","topMostParentId":"490G00008981","towards":"Blackhorse Road Or Walthamstow"},{"icsId":"1003124","id":"490003124S","lat":51.61219,"lon":-0.01785,"name":"Ainslie Wood Road","parentId":"490G00003124","stationId":"490G00003124","stopLetter":"V","topMostParentId":"490G00003124","towards":"Blackhorse Road Or Walthamstow"},{"icsId":"1009091","id":"490009091S","lat":51.60961,"lon":-0.01747,"name":"Leonard Road","parentId":"490G00009091","stationId":"490G00009091","stopLetter":"->S","topMostParentId":"490G00009091","towards":"Blackhorse Road Or Walthamstow"},{"icsId":"1008132","id":"490008132S","lat":51.60738,"lon":-0.01669,"name":"Higham Station Avenue","parentId":"490G00008132","stationId":"490G00008132","stopLetter":"->S","topMostParentId":"490G00008132","towards":"Blackhorse Road Or Walthamstow"},{"icsId":"1011741","id":"490011741S","lat":51.6052,"lon":-0.01635,"name":"Rowden Park Gardens","parentId":"490G00011741","stationId":"490G00011741","stopLetter":"CC","topMostParentId":"490G00011741","towards":"Blackhorse Road Or Walthamstow"},{"icsId":"1014170","id":"490014170S","lat":51.60366,"lon":-0.01634,"name":"Walthamstow Stadium","parentId":"490G00014170","stationId":"490G00014170","stopLetter":"CD","topMostParentId":"490G00014170","towards":"Blackhorse Road Or Walthamstow"},{"icsId":"1005802","id":"490005802W1","lat":51.60058,"lon":-0.0173,"name":"Waltham Park Way","parentId":"490G00005802","stationId":"490G00005802","stopLetter":"CJ","topMostParentId":"490G00005802","towards":"Blackhorse Road"},{"icsId":"1004905","id":"490004905W","lat":51.60033,"lon":-0.0208,"name":"Cecil Road","parentId":"490G00004905","stationId":"490G00004905","stopLetter":"CK","topMostParentId":"490G00004905","towards":"Blackhorse Road"},{"icsId":"1009759","id":"490009759W","lat":51.59989,"lon":-0.02293,"name":"Walthamstow Academy","parentId":"490G00009759","stationId":"490G00009759","stopLetter":"CL","topMostParentId":"490G00009759","towards":"Blackhorse Road"},{"icsId":"1010345","id":"490010345W","lat":51.59952,"lon":-0.0265,"name":"North Countess Road","parentId":"490G00010345","stationId":"490G00010345","stopLetter":"->W","topMostParentId":"490G00010345","towards":"Blackhorse Road"},{"icsId":"1007597","id":"490007597W","lat":51.59961,"lon":-0.02937,"name":"Guildsway","parentId":"490G00007597","stationId":"490G00007597","stopLetter":"->W","topMostParentId":"490G00007597","towards":"Blackhorse Road"},{"icsId":"1008134","id":"490008134W","lat":51.59894,"lon":-0.03632,"name":"Higham Hill Road","parentId":"490G00008134","stationId":"490G00008134","stopLetter":"->W","topMostParentId":"490G00008134","towards":"Blackhorse Road"},{"icsId":"1009019","id":"490009019W","lat":51.59871,"lon":-0.03845,"name":"Lawrence Avenue","parentId":"490G00009019","stationId":"490G00009019","stopLetter":"->W","topMostParentId":"490G00009019","towards":"Blackhorse Road"},{"icsId":"1014940","id":"490014940S","lat":51.59664,"lon":-0.04124,"name":"Worcester Road","parentId":"490G00014940","stationId":"490G00014940","stopLetter":"->S","topMostParentId":"490G00014940","towards":"St James Street"},{"icsId":"1012034","id":"490005353S","lat":51.59377,"lon":-0.03987,"name":"Shakespeare Road","parentId":"490G00012034","stationId":"490G00012034","stopLetter":"BP","topMostParentId":"490G00012034","towards":"St James Street"},{"icsId":"1011183","id":"490011183S","lat":51.59161,"lon":-0.03978,"name":"Priestley Way","parentId":"490G00011183","stationId":"490G00011183","stopLetter":"BS","topMostParentId":"490G00011183","towards":"St James Street"},{"icsId":"1004103","id":"490004103S","lat":51.58941,"lon":-0.03961,"name":"Blenheim Road","parentId":"490G00004103","stationId":"490G00004103","stopLetter":"BT","topMostParentId":"490G00004103","towards":"St James Street"},{"icsId":"1006928","id":"490006928S","lat":51.58767,"lon":-0.04027,"name":"Forest Road","parentId":"490G00006928","stationId":"490G00006928","stopLetter":"BH","topMostParentId":"490G00006928","towards":"St James Street"},{"icsId":"1000024","id":"490000024B","lat":51.58622,"lon":-0.03981,"name":"Blackhorse Road Station","stopLetter":"BB","topMostParentId":"490000024B","towards":"Leyton Or Walthamstow Central","zone":"3"},{"icsId":"1009306","id":"490009306S","lat":51.58432,"lon":-0.03742,"name":"Longfield Avenue","parentId":"490G00009306","stationId":"490G00009306","stopLetter":"BK","topMostParentId":"490G00009306","towards":"Leyton Or Walthamstow Central"},{"icsId":"1014166","id":"490014166R","lat":51.58189,"lon":-0.03419,"name":"Walthamstow Market","parentId":"490G00014166","stationId":"490G00014166","stopLetter":"C","topMostParentId":"490G00014166","towards":"Leyton Or Walthamstow Central"},{"icsId":"1001268","id":"490001268P","lat":51.58056,"lon":-0.03269,"name":"St James's Street Station","stopLetter":"D","topMostParentId":"490001268P","towards":"Leyton Or Walthamstow Central"},{"icsId":"1009667","id":"490009667S","lat":51.57878,"lon":-0.03033,"name":"Markhouse Avenue","parentId":"490G00009667","stationId":"490G00009667","stopLetter":"J","topMostParentId":"490G00009667","towards":"Leyton"},{"icsId":"1011346","id":"490011346S","lat":51.57587,"lon":-0.02979,"name":"Queen's Road","parentId":"490G00011346","stationId":"490G00011346","stopLetter":"->S","topMostParentId":"490G00011346","towards":"Leyton"},{"icsId":"1004188","id":"490004188S","lat":51.57305,"lon":-0.02795,"name":"St Saviour's Church","parentId":"490G00004188","stationId":"490G00004188","stopLetter":"MS","topMostParentId":"490G00004188","towards":"Leyton"},{"icsId":"1009036","id":"490009036S","lat":51.57087,"lon":-0.02574,"name":"Lea Bridge Road","parentId":"490G00009036","stationId":"490G00009036","stopLetter":"MT","topMostParentId":"490G00009036","towards":"Leyton"},{"icsId":"1007246","id":"490007246S","lat":51.56983,"lon":-0.02414,"name":"Gloucester Road","parentId":"490G00007246","stationId":"490G00007246","stopLetter":"CU","topMostParentId":"490G00007246","towards":"Stratford Or Forest Gate"},{"icsId":"1004772","id":"490011388S","lat":51.56718,"lon":-0.02183,"name":"Capworth Street","parentId":"490G00004772","stationId":"490G00004772","stopLetter":"CV","topMostParentId":"490G00004772","towards":"Stratford Or Forest Gate"},{"icsId":"1010798","id":"490010798S","lat":51.56562,"lon":-0.02054,"name":"Park Road","parentId":"490G00010798","stationId":"490G00010798","stopLetter":"CW","topMostParentId":"490G00010798","towards":"Stratford Or Forest Gate"},{"icsId":"1014087","id":"490014087S","lat":51.56438,"lon":-0.01788,"name":"Villiers Close","parentId":"490G00014087","stationId":"490G00014087","stopLetter":"U","topMostParentId":"490G00014087","towards":"Stratford Or Thatched House"},{"icsId":"1010591","id":"490010591V","lat":51.56346,"lon":-0.01538,"name":"Oliver Road","parentId":"490G00010591","stationId":"490G00010591","stopLetter":"V","topMostParentId":"490G00010591","towards":"Stratford Or Thatched House"},{"icsId":"1007350","id":"490007350P","lat":51.56322,"lon":-0.01077,"name":"Grange Park Road","parentId":"490G00007350","stationId":"490G00007350","stopLetter":"P","topMostParentId":"490G00007350","towards":"Forest Gate Or Stratford"},{"icsId":"1004557","id":"490004557L","lat":51.56052,"lon":-0.00966,"name":"Buckingham Road","parentId":"490G00004557","stationId":"490G00004557","stopLetter":"L","topMostParentId":"490G00004557","towards":"Forest Gate Or Stratford"},{"icsId":"1009137","id":"490009137J","lat":51.55907,"lon":-0.00745,"name":"Leyton Library","parentId":"490G00009137","stationId":"490G00009137","stopLetter":"J","topMostParentId":"490G00009137","towards":"Forest Gate Or Stratford"},{"icsId":"1000136","id":"490000136A","lat":51.55608,"lon":-0.00555,"name":"Leyton Station","stopLetter":"A","topMostParentId":"490000136A","towards":"Forest Gate Or Stratford","zone":"3"},{"icsId":"1006178","id":"490006178S","lat":51.55391,"lon":-0.00514,"name":"Millais Road","parentId":"490G00006178","stationId":"490G00006178","stopLetter":"S","topMostParentId":"490G00006178","towards":"Forest Gate Or Stratford"},{"icsId":"1013194","id":"490013194S","lat":51.55192,"lon":-0.00441,"name":"Drapers Field","parentId":"490G00013194","stationId":"490G00013194","stopLetter":"G","topMostParentId":"490G00013194","towards":"Forest Gate Or Stratford"},{"icsId":"1013626","id":"490013626S","lat":51.54725,"lon":-0.00139,"name":"Thornham Grove","parentId":"490G00013626","stationId":"490G00013626","stopLetter":"H","topMostParentId":"490G00013626","towards":"Stratford"},{"icsId":"1018979","id":"490003260S","lat":51.54594,"lon":-0.00062,"name":"Windmill Lane","parentId":"490G00018979","stationId":"490G00018979","stopLetter":"Z","topMostParentId":"490G00018979","towards":"Forest Gate Or Plaistow"},{"icsId":"1012904","id":"490012904N","lat":51.54144,"lon":-0.00238,"name":"Stratford Bus Station","parentId":"490G000773","stationId":"490G000773","stopLetter":"AP","topMostParentId":"HUBSRA"}]}]}