{"direction":"outbound","lineId":"160","lineName":"160","mode":"bus","stopPointSequences":[{"stopPoint":[{"icsId":"1013615","id":"490013615Q","lat":51.44636,"lon":-0.02268,"name":"Thomas Lane","parentId":"490G00013615","stationId":"490G00013615","stopLetter":"Q","topMostParentId":"490G00013615","towards":"Downham Or Eltham"},{"icsId":"1009117","id":"490009117J","lat":51.44501,"lon":-0.02056,"name":"Catford Road / Lewisham Town Hall","parentId":"490G00009117","stationId":"490G00009117","stopLetter":"J","topMostParentId":"490G00009117","towards":"Grove Park, Hither Green Or Lee"},{"icsId":"1011056","id":"490011056F","lat":51.44524,"lon":-0.01743,"name":"Plassy Road","parentId":"490G00011056","stationId":"490G00011056","stopLetter":"F","topMostParentId":"490G00011056","towards":"Lower Sydenham, Grove Park Or Hither Green"},{"icsId":"1008318","id":"490008318E","lat":51.44329,"lon":-0.01539,"name":"Holy Cross School","parentId":"490G00008318","stationId":"490G00008318","stopLetter":"H","topMostParentId":"490G00008318","towards":"Eltham, Grove Park Or Hither Green"},{"icsId":"1012684","id":"490012684E1","lat":51.44233,"lon":-0.01063,"name":"Sangley Road / St Fillans Road","parentId":"490G00012684","stationId":"490G00012684","stopLetter":"J","topMostParentId":"490G00012684","towards":"Eltham, Grove Park Or Hither Green"},{"icsId":"1012549","id":"490012549E","lat":51.44221,"lon":-0.0015,"name":"Sandhurst Road / St Andrews Church","parentId":"490G00012549","stationId":"490G00012549","stopLetter":"K","topMostParentId":"490G00012549","towards":"Eltham Or Grove Park"},{"icsId":"1009936","id":"490009936L","lat":51.44222,"lon":0.00084,"name":"Minard Road","parentId":"490G00009936","stationId":"490G00009936","stopLetter":"L","topMostParentId":"490G00009936","towards":"Eltham Or Grove Park"},{"icsId":"1014368","id":"490014368E","lat":51.44227,"lon":0.00306,"name":"Sandhurst Road / Verdant Lane","parentId":"490G00014368","stationId":"490G00014368","stopLetter":"->E","topMostParentId":"490G00014368","towards":"Eltham Or Grove Park"},{"icsId":"1010762","id":"490010762E","lat":51.44568,"lon":0.00808,"name":"Parkcroft Road","parentId":"490G00010762","stationId":"490G00010762","stopLetter":"J","topMostParentId":"490G00010762","towards":"Eltham Or Lee Green"},{"icsId":"1003599","id":"490003599E","lat":51.44599,"lon":0.01311,"name":"Baring Road","parentId":"490G00003599","stationId":"490G00003599","stopLetter":"V","topMostParentId":"490G00003599","towards":"Eltham Or Lee Green"},{"icsId":"1014920","id":"490014920N","lat":51.44802,"lon":0.02153,"name":"Woodyates Road","parentId":"490G00014920","stationId":"490G00014920","stopLetter":"K","topMostParentId":"490G00014920","towards":"Eltham"},{"icsId":"1008354","id":"490008354N","lat":51.44927,"lon":0.02588,"name":"Horn Park Lane","parentId":"490G00008354","stationId":"490G00008354","stopLetter":"EL","topMostParentId":"490G00008354","towards":"Eltham"},{"icsId":"1012142","id":"490012142N","lat":51.45074,"lon":0.03082,"name":"Sidcup Road","parentId":"490G00012142","stationId":"490G00012142","stopLetter":"EM","topMostParentId":"490G00012142","towards":"Eltham"},{"icsId":"1019826","id":"490015018N","lat":51.45238,"lon":0.03477,"name":"Westhorne Avenue / Eltham Road","parentId":"490G00019826","stationId":"490G00019826","stopLetter":"EN","topMostParentId":"490G00019826","towards":"Eltham"},{"icsId":"1006543","id":"490006543S","lat":51.45196,"lon":0.0363,"name":"Eltham Green School","parentId":"490G00006543","stationId":"490G00006543","stopLetter":"EO","topMostParentId":"490G00006543","towards":"Eltham"},{"icsId":"1005248","id":"490005248S","lat":51.44882,"lon":0.03608,"name":"Churchbury Road","parentId":"490G00005248","stationId":"490G00005248","stopLetter":"EP","topMostParentId":"490G00005248","towards":"Eltham"},{"icsId":"1004729","id":"490004729S","lat":51.44725,"lon":0.03809,"name":"Campfield Road","parentId":"490G00004729","stationId":"490G00004729","stopLetter":"->S","topMostParentId":"490G00004729","towards":"Eltham"},{"icsId":"1010238","id":"490010238N2","lat":51.44544,"lon":0.0403,"name":"Newmarket Green","parentId":"490G00010238","stationId":"490G00010238","topMostParentId":"490G00010238","towards":"Eltham"},{"icsId":"1008779","id":"490008779N","lat":51.44785,"lon":0.04378,"name":"Kingsground / Eltham Palace Road","parentId":"490G00008779","stationId":"490G00008779","stopLetter":"->N","topMostParentId":"490G00008779","towards":"Eltham"},{"icsId":"1006542","id":"490006542N","lat":51.45102,"lon":0.04708,"name":"Kingsground / Eltham Hill","parentId":"490G00006542","stationId":"490G00006542","stopLetter":"V","topMostParentId":"490G00006542","towards":"Eltham"},{"icsId":"1006546","id":"490006546E","lat":51.4515,"lon":0.04795,"name":"Sherard Road","parentId":"490G00006546","stationId":"490G00006546","stopLetter":"Y","topMostParentId":"490G00006546","towards":"Chislehurst, Falconwood Or New Eltham"},{"icsId":"1006539","id":"490006537L","lat":51.45074,"lon":0.05525,"name":"Eltham High Street / Passey Place","parentId":"490G00006539","stationId":"490G00006539","stopLetter":"L","topMostParentId":"490G00006539","towards":"Elmstead Woods Or Sidcup"},{"icsId":"1006547","id":"490006533Q","lat":51.45089,"lon":0.05872,"name":"Eltham High Street / Pound Place","parentId":"490G00006547","stationId":"490G00006547","stopLetter":"Q","topMostParentId":"490G00006547","towards":"Elmstead Woods Or Sidcup"},{"icsId":"1023124","id":"490012279S1","lat":51.45004,"lon":0.06414,"name":"Southend Crescent / Wythens Walk","parentId":"490G00023124","stationId":"490G00023124","stopLetter":"B","topMostParentId":"490G00023124","towards":"Elmstead Woods Or Sidcup"},{"icsId":"1008321","id":"490008321S","lat":51.44852,"lon":0.06417,"name":"Holy Trinity Church","parentId":"490G00008321","stationId":"490G00008321","stopLetter":"FA","topMostParentId":"490G00008321","towards":"Elmstead Woods, Grove Park Or Sidcup"},{"icsId":"1007684","id":"490007684S","lat":51.44706,"lon":0.06305,"name":"Halons Road","parentId":"490G00007684","stationId":"490G00007684","stopLetter":"FB","topMostParentId":"490G00007684","towards":"Elmstead Woods Or Sidcup"},{"icsId":"1008477","id":"490008477S","lat":51.44512,"lon":0.0635,"name":"Inca Drive","parentId":"490G00008477","stationId":"490G00008477","stopLetter":"FC","topMostParentId":"490G00008477","towards":"Elmstead Woods Or Sidcup"},{"icsId":"1007463","id":"490007463S","lat":51.44298,"lon":0.06499,"name":"Green Lane","parentId":"490G00007463","stationId":"490G00007463","stopLetter":"FD","topMostParentId":"490G00007463","towards":"Elmstead Woods Or Sidcup"},{"icsId":"1006892","id":"490006892N","lat":51.44171,"lon":0.06812,"name":"Footscray Rugby Club","parentId":"490G00006892","stationId":"490G00006892","stopLetter":"H","topMostParentId":"490G00006892","towards":"Elmstead Woods Or Sidcup"},{"icsId":"1010209","id":"490010209B","lat":51.43836,"lon":0.07141,"name":"New Eltham Station  / Footscray Road","parentId":"490G000674","stationId":"490G000674","stopLetter":"J","topMostParentId":"490G000674","towards":"Elmstead Woods Or Sidcup"},{"icsId":"1001205","id":"490001205E","lat":51.43662,"lon":0.07063,"name":"New Eltham Station  / Southwood Road","stopLetter":"L","topMostParentId":"490001205E","towards":"Chislehurst Or Elmstead Woods"},{"icsId":"1013318","id":"490013318W","lat":51.43509,"lon":0.06496,"name":"Fiveways","parentId":"490G00013318","stationId":"490G00013318","stopLetter":"M","topMostParentId":"490G00013318","towards":"Chislehurst Or Elmstead Woods"},{"icsId":"1014696","id":"490014696S","lat":51.43286,"lon":0.06403,"name":"William Barefoot Drive","parentId":"490G00014696","stationId":"490G00014696","stopLetter":"P","topMostParentId":"490G00014696","towards":"Bromley Or Sidcup"},{"icsId":"1009996","id":"490009996S","lat":51.43024,"lon":0.06408,"name":"Montbelle Road","parentId":"490G00009996","stationId":"490G00009996","stopLetter":"->S","topMostParentId":"490G00009996","towards":"Bromley Or Sidcup"},{"icsId":"1006104","id":"490006103E","lat":51.42578,"lon":0.06532,"name":"Edgebury / Domonic Drive","parentId":"490G00006104","stationId":"490G00006104","stopLetter":"P","topMostParentId":"490G00006104","towards":"Bromley Or Sidcup"},{"icsId":"1003866","id":"490003866E","lat":51.42454,"lon":0.07208,"name":"Edgebury Primary School","parentId":"490G00003866","stationId":"490G00003866","stopLetter":"U","topMostParentId":"490G00003866","towards":"Sidcup"},{"icsId":"1005198","id":"490005198D","lat":51.42092,"lon":0.06934,"name":"Chislehurst / Gordon Arms","parentId":"490G00005198","stationId":"490G00005198","stopLetter":"W","topMostParentId":"490G00005198","towards":"Bromley Or Sidcup"},{"icsId":"1009356","id":"490009356M","lat":51.41685,"lon":0.07009,"name":"Loop Road","parentId":"490G00009356","stationId":"490G00009356","stopLetter":"M","topMostParentId":"490G00009356","towards":"Bromley, Orpington Or Sidcup"},{"icsId":"1005205","id":"490005205P","lat":51.41302,"lon":0.07351,"name":"Centre Common Road / War Memorial","parentId":"490G00005205","stationId":"490G00005205","stopLetter":"P","topMostParentId":"490G00005205","towards":"Bromley, Petts Wood Or Sidcup"},{"icsId":"1015269","id":"490015269S","lat":51.4127,"lon":0.07567,"name":"Bromley Lane / Chislehurst War Memorial","parentId":"490G00015269","stationId":"490G00015269","stopLetter":"S","topMostParentId":"490G00015269","towards":"Sidcup"},{"icsId":"1003427","id":"490003427E","lat":51.41514,"lon":0.08184,"name":"Ashfield Lane","parentId":"490G00003427","stationId":"490G00003427","stopLetter":"Y","topMostParentId":"490G00003427","towards":"Sidcup"},{"icsId":"1003735","id":"490003735E","lat":51.41661,"lon":0.0897,"name":"Beaverwood Road","parentId":"490G00003735","stationId":"490G00003735","stopLetter":"->E","topMostParentId":"490G00003735","towards":"Sidcup"},{"icsId":"1009041","id":"490009041HK","lat":51.4183,"lon":0.09375,"name":"Leas Green","parentId":"490G00009041","stationId":"490G00009041","stopLetter":"HK","topMostParentId":"490G00009041","towards":"Bexleyheath"},{"icsId":"1012150","id":"490012139HJ","lat":51.42032,"lon":0.09913,"name":"Queen Mary's Hospital","parentId":"490G00012150","stationId":"490G00012150","stopLetter":"HJ","topMostParentId":"490G00012150","towards":"Bexleyheath, Eltham Or Foots Cray"},{"icsId":"1013421","id":"490013421N","lat":51.4234,"lon":0.10067,"name":"The Green","parentId":"490G00013421","stationId":"490G00013421","stopLetter":"X","topMostParentId":"490G00013421","towards":"Bexleyheath, Eltham Or Foots Cray"},{"icsId":"1019822","id":"490012140R","lat":51.42613,"lon":0.10079,"name":"Sidcup / Carlton Road","parentId":"490G00019822","stationId":"490G00019822","stopLetter":"R","topMostParentId":"490G00019822","towards":"Bexleyheath Or Eltham"},{"icsId":"1005747","id":"490005743N","lat":51.43115,"lon":0.10213,"name":"Crescent Road","parentId":"490G00005747","stationId":"490G00005747","stopLetter":"N","topMostParentId":"490G00005747","towards":"Bexleyheath, Blackfen Or Eltham"},{"icsId":"1019885","id":"490015177L","lat":51.43256,"lon":0.10248,"name":"Sidcup Station  / Station Road","parentId":"490G000962","stationId":"490G000962","stopLetter":"L","topMostParentId":"490G000962","towards":"Bexleyheath, Blackfen Or Eltham"},{"icsId":"1001249","id":"490015534D","lat":51.43361,"lon":0.10485,"name":"Sidcup Station","stopLetter":"D","topMostParentId":"490015534D"}]}]}