{"direction":"outbound","lineId":"163","lineName":"163","mode":"bus","stopPointSequences":[{"stopPoint":[{"icsId":"1015390","id":"490015390F","lat":51.40276,"lon":-0.19309,"name":"London Road / Morden Station","parentId":"490G000892","stationId":"490G000892","stopLetter":"F","topMostParentId":"490G000892","towards":"Morden Park Or Wimbledon Chase"},{"icsId":"1010018","id":"490010018J","lat":51.40091,"lon":-0.19548,"name":"Morden Civic Centre","parentId":"490G00010018","stationId":"490G00010018","stopLetter":"J","topMostParentId":"490G00010018","towards":"Lower Morden Or Raynes Park"},{"icsId":"1009187","id":"490009187S","lat":51.40125,"lon":-0.19965,"name":"Links Avenue","parentId":"490G00009187","stationId":"490G00009187","stopLetter":"P","topMostParentId":"490G00009187","towards":"Lower Morden"},{"icsId":"1009731","id":"490009731W","lat":51.39901,"lon":-0.20393,"name":"Maycross Avenue","parentId":"490G00009731","stationId":"490G00009731","stopLetter":"Q","topMostParentId":"490G00009731","towards":"Morden Park"},{"icsId":"1003447","id":"490003447W","lat":51.39816,"lon":-0.20729,"name":"Ashridge Way","parentId":"490G00003447","stationId":"490G00003447","stopLetter":"R","topMostParentId":"490G00003447","towards":"Morden Park"},{"icsId":"1009974","id":"490009974N","lat":51.39742,"lon":-0.21021,"name":"Monkleigh Road","parentId":"490G00009974","stationId":"490G00009974","stopLetter":"HJ","topMostParentId":"490G00009974","towards":"North Cheam Or Raynes Park"},{"icsId":"1008212","id":"490008212W","lat":51.39458,"lon":-0.21495,"name":"Hillcross Avenue","parentId":"490G00008212","stationId":"490G00008212","stopLetter":"HK","topMostParentId":"490G00008212","towards":"North Cheam Or Raynes Park"},{"icsId":"1005317","id":"490005317W","lat":51.39346,"lon":-0.21622,"name":"Churston Drive","parentId":"490G00005317","stationId":"490G00005317","stopLetter":"HL","topMostParentId":"490G00005317","towards":"North Cheam Or Raynes Park"},{"icsId":"1009429","id":"490009424W","lat":51.39142,"lon":-0.22174,"name":"Tudor Drive","parentId":"490G00009429","stationId":"490G00009429","stopLetter":"HM","topMostParentId":"490G00009429","towards":"North Cheam Or Raynes Park"},{"icsId":"1013262","id":"490013262N","lat":51.39231,"lon":-0.22328,"name":"Queen Mary Avenue","parentId":"490G00013262","stationId":"490G00013262","stopLetter":"GN","topMostParentId":"490G00013262","towards":"Raynes Park Or South Merton"},{"icsId":"1004754","id":"490004754N","lat":51.39405,"lon":-0.22501,"name":"St John Fisher School","parentId":"490G00004754","stationId":"490G00004754","stopLetter":"GP","topMostParentId":"490G00004754","towards":"Raynes Park Or South Merton"},{"icsId":"1014521","id":"490014521N","lat":51.39756,"lon":-0.22851,"name":"Westway","parentId":"490G00014521","stationId":"490G00014521","stopLetter":"GQ","topMostParentId":"490G00014521","towards":"Raynes Park"},{"icsId":"1007500","id":"490007500N","lat":51.4004,"lon":-0.22911,"name":"Greenway","parentId":"490G00007500","stationId":"490G00007500","stopLetter":"GS","topMostParentId":"490G00007500","towards":"Wimbledon Chase"},{"icsId":"1004105","id":"490004105N","lat":51.40214,"lon":-0.22916,"name":"Blenheim Road","parentId":"490G00004105","stationId":"490G00004105","stopLetter":"->N","topMostParentId":"490G00004105","towards":"Wimbledon Chase"},{"icsId":"1019748","id":"490004647N","lat":51.4062,"lon":-0.22947,"name":"Bushey Road","parentId":"490G00019748","stationId":"490G00019748","stopLetter":"N","topMostParentId":"490G00019748","towards":"Wimbledon Chase"},{"icsId":"1001237","id":"490001237F","lat":51.40902,"lon":-0.22944,"name":"Raynes Park Station","stopLetter":"P","topMostParentId":"490001237F","towards":"Wimbledon Chase"},{"icsId":"1011454","id":"490011454H","lat":51.40994,"lon":-0.22599,"name":"Raynes Park Library","parentId":"490G00011454","stationId":"490G00011454","stopLetter":"Q","topMostParentId":"490G00011454","towards":"Colliers Wood Or Wimbledon"},{"icsId":"1013134","id":"490013134E","lat":51.41051,"lon":-0.22174,"name":"Sydney Road","parentId":"490G00013134","stationId":"490G00013134","stopLetter":"MQ","topMostParentId":"490G00013134","towards":"Colliers Wood Or Wimbledon"},{"icsId":"1009412","id":"490009412S","lat":51.41051,"lon":-0.21729,"name":"Lower Downs Road","parentId":"490G00009412","stationId":"490G00009412","stopLetter":"MS","topMostParentId":"490G00009412","towards":"Colliers Wood Or Wimbledon"},{"icsId":"1001339","id":"490001339A","lat":51.40964,"lon":-0.21291,"name":"Wimbledon Chase Station","stopLetter":"MT","topMostParentId":"490001339A","towards":"Colliers Wood, Morden Or Wimbledon"},{"icsId":"1010168","id":"490010168E","lat":51.41044,"lon":-0.21063,"name":"The Nelson Health Centre","parentId":"490G00010168","stationId":"490G00010168","stopLetter":"MU","topMostParentId":"490G00010168","towards":"Colliers Wood, Morden Or Wimbledon"},{"icsId":"1010057","id":"490010057E","lat":51.41259,"lon":-0.20668,"name":"Wilton Crescent","parentId":"490G00010057","stationId":"490G00010057","stopLetter":"MV","topMostParentId":"490G00010057","towards":"Colliers Wood, Morden Or Wimbledon"},{"icsId":"1002057","id":"490002057A","lat":51.41522,"lon":-0.20245,"name":"Merton Park Tram Stop","stopLetter":"MA","topMostParentId":"490002057A","towards":"Wimbledon"},{"icsId":"1003936","id":"490003936N","lat":51.41792,"lon":-0.20375,"name":"Bertram Cottages","parentId":"490G00003936","stationId":"490G00003936","stopLetter":"Z","topMostParentId":"490G00003936","towards":"Wimbledon"},{"icsId":"1014732","id":"490003936I","lat":51.4193,"lon":-0.20504,"name":"Sir Cyril Black Way","parentId":"490G00014732","stationId":"490G00014732","stopLetter":"I","topMostParentId":"490G00014732","towards":"Worple Road"},{"icsId":"1000272","id":"490000272P","lat":51.42089,"lon":-0.20674,"name":"Wimbledon Station","stopLetter":"P","topMostParentId":"490000272P","towards":"Southfields","zone":"3"},{"icsId":"1006987","id":"490006987NE","lat":51.42111,"lon":-0.20978,"name":"Francis Grove","parentId":"490G00006987","stationId":"490G00006987","stopLetter":"->N","topMostParentId":"490G00006987"}]}]}