{"direction":"outbound","lineId":"176","lineName":"176","mode":"bus","stopPointSequences":[{"stopPoint":[{"icsId":"1015419","id":"490015419G","lat":51.41327,"lon":-0.05255,"name":"Penge / Pawleyne Arms","parentId":"490G00015419","stationId":"490G00015419","stopLetter":"G","topMostParentId":"490G00015419","towards":"Beckenham, Lower Sydenham Or Sydenham"},{"icsId":"1010905","id":"490010905E","lat":51.41573,"lon":-0.05368,"name":"High Street / Maple Road","parentId":"490G00010905","stationId":"490G00010905","stopLetter":"E","topMostParentId":"490G00010905","towards":"Crystal Palace Or Forest Hill"},{"icsId":"1009027","id":"490001225B","lat":51.41774,"lon":-0.05893,"name":"High Street / Penge West Station","parentId":"490G00009027","stationId":"490G00009027","stopLetter":"B","topMostParentId":"490G00009027","towards":"Crystal Palace Or Forest Hill"},{"icsId":"1009025","id":"490009025N","lat":51.41933,"lon":-0.06156,"name":"Thicket Road","parentId":"490G000628","stationId":"490G000628","stopLetter":"P","topMostParentId":"490G000628","towards":"Crystal Palace Or Forest Hill"},{"icsId":"1005580","id":"490012396N","lat":51.42161,"lon":-0.05924,"name":"St Christopher's Hospice","parentId":"490G00005580","stationId":"490G00005580","stopLetter":"J","topMostParentId":"490G00005580","towards":"Forest Hill"},{"icsId":"1004148","id":"490004148N","lat":51.42351,"lon":-0.05807,"name":"Border Road","parentId":"490G00004148","stationId":"490G00004148","stopLetter":"K","topMostParentId":"490G00004148","towards":"Forest Hill"},{"icsId":"1005766","id":"490005766A","lat":51.42544,"lon":-0.0573,"name":"Cricketers Walk","parentId":"490G00005766","stationId":"490G00005766","stopLetter":"A","topMostParentId":"490G00005766","towards":"Forest Hill"},{"icsId":"1009034","id":"490005453E","lat":51.42772,"lon":-0.05671,"name":"Sydenham Station  / Kirkdale","parentId":"490G000630","stationId":"490G000630","stopLetter":"E","topMostParentId":"HUBSYD","towards":"Forest Hill"},{"icsId":"1010871","id":"490010871N","lat":51.42991,"lon":-0.05886,"name":"Peak Hill","parentId":"490G00010871","stationId":"490G00010871","stopLetter":"Y","topMostParentId":"490G00010871","towards":"Forest Hill"},{"icsId":"1013125","id":"490013125N","lat":51.43191,"lon":-0.06068,"name":"Sydenham / the Woodman","parentId":"490G00013125","stationId":"490G00013125","stopLetter":"E","topMostParentId":"490G00013125","towards":"Forest Hill"},{"icsId":"1013131","id":"490013131N1","lat":51.43398,"lon":-0.05826,"name":"Sydenham School","parentId":"490G00013131","stationId":"490G00013131","stopLetter":"L","topMostParentId":"490G00013131","towards":"Dulwich"},{"icsId":"1013646","id":"490013646N","lat":51.43511,"lon":-0.05669,"name":"Dartmouth Road / Thorpewood Avenue","parentId":"490G00013646","stationId":"490G00013646","stopLetter":"N","topMostParentId":"490G00013646","towards":"Brockley Or Dulwich"},{"icsId":"1000866","id":"490000866Z","lat":51.43655,"lon":-0.05511,"name":"Forest Hill Pools","parentId":"490G000189","stationId":"490G000189","stopLetter":"->N","topMostParentId":"490G000189","towards":"Brockley Or Dulwich"},{"icsId":"1005314","id":"490001112D","lat":51.43937,"lon":-0.05515,"name":"Forest Hill Station  / London Road","parentId":"490G000456","stationId":"490G000456","stopLetter":"D","topMostParentId":"490G000456","towards":"Dulwich Or Upper Sydenham"},{"icsId":"1008337","id":"490008337W","lat":51.4404,"lon":-0.05796,"name":"Honor Oak Road","parentId":"490G00008337","stationId":"490G00008337","stopLetter":"C","topMostParentId":"490G00008337","towards":"Dulwich Or Upper Sydenham"},{"icsId":"1008350","id":"490008350W1","lat":51.44059,"lon":-0.06266,"name":"Horniman Museum","parentId":"490G00008350","stationId":"490G00008350","stopLetter":"MH","topMostParentId":"490G00008350","towards":"Dulwich"},{"icsId":"1009362","id":"490009362S2","lat":51.44181,"lon":-0.06576,"name":"Lordship Lane / Wood Vale","parentId":"490G00009362","stationId":"490G00009362","stopLetter":"MJ","topMostParentId":"490G00009362","towards":"Brixton, Camberwell Or Peckham"},{"icsId":"1007586","id":"490007586N","lat":51.44386,"lon":-0.06837,"name":"Grove Tavern","parentId":"490G00007586","stationId":"490G00007586","stopLetter":"MK","topMostParentId":"490G00007586","towards":"Camberwell Or Peckham"},{"icsId":"1010671","id":"490010671N","lat":51.44528,"lon":-0.07079,"name":"Overhill Road","parentId":"490G00010671","stationId":"490G00010671","stopLetter":"DJ","topMostParentId":"490G00010671","towards":"Camberwell Or Peckham"},{"icsId":"1013919","id":"490013919N","lat":51.44694,"lon":-0.07242,"name":"Upland Road","parentId":"490G00013919","stationId":"490G00013919","stopLetter":"DK","topMostParentId":"490G00013919","towards":"Camberwell Or Peckham"},{"icsId":"1006232","id":"490006232N2","lat":51.44836,"lon":-0.07371,"name":"Dulwich Library","parentId":"490G00006232","stationId":"490G00006232","stopLetter":"DL","topMostParentId":"490G00006232","towards":"Camberwell Or Peckham"},{"icsId":"1015428","id":"490015428N","lat":51.44952,"lon":-0.07486,"name":"Dulwich / the Plough","parentId":"490G00015428","stationId":"490G00015428","stopLetter":"DM","topMostParentId":"490G00015428","towards":"Camberwell"},{"icsId":"1005874","id":"490005874N","lat":51.45073,"lon":-0.07633,"name":"Crystal Palace Road","parentId":"490G00005874","stationId":"490G00005874","stopLetter":"DN","topMostParentId":"490G00005874","towards":"Camberwell"},{"icsId":"1008041","id":"490008041N","lat":51.45319,"lon":-0.07747,"name":"Heber Road","parentId":"490G00008041","stationId":"490G00008041","stopLetter":"DP","topMostParentId":"490G00008041","towards":"Camberwell"},{"icsId":"1006335","id":"490006335N","lat":51.45653,"lon":-0.07602,"name":"Melbourne Grove","parentId":"490G00006335","stationId":"490G00006335","stopLetter":"DQ","topMostParentId":"490G00006335","towards":"Camberwell Or Peckham"},{"icsId":"1010346","id":"490010346R","lat":51.45817,"lon":-0.07524,"name":"North Cross Road","parentId":"490G00010346","stationId":"490G00010346","stopLetter":"R","topMostParentId":"490G00010346","towards":"Camberwell Or Peckham"},{"icsId":"1012417","id":"490012417L","lat":51.46019,"lon":-0.07536,"name":"Goose Green","parentId":"490G00012417","stationId":"490G00012417","stopLetter":"J","topMostParentId":"490G00012417","towards":"Camberwell Or Peckham"},{"icsId":"1006526","id":"490006526A","lat":51.46145,"lon":-0.0785,"name":"Elsie Road","parentId":"490G000502","stationId":"490G000502","stopLetter":"A","topMostParentId":"490G000502","towards":"Camberwell Or Peckham"},{"icsId":"1001090","id":"490001090D","lat":51.46187,"lon":-0.08058,"name":"East Dulwich Station","stopLetter":"D","topMostParentId":"490001090D","towards":"Camberwell Or Peckham"},{"icsId":"1006094","id":"490006094N","lat":51.46525,"lon":-0.08449,"name":"Champion Hill","parentId":"490G00006094","stationId":"490G00006094","stopLetter":"G","topMostParentId":"490G00006094","towards":"Camberwell Or Peckham"},{"icsId":"1004972","id":"490004972N","lat":51.46705,"lon":-0.08594,"name":"Champion Grove","parentId":"490G00004972","stationId":"490G00004972","stopLetter":"H","topMostParentId":"490G00004972","towards":"Camberwell"},{"icsId":"1001083","id":"490001083H2","lat":51.46757,"lon":-0.09027,"name":"Denmark Hill Station","stopLetter":"J","topMostParentId":"490001083H2","towards":"Oval Or Elephant & Castle"},{"icsId":"1008764","id":"490008764H5","lat":51.46954,"lon":-0.0927,"name":"King's College Hospital","parentId":"490G00008764","stationId":"490G00008764","stopLetter":"R","topMostParentId":"490G00008764","towards":"Oval, Elephant & Castle Or Bricklayers Arms"},{"icsId":"1005464","id":"490005464W","lat":51.47148,"lon":-0.09308,"name":"Coldharbour Lane","parentId":"490G00005464","stationId":"490G00005464","stopLetter":"W","topMostParentId":"490G00005464","towards":"Oval, Elephant & Castle Or Bricklayers Arms"},{"icsId":"1004687","id":"490004687S","lat":51.47306,"lon":-0.09329,"name":"Denmark Hill / Camberwell Green","parentId":"490G00004687","stationId":"490G00004687","stopLetter":"S","topMostParentId":"490G00004687","towards":"Oval Or Elephant & Castle"},{"icsId":"1015298","id":"490015298F","lat":51.47529,"lon":-0.09328,"name":"Camberwell Green","parentId":"490G00015298","stationId":"490G00015298","stopLetter":"F","topMostParentId":"490G00015298","towards":"Elephant & Castle"},{"icsId":"1009784","id":"490009784D","lat":51.47682,"lon":-0.09408,"name":"Medlar Street","parentId":"490G00009784","stationId":"490G00009784","stopLetter":"D","topMostParentId":"490G00009784","towards":"Elephant & Castle"},{"icsId":"1014979","id":"490014979N2","lat":51.4785,"lon":-0.09423,"name":"Wyndham Road","parentId":"490G00014979","stationId":"490G00014979","stopLetter":"U","topMostParentId":"490G00014979","towards":"Tower Bridge Or Elephant & Castle"},{"icsId":"1004221","id":"490004221N","lat":51.48058,"lon":-0.09446,"name":"Bowyer Place","parentId":"490G00004221","stationId":"490G00004221","stopLetter":"Z","topMostParentId":"490G00004221","towards":"Tower Bridge Or Elephant & Castle"},{"icsId":"1003138","id":"490003138N2","lat":51.48168,"lon":-0.09454,"name":"Camberwell Road / Albany Road","parentId":"490G00003138","stationId":"490G00003138","stopLetter":"X","topMostParentId":"490G00003138","towards":"Tower Bridge Or Elephant & Castle"},{"icsId":"1014501","id":"490014501M","lat":51.4841,"lon":-0.09407,"name":"Westmoreland Road","parentId":"490G00014501","stationId":"490G00014501","stopLetter":"M","topMostParentId":"490G00014501","towards":"Waterloo Or Westminster"},{"icsId":"1006380","id":"490006380H","lat":51.48694,"lon":-0.09523,"name":"East Street","parentId":"490G00006380","stationId":"490G00006380","stopLetter":"H","topMostParentId":"490G00006380","towards":"Waterloo Or Westminster"},{"icsId":"1008975","id":"490008975C","lat":51.48997,"lon":-0.09689,"name":"Larcom Street","parentId":"490G00008975","stationId":"490G00008975","stopLetter":"C","topMostParentId":"490G00008975","towards":"Waterloo Or Westminster"},{"icsId":"1008122","id":"490008122N","lat":51.4914,"lon":-0.09784,"name":"Heygate Street","parentId":"490G00008122","stationId":"490G00008122","stopLetter":"Z","topMostParentId":"490G00008122","towards":"Waterloo Or Westminster"},{"icsId":"1000073","id":"490000073V","lat":51.49447,"lon":-0.10085,"name":"Elephant & Castle Station","stopLetter":"V","topMostParentId":"490000073V","towards":"Waterloo Or Westminster","zone":"1+2"},{"icsId":"1009281","id":"490009281A","lat":51.49613,"lon":-0.10171,"name":"Elephant & Castle / London Road","parentId":"490G000642","stationId":"490G000642","stopLetter":"A","topMostParentId":"490G000642","towards":"Blackfriars Or Waterloo"},{"icsId":"1012693","id":"490012693N1","lat":51.49967,"lon":-0.10724,"name":"St George's Circus","parentId":"490G00012693","stationId":"490G00012693","stopLetter":"P","topMostParentId":"490G00012693","towards":"Aldwych"},{"icsId":"1013485","id":"490013485N","lat":51.50129,"lon":-0.10909,"name":"The Old Vic","parentId":"490G00013485","stationId":"490G00013485","stopLetter":"Q","topMostParentId":"490G00013485","towards":"Aldwych"},{"icsId":"1003713","id":"490000254H","lat":51.50405,"lon":-0.1124,"name":"Waterloo Station / Tenison Way","parentId":"490G000402","stationId":"490G000402","stopLetter":"H","topMostParentId":"HUBWAT","towards":"High Holborn"},{"icsId":"1014271","id":"490014270P","lat":51.50626,"lon":-0.115,"name":"Waterloo Bridge / South Bank","parentId":"490G000819","stationId":"490G000819","stopLetter":"P","topMostParentId":"490G000819","towards":"Trafalgar Square, Fleet Street Or Holborn"},{"icsId":"1008932","id":"490008932T","lat":51.51045,"lon":-0.11872,"name":"Lancaster Place","parentId":"490G00008932","stationId":"490G00008932","stopLetter":"T","topMostParentId":"490G00008932","towards":"Trafalgar Square, Fleet Street Or Holborn"},{"icsId":"1011938","id":"490011938U","lat":51.51077,"lon":-0.12048,"name":"Savoy Street","parentId":"490G000737","stationId":"490G000737","stopLetter":"U","topMostParentId":"490G000737","towards":"Parliament Square Or Piccadilly"},{"icsId":"1003112","id":"490003112J","lat":51.50967,"lon":-0.12319,"name":"Bedford Street","parentId":"490G00003112","stationId":"490G00003112","stopLetter":"J","topMostParentId":"490G00003112","towards":"Oxford Circus, Green Park Or Westminster"},{"icsId":"1000045","id":"490013766H","lat":51.50843,"lon":-0.12552,"name":"Charing Cross Station","stopLetter":"H","topMostParentId":"490013766H","towards":"Hyde Park Corner Or Oxford Circus","zone":"1"},{"icsId":"1013767","id":"490013767C","lat":51.50826,"lon":-0.12734,"name":"Trafalgar Sq / Charing Cross Stn","parentId":"490G000804","stationId":"490G000804","stopLetter":"C","topMostParentId":"490G000804","towards":"Tottenham Court Road"},{"icsId":"1000135","id":"490000135A","lat":51.51055,"lon":-0.12847,"name":"Leicester Square Station","stopLetter":"L","topMostParentId":"490000135A","towards":"Tottenham Court Road","zone":"1"},{"icsId":"1004695","id":"490004695N","lat":51.51251,"lon":-0.12871,"name":"Cambridge Circus","parentId":"490G00004695","stationId":"490G00004695","stopLetter":"M","topMostParentId":"490G00004695","towards":"Warren Street"},{"icsId":"1019157","id":"490004695A","lat":51.51434,"lon":-0.1298,"name":"Denmark Street","parentId":"490G00019157","stationId":"490G00019157","stopLetter":"A","topMostParentId":"490G00019157","towards":"Warren Street Or Holborn"},{"icsId":"1000356","id":"490000356NE","lat":51.51733,"lon":-0.12993,"name":"Tottenham Ct Rd Stn  / Gt Russell St","parentId":"490G00000356","stationId":"490G00000356","topMostParentId":"490G00000356"}]}]}