{"direction":"outbound","lineId":"179","lineName":"179","mode":"bus","stopPointSequences":[{"stopPoint":[{"icsId":"1001063","id":"490001063C","lat":51.63354,"lon":0.01052,"name":"Chingford Station","stopLetter":"C","topMostParentId":"490001063C","towards":"Chingford Mount Or Woodford Wells"},{"icsId":"1012617","id":"490012617E","lat":51.63303,"lon":0.00865,"name":"Station Road / Chingford Station","parentId":"490G000764","stationId":"490G000764","stopLetter":"E","topMostParentId":"490G000764","towards":"Chingford Hospital, Chingford Mount Or Ponders End"},{"icsId":"1012558","id":"490012558G","lat":51.63178,"lon":0.00522,"name":"Stanley Road","parentId":"490G00012558","stationId":"490G00012558","stopLetter":"G","topMostParentId":"490G00012558","towards":"Chingford Mount, Chingford Hatch Or Ponders End"},{"icsId":"1012619","id":"490012619K","lat":51.63081,"lon":0.00191,"name":"Station Road / the Green","parentId":"490G00012619","stationId":"490G00012619","stopLetter":"K","topMostParentId":"490G00012619","towards":"Chingford Hosp, Chingford Mount Or South Woodford"},{"icsId":"1005183","id":"490005183E","lat":51.6288,"lon":0.00308,"name":"Balgonie Road","parentId":"490G00005183","stationId":"490G00005183","stopLetter":"GA","topMostParentId":"490G00005183","towards":"Chingford Mount Or South Woodford"},{"icsId":"1007021","id":"490007021E","lat":51.62715,"lon":0.00851,"name":"Friday Hill","parentId":"490G00007021","stationId":"490G00007021","stopLetter":"GB","topMostParentId":"490G00007021","towards":"Woodford Wells"},{"icsId":"1008724","id":"490008724E","lat":51.62749,"lon":0.01183,"name":"Kimberley Road","parentId":"490G00008724","stationId":"490G00008724","stopLetter":"GC","topMostParentId":"490G00008724","towards":"Woodford Green"},{"icsId":"1013981","id":"490013981E","lat":51.62761,"lon":0.01662,"name":"Valance Avenue","parentId":"490G00013981","stationId":"490G00013981","stopLetter":"GE","topMostParentId":"490G00013981","towards":"Woodford Green"},{"icsId":"1012012","id":"490012012E","lat":51.62672,"lon":0.0195,"name":"Seymour Court","parentId":"490G00012012","stationId":"490G00012012","stopLetter":"GH","topMostParentId":"490G00012012","towards":"Buckhurst Hill Or Woodford Green"},{"icsId":"1020390","id":"490014587E","lat":51.62439,"lon":0.02223,"name":"Newlands Road","parentId":"490G000007","stationId":"490G000007","stopLetter":"FA","topMostParentId":"490G000007","towards":"Debden Or South Woodford"},{"icsId":"1006930","id":"490006930S","lat":51.62088,"lon":0.02357,"name":"Forest Road","parentId":"490G00006930","stationId":"490G00006930","stopLetter":"FB","topMostParentId":"490G00006930","towards":"South Woodford Or Debden"},{"icsId":"1003575","id":"490003575E","lat":51.61881,"lon":0.0261,"name":"Bancroft's School","parentId":"490G00003575","stationId":"490G00003575","stopLetter":"FC","topMostParentId":"490G00003575","towards":"Debden Or South Woodford"},{"icsId":"1015121","id":"490015121S","lat":51.61583,"lon":0.02572,"name":"St Thomas of Canterbury Church","parentId":"490G00015121","stationId":"490G00015121","stopLetter":"FS","topMostParentId":"490G00015121","towards":"South Woodford Or Whipps Cross"},{"icsId":"1009973","id":"490009973S","lat":51.61229,"lon":0.02374,"name":"Monkhams Lane","parentId":"490G00009973","stationId":"490G00009973","stopLetter":"A","topMostParentId":"490G00009973","towards":"South Woodford Or Whipps Cross"},{"icsId":"1014847","id":"490014847S","lat":51.60918,"lon":0.02142,"name":"Woodford Green / Broadmead Road","parentId":"490G000842","stationId":"490G000842","stopLetter":"B","topMostParentId":"490G000842","towards":"South Woodford Or Whipps Cross"},{"icsId":"1005177","id":"490005177S","lat":51.60704,"lon":0.0199,"name":"Chingford Lane","parentId":"490G00005177","stationId":"490G00005177","stopLetter":"C","topMostParentId":"490G00005177","towards":"South Woodford Or Whipps Cross"},{"icsId":"1005269","id":"490005269S","lat":51.60397,"lon":0.01899,"name":"Churchill Memorial","parentId":"490G00005269","stationId":"490G00005269","stopLetter":"D","topMostParentId":"490G00005269","towards":"Gants Hill Or Leytonstone"},{"icsId":"1014849","id":"490014845S","lat":51.60068,"lon":0.01971,"name":"St Albans Road","parentId":"490G00014849","stationId":"490G00014849","stopLetter":"G","topMostParentId":"490G00014849","towards":"Gants Hill Or Leytonstone"},{"icsId":"1005260","id":"490005259S","lat":51.59841,"lon":0.02084,"name":"Churchfields","parentId":"490G00005260","stationId":"490G00005260","stopLetter":"->S","topMostParentId":"490G00005260","towards":"Gants Hill Or Leytonstone"},{"icsId":"1007138","id":"490007137M","lat":51.59638,"lon":0.02181,"name":"Southend Road","parentId":"490G00007138","stationId":"490G00007138","stopLetter":"M","topMostParentId":"490G00007138","towards":"Gants Hill Or Leytonstone"},{"icsId":"1007164","id":"490007164G","lat":51.59464,"lon":0.02427,"name":"George Lane Shopping Centre","parentId":"490G00007164","stationId":"490G00007164","stopLetter":"G","topMostParentId":"490G00007164","towards":"Gants Hill, Wanstead Or Woodford Bridge"},{"icsId":"1000217","id":"490015122C","lat":51.59131,"lon":0.02899,"name":"South Woodford Station","stopLetter":"C","topMostParentId":"490015122C","towards":"Gants Hill, Wanstead Or Woodford Bridge","zone":"4"},{"icsId":"1019203","id":"490008091S","lat":51.59009,"lon":0.03027,"name":"George Lane / Chigwell Road","parentId":"490G00019203","stationId":"490G00019203","stopLetter":"B","topMostParentId":"490G00019203","towards":"Gants Hill, Wanstead Or Woodford Bridge"},{"icsId":"1010601","id":"490010601N","lat":51.59056,"lon":0.03294,"name":"Onslow Gardens","parentId":"490G00010601","stationId":"490G00010601","stopLetter":"A","topMostParentId":"490G00010601","towards":"Woodford Bridge Or Gants Hill"},{"icsId":"1005002","id":"490005002N","lat":51.59284,"lon":0.03643,"name":"Charlie Brown's Roundabout","parentId":"490G00005002","stationId":"490G00005002","stopLetter":"D","topMostParentId":"490G00005002","towards":"Woodford Bridge Or Gants Hill"},{"icsId":"1005158","id":"490005157E","lat":51.59333,"lon":0.03957,"name":"Lechmere Approach","parentId":"490G00005158","stationId":"490G00005158","stopLetter":"E","topMostParentId":"490G00005158","towards":"Gants Hill"},{"icsId":"1010418","id":"490010418E","lat":51.59247,"lon":0.04293,"name":"Northview Drive","parentId":"490G00010418","stationId":"490G00010418","stopLetter":"F","topMostParentId":"490G00010418","towards":"Gants Hill"},{"icsId":"1011628","id":"490011628E","lat":51.591,"lon":0.04729,"name":"Woodford / Roding Lane North","parentId":"490G00011628","stationId":"490G00011628","stopLetter":"WA","topMostParentId":"490G00011628","towards":"Gants Hill"},{"icsId":"1005368","id":"490005368S1","lat":51.58953,"lon":0.05006,"name":"Claybury Broadway","parentId":"490G00005368","stationId":"490G00005368","stopLetter":"WB","topMostParentId":"490G00005368","towards":"Gants Hill"},{"icsId":"1019961","id":"490014846E","lat":51.58421,"lon":0.05589,"name":"Lord Avenue","parentId":"490G00019961","stationId":"490G00019961","stopLetter":"WD","topMostParentId":"490G00019961","towards":"Ilford"},{"icsId":"1007383","id":"490007380S","lat":51.58244,"lon":0.05745,"name":"Longwood Gardens","parentId":"490G00007383","stationId":"490G00007383","stopLetter":"WE","topMostParentId":"490G00007383","towards":"Ilford"},{"icsId":"1008200","id":"490008200S","lat":51.58081,"lon":0.06001,"name":"Highwood Gardens","parentId":"490G00008200","stationId":"490G00008200","stopLetter":"WH","topMostParentId":"490G00008200","towards":"Ilford"},{"icsId":"1007240","id":"490007240S","lat":51.57929,"lon":0.06292,"name":"Glenwood Gardens","parentId":"490G00007240","stationId":"490G00007240","stopLetter":"WP","topMostParentId":"490G00007240","towards":"Ilford"},{"icsId":"1015199","id":"490000085A","lat":51.57751,"lon":0.06569,"name":"Gants Hill Station / Woodford Avenue","parentId":"490G000876","stationId":"490G000876","stopLetter":"WQ","topMostParentId":"490G000876","towards":"Ilford"},{"icsId":"1015202","id":"490015202N","lat":51.57565,"lon":0.06636,"name":"Gants Hill Station / Cranbrook Road","parentId":"490G000878","stationId":"490G000878","stopLetter":"CH","topMostParentId":"490G000878","towards":"Ilford"},{"icsId":"1003828","id":"490003828S1","lat":51.57189,"lon":0.06444,"name":"Mornington Avenue","parentId":"490G00003828","stationId":"490G00003828","stopLetter":"CJ","topMostParentId":"490G00003828","towards":"Ilford"},{"icsId":"1003947","id":"490003947S","lat":51.56924,"lon":0.06461,"name":"Bethell Avenue","parentId":"490G00003947","stationId":"490G00003947","stopLetter":"VA","topMostParentId":"490G00003947","towards":"Ilford"},{"icsId":"1013988","id":"490013988S","lat":51.56704,"lon":0.06584,"name":"Valentines Park","parentId":"490G00013988","stationId":"490G00013988","stopLetter":"VB","topMostParentId":"490G00013988","towards":"Ilford"},{"icsId":"1013331","id":"490013331Z","lat":51.5643,"lon":0.06663,"name":"Northbrook Road","parentId":"490G00013331","stationId":"490G00013331","stopLetter":"VC","topMostParentId":"490G00013331","towards":"Ilford"},{"icsId":"1013311","id":"490013311OB","lat":51.56292,"lon":0.06776,"name":"Coventry Road","parentId":"490G00013311","stationId":"490G00013311","stopLetter":"VJ","topMostParentId":"490G00013311","towards":"Ilford"},{"icsId":"1001157","id":"490005699D","lat":51.56045,"lon":0.06988,"name":"Ilford Station","stopLetter":"D","topMostParentId":"490005699D","towards":"Ilford Town Centre"},{"icsId":"1002268","id":"490004986P","lat":51.55769,"lon":0.07024,"name":"Ilford / Chapel Road","parentId":"490G00002268","stationId":"490G00002268","stopLetter":"P","topMostParentId":"490G00002268","towards":"Barking"},{"icsId":"1008466","id":"490008466R","lat":51.55815,"lon":0.07435,"name":"Redbridge Central Library","parentId":"490G00008466","stationId":"490G00008466","stopLetter":"R","topMostParentId":"490G00008466","towards":"Barking, Goodmayes Or Newbury Park"},{"icsId":"1007657","id":"490007657S","lat":51.55959,"lon":0.07589,"name":"Hainault Street","parentId":"490G00007657","stationId":"490G00007657","stopLetter":"S","topMostParentId":"490G00007657","towards":"Newbury Park"}]}]}