{"direction":"outbound","lineId":"180","lineName":"180","mode":"bus","stopPointSequences":[{"stopPoint":[{"icsId":"1002278","id":"490002278YY","lat":51.48316,"lon":0.16621,"name":"Erith Quarry / Fraser Road","parentId":"490G00002278","stationId":"490G00002278","stopLetter":"->S","topMostParentId":"490G00002278","towards":"Erith Town Centre / Abbey Wood"},{"icsId":"1006658","id":"490006658E","lat":51.48123,"lon":0.17215,"name":"Europa Trading Estate","parentId":"490G00006658","stationId":"490G00006658","stopLetter":"->E","topMostParentId":"490G00006658","towards":"Belvedere Or Slade Green"},{"icsId":"1003985","id":"490003985B","lat":51.48053,"lon":0.17602,"name":"Fraser Road / Bexley Road","parentId":"490G000415","stationId":"490G000415","stopLetter":"B","topMostParentId":"490G000415","towards":"Slade Green"},{"icsId":"1003500","id":"490003500K","lat":51.47864,"lon":0.18058,"name":"James Watt Way","parentId":"490G00003500","stationId":"490G00003500","stopLetter":"K","topMostParentId":"490G00003500","towards":"Erith Town Centre Or Slade Green"},{"icsId":"1006617","id":"490006617M","lat":51.47948,"lon":0.18104,"name":"Erith Health Centre","parentId":"490G00006617","stationId":"490G00006617","stopLetter":"M","topMostParentId":"490G00006617","towards":"Belvedere Or Upper Belvedere"},{"icsId":"1016787","id":"490016787N","lat":51.48061,"lon":0.18177,"name":"Colebrooke Street","parentId":"490G00016787","stationId":"490G00016787","stopLetter":"P","topMostParentId":"490G00016787","towards":"Belvedere Or Upper Belvedere"},{"icsId":"1005817","id":"490006622J","lat":51.48086,"lon":0.1798,"name":"Erith Town Centre / Riverside","parentId":"490G00005817","stationId":"490G00005817","stopLetter":"J","topMostParentId":"490G00005817","towards":"Belvedere Or Upper Belvedere"},{"icsId":"1006623","id":"490006623E","lat":51.48128,"lon":0.17741,"name":"Walnut Tree Road","parentId":"490G00006623","stationId":"490G00006623","stopLetter":"E","topMostParentId":"490G00006623","towards":"Belvedere"},{"icsId":"1006621","id":"490006621F","lat":51.4831,"lon":0.1772,"name":"Erith High Street","parentId":"490G000507","stationId":"490G000507","stopLetter":"F","topMostParentId":"490G000507","towards":"Abbey Wood Or Belvedere"},{"icsId":"1009725","id":"490009725W","lat":51.48529,"lon":0.17289,"name":"Maxim Road / the Ship","parentId":"490G00009725","stationId":"490G00009725","stopLetter":"->W","topMostParentId":"490G00009725","towards":"Abbey Wood Or Belvedere"},{"icsId":"1012687","id":"490012687W","lat":51.48669,"lon":0.17076,"name":"St Francis Road","parentId":"490G00012687","stationId":"490G00012687","stopLetter":"->W","topMostParentId":"490G00012687","towards":"Abbey Wood Or Belvedere"},{"icsId":"1005279","id":"490005279W","lat":51.48805,"lon":0.16882,"name":"Lower Road / Church Manorway","parentId":"490G00005279","stationId":"490G00005279","stopLetter":"->W","topMostParentId":"490G00005279","towards":"Abbey Wood"},{"icsId":"1002277","id":"490002277YY","lat":51.49097,"lon":0.16873,"name":"Church Manorway / Viking Way","parentId":"490G00002277","stationId":"490G00002277","stopLetter":"->N","topMostParentId":"490G00002277","towards":"Abbey Wood"},{"icsId":"1002276","id":"490002276ZZ","lat":51.49383,"lon":0.16719,"name":"Church Manorway / War Memorial","parentId":"490G00002276","stationId":"490G00002276","stopLetter":"->N","topMostParentId":"490G00002276","towards":"Abbey Wood"},{"icsId":"1002275","id":"490002275ZZ","lat":51.49642,"lon":0.16605,"name":"Mulberry Way","parentId":"490G00002275","stationId":"490G00002275","stopLetter":"->W","topMostParentId":"490G00002275","towards":"Abbey Wood"},{"icsId":"1005691","id":"490005691W","lat":51.49715,"lon":0.16012,"name":"Anderson Way","parentId":"490G00005691","stationId":"490G00005691","stopLetter":"->W","topMostParentId":"490G00005691","towards":"Abbey Wood, Bexleyheath Or Thamesmead"},{"icsId":"1006349","id":"490006343W","lat":51.49808,"lon":0.15517,"name":"Eastern Way / Norman Road","parentId":"490G00006349","stationId":"490G00006349","stopLetter":"->W","topMostParentId":"490G00006349","towards":"Abbey Wood Or Thamesmead"},{"icsId":"1010308","id":"490010308S","lat":51.49559,"lon":0.1532,"name":"Yarnton Way / Norman Road","parentId":"490G00010308","stationId":"490G00010308","stopLetter":"->S","topMostParentId":"490G00010308","towards":"Abbey Wood Or Thamesmead Town Centre"},{"icsId":"1007643","id":"490007643W","lat":51.49425,"lon":0.1509,"name":"Hailey Road","parentId":"490G00007643","stationId":"490G00007643","stopLetter":"->W","topMostParentId":"490G00007643","towards":"Abbey Wood Or Thamesmead Town Centre"},{"icsId":"1016502","id":"490016502W","lat":51.49392,"lon":0.14472,"name":"Centurion Way","parentId":"490G00016502","stationId":"490G00016502","stopLetter":"->W","topMostParentId":"490G00016502","towards":"Abbey Wood Or Thamesmead"},{"icsId":"1009042","id":"490009042W","lat":51.49386,"lon":0.1421,"name":"Thames Innovation Centre","parentId":"490G00009042","stationId":"490G00009042","stopLetter":"->W","topMostParentId":"490G00009042","towards":"Abbey Wood Or Thamesmead Town Centre"},{"icsId":"1010432","id":"490010432W","lat":51.49383,"lon":0.13761,"name":"Northwood Place","parentId":"490G00010432","stationId":"490G00010432","stopLetter":"->W","topMostParentId":"490G00010432","towards":"Abbey Wood Or Thamesmead Town Centre"},{"icsId":"1013211","id":"490013211W","lat":51.49547,"lon":0.13315,"name":"Harris Garrard Academy","parentId":"490G00013211","stationId":"490G00013211","stopLetter":"->W","topMostParentId":"490G00013211","towards":"Plumstead Or Thamesmead Town Centre"},{"icsId":"1009166","id":"490009166W","lat":51.4963,"lon":0.12978,"name":"Limestone Walk","parentId":"490G00009166","stationId":"490G00009166","stopLetter":"->W","topMostParentId":"490G00009166","towards":"Plumstead Or Thamesmead Town Centre"},{"icsId":"1007879","id":"490007879W","lat":51.49625,"lon":0.12773,"name":"Hartslock Drive","parentId":"490G00007879","stationId":"490G00007879","stopLetter":"->W","topMostParentId":"490G00007879","towards":"Plumstead Or Thamesmead Town Centre"},{"icsId":"1014990","id":"490014990W","lat":51.49621,"lon":0.1231,"name":"Yarnton Way / Harrow Manorway","parentId":"490G00014990","stationId":"490G00014990","stopLetter":"V","topMostParentId":"490G00014990","towards":"Plumstead Or Thamesmead Town Centre"},{"icsId":"1013257","id":"490013257B","lat":51.49517,"lon":0.1212,"name":"Harrow Manorway / Yarnton Way","parentId":"490G00013257","stationId":"490G00013257","stopLetter":"B","topMostParentId":"490G00013257","towards":"Bexleyheath Or Erith"},{"icsId":"1010675","id":"490010675BA","lat":51.49348,"lon":0.12129,"name":"Overton Road","parentId":"490G00010675","stationId":"490G00010675","stopLetter":"BA","topMostParentId":"490G00010675","towards":"Bexleyheath Or Erith"},{"icsId":"1019855","id":"490001001D","lat":51.4906,"lon":0.12232,"name":"Harrow Manorway / Abbey Wood Station","parentId":"490G000957","stationId":"490G000957","stopLetter":"D","topMostParentId":"490G000957","towards":"Bexleyheath Or Erith"},{"icsId":"1005546","id":"490005546K","lat":51.4885,"lon":0.12021,"name":"Conference Road","parentId":"490G00005546","stationId":"490G00005546","stopLetter":"K","topMostParentId":"490G00005546","towards":"Woolwich"},{"icsId":"1007459","id":"490007459W","lat":51.48811,"lon":0.11719,"name":"Greening Street","parentId":"490G00007459","stationId":"490G00007459","stopLetter":"->W","topMostParentId":"490G00007459","towards":"Woolwich"},{"icsId":"1004164","id":"490004164W","lat":51.48748,"lon":0.11307,"name":"Mcleod Road / Bostall Lane","parentId":"490G00004164","stationId":"490G00004164","stopLetter":"->W","topMostParentId":"490G00004164","towards":"Woolwich"},{"icsId":"1004162","id":"490004162W","lat":51.48707,"lon":0.11048,"name":"Bostall Gardens","parentId":"490G00004162","stationId":"490G00004162","stopLetter":"->W","topMostParentId":"490G00004162","towards":"Woolwich"},{"icsId":"1004835","id":"490004835S","lat":51.48652,"lon":0.10741,"name":"Cassilda Road","parentId":"490G00004835","stationId":"490G00004835","stopLetter":"->S","topMostParentId":"490G00004835","towards":"Woolwich"},{"icsId":"1004163","id":"490004163S","lat":51.48487,"lon":0.10673,"name":"Basildon Road / Bostall Hill","parentId":"490G00004163","stationId":"490G00004163","stopLetter":"->S","topMostParentId":"490G00004163","towards":"Woolwich"},{"icsId":"1011075","id":"490011075W1","lat":51.48566,"lon":0.1007,"name":"Plumstead Corner / Rockmount Road","parentId":"490G00011075","stationId":"490G00011075","stopLetter":"WE","topMostParentId":"490G00011075","towards":"Woolwich"},{"icsId":"1001969","id":"490011077W","lat":51.48661,"lon":0.09601,"name":"Plumstead High St / the Plumstead Centre","parentId":"490G000293","stationId":"490G000293","stopLetter":"WH","topMostParentId":"490G000293","towards":"Woolwich"},{"icsId":"1003584","id":"490003584O","lat":51.48719,"lon":0.0932,"name":"Bannockburn Road","parentId":"490G00003584","stationId":"490G00003584","stopLetter":"WJ","topMostParentId":"490G00003584","towards":"Woolwich"},{"icsId":"1008908","id":"490008908S","lat":51.48784,"lon":0.09045,"name":"Lakedale Road","parentId":"490G00008908","stationId":"490G00008908","stopLetter":"WK","topMostParentId":"490G00008908","towards":"Woolwich"},{"icsId":"1019871","id":"490001227E","lat":51.49036,"lon":0.08353,"name":"Plumstead Road / Plumstead Station","parentId":"490G000959","stationId":"490G000959","stopLetter":"WM","topMostParentId":"490G000959","towards":"Woolwich"},{"icsId":"1014924","id":"490014924D","lat":51.4909,"lon":0.08027,"name":"Greenwich Community College","parentId":"490G00014924","stationId":"490G00014924","stopLetter":"WP","topMostParentId":"490G00014924","towards":"Queen Elizabeth Hosp, Charlton Or Shooters Hill"},{"icsId":"1009723","id":"490009723W","lat":51.49087,"lon":0.07687,"name":"Maxey Road","parentId":"490G00009723","stationId":"490G00009723","stopLetter":"->W","topMostParentId":"490G00009723","towards":"Queen Elizabeth Hosp, Charlton Or Shooters Hill"},{"icsId":"1002162","id":"490014934W1","lat":51.49111,"lon":0.07114,"name":"Woolwich Station","parentId":"910GWOLWXR","stationId":"910GWOLWXR","stopLetter":"D","topMostParentId":"910GWOLWXR","towards":"Greenwich Or North Greenwich"},{"icsId":"1003917","id":"490003917D","lat":51.49193,"lon":0.06812,"name":"Beresford Sq / Woolwich Arsenal Stn","parentId":"490G000411","stationId":"490G000411","stopLetter":"U","topMostParentId":"490G000411","towards":"Greenwich Or North Greenwich"},{"icsId":"1014928","id":"490014928A","lat":51.49346,"lon":0.06222,"name":"Woolwich Ferry","parentId":"490G00014928","stationId":"490G00014928","stopLetter":"A","topMostParentId":"490G00014928","towards":"Greenwich Or North Greenwich"},{"icsId":"1006982","id":"490006982DG","lat":51.49277,"lon":0.05562,"name":"Kingsman Street","parentId":"490G00006982","stationId":"490G00006982","stopLetter":"DG","topMostParentId":"490G00006982","towards":"Greenwich Or North Greenwich"},{"icsId":"1011247","id":"490011247DC","lat":51.49209,"lon":0.05101,"name":"Prospect Vale","parentId":"490G00011247","stationId":"490G00011247","stopLetter":"DC","topMostParentId":"490G00011247","towards":"North Greenwich, Blackheath Or Greenwich"},{"icsId":"1014247","id":"490014247W","lat":51.4924,"lon":0.04683,"name":"Warspite Road","parentId":"490G00014247","stationId":"490G00014247","stopLetter":"U","topMostParentId":"490G00014247","towards":"Greenwich Or North Greenwich"},{"icsId":"1020099","id":"490014923W","lat":51.49141,"lon":0.04227,"name":"Cleveley Close","parentId":"490G00020099","stationId":"490G00020099","stopLetter":"V","topMostParentId":"490G00020099","towards":"Greenwich Or North Greenwich"},{"icsId":"1013207","id":"490013207W","lat":51.49026,"lon":0.03988,"name":"Greenwich Trust School","parentId":"490G00013207","stationId":"490G00013207","stopLetter":"W","topMostParentId":"490G00013207","towards":"Greenwich Or North Greenwich"},{"icsId":"1010911","id":"490015556W","lat":51.4896,"lon":0.03807,"name":"Woolwich Road / Charlton Lane","parentId":"490G00010911","stationId":"490G00010911","stopLetter":"B","topMostParentId":"490G00010911","towards":"Greenwich Or North Greenwich"},{"icsId":"1012854","id":"490012854W","lat":51.48869,"lon":0.03523,"name":"Stone Lake Retail Park","parentId":"490G00012854","stationId":"490G00012854","stopLetter":"D","topMostParentId":"490G00012854","towards":"Greenwich Or North Greenwich"},{"icsId":"1003310","id":"490003310N","lat":51.48897,"lon":0.0304,"name":"Anchor and Hope Lane","parentId":"490G00003310","stationId":"490G00003310","stopLetter":"G","topMostParentId":"490G00003310","towards":"North Greenwich"},{"icsId":"1015312","id":"490015312W","lat":51.48979,"lon":0.0269,"name":"Bugsbys Way / Gallions Road","parentId":"490G00015312","stationId":"490G00015312","stopLetter":"->W","topMostParentId":"490G00015312","towards":"North Greenwich"},{"icsId":"1010912","id":"490010912W","lat":51.48988,"lon":0.02138,"name":"Peninsular Park Road","parentId":"490G00010912","stationId":"490G00010912","stopLetter":"->W","topMostParentId":"490G00010912","towards":"North Greenwich"},{"icsId":"1011853","id":"490011853W","lat":51.48921,"lon":0.01569,"name":"Millennium Leisure Park East","parentId":"490G00011853","stationId":"490G00011853","stopLetter":"MH","topMostParentId":"490G00011853","towards":"North Greenwich"},{"icsId":"1013356","id":"490013356W","lat":51.49001,"lon":0.01285,"name":"Millennium Leisure Park West","parentId":"490G00013356","stationId":"490G00013356","stopLetter":"MJ","topMostParentId":"490G00013356","towards":"North Greenwich"},{"icsId":"1009889","id":"490009889Y","lat":51.49198,"lon":0.01371,"name":"Millennium Village South","parentId":"490G00009889","stationId":"490G00009889","stopLetter":"MK","topMostParentId":"490G00009889","towards":"North Greenwich Or West Silvertown"},{"icsId":"1009887","id":"490009887W","lat":51.49407,"lon":0.01326,"name":"Millennium Village / Oval Square","parentId":"490G00009887","stationId":"490G00009887","stopLetter":"ML","topMostParentId":"490G00009887","towards":"North Greenwich Or West Silvertown"},{"icsId":"1010374","id":"490010374E","lat":51.50061,"lon":0.00287,"name":"North Greenwich Station","parentId":"490G000682","stationId":"490G000682","stopLetter":"E","topMostParentId":"HUBNGW"}]}]}