{"direction":"outbound","lineId":"185","lineName":"185","mode":"bus","stopPointSequences":[{"stopPoint":[{"icsId":"1001177","id":"490001177Z","lat":51.46424,"lon":-0.01255,"name":"Lewisham Station","stopLetter":"B","topMostParentId":"490001177Z","towards":"Catford","zone":"2+3"},{"icsId":"1009105","id":"490009110W","lat":51.46088,"lon":-0.01058,"name":"Lewisham Centre","parentId":"490G00009105","stationId":"490G00009105","stopLetter":"W","topMostParentId":"490G00009105","towards":"Catford"},{"icsId":"1010038","id":"490010038Y","lat":51.45886,"lon":-0.01232,"name":"Morley Road","parentId":"490G00010038","stationId":"490G00010038","stopLetter":"Y","topMostParentId":"490G00010038","towards":"Brockley Or Catford"},{"icsId":"1009111","id":"490009111HN","lat":51.4567,"lon":-0.0139,"name":"Lewisham Fire Station","parentId":"490G00009111","stationId":"490G00009111","stopLetter":"HN","topMostParentId":"490G00009111","towards":"Catford"},{"icsId":"1009113","id":"490009113S","lat":51.45427,"lon":-0.01597,"name":"Lewisham Park","parentId":"490G00009113","stationId":"490G00009113","stopLetter":"HP","topMostParentId":"490G00009113","towards":"Catford"},{"icsId":"1009109","id":"490009109S","lat":51.45289,"lon":-0.01628,"name":"Lewisham Hospital","parentId":"490G00009109","stationId":"490G00009109","stopLetter":"HR","topMostParentId":"490G00009109","towards":"Bellingham, Forest Hill Or Sydenham"},{"icsId":"1000914","id":"490007163HS","lat":51.4512,"lon":-0.01678,"name":"Mount Pleasant Road","parentId":"490G000231","stationId":"490G000231","stopLetter":"HS","topMostParentId":"490G000231","towards":"Bellingham, Forest Hill Or Sydenham"},{"icsId":"1011703","id":"490011703O","lat":51.44813,"lon":-0.01762,"name":"Rosenthal Road","parentId":"490G00011703","stationId":"490G00011703","stopLetter":"G","topMostParentId":"490G00011703","towards":"Bellingham, Forest Hill Or Sydenham"},{"icsId":"1013282","id":"490013282C","lat":51.44555,"lon":-0.01959,"name":"The Catford Centre","parentId":"490G00013282","stationId":"490G00013282","stopLetter":"C","topMostParentId":"490G00013282","towards":"Forest Hill Or Sydenham"},{"icsId":"1009117","id":"490009117V","lat":51.44475,"lon":-0.02078,"name":"Catford Road / Lewisham Town Hall","parentId":"490G00009117","stationId":"490G00009117","stopLetter":"V","topMostParentId":"490G00009117","towards":"Brockley Or Forest Hill"},{"icsId":"1004862","id":"490004862S","lat":51.44447,"lon":-0.02372,"name":"Catford & Catford Bridge Stations","parentId":"490G000444","stationId":"490G000444","stopLetter":"S","topMostParentId":"490G000444","towards":"Forest Hill, Brockley Or Dulwich"},{"icsId":"1006767","id":"490006767W","lat":51.44236,"lon":-0.03055,"name":"St Dunstans College","parentId":"490G00006767","stationId":"490G00006767","stopLetter":"J","topMostParentId":"490G00006767","towards":"Brockley Or Forest Hill"},{"icsId":"1004124","id":"490004124W","lat":51.44195,"lon":-0.0331,"name":"Blythe Vale","parentId":"490G00004124","stationId":"490G00004124","stopLetter":"K","topMostParentId":"490G00004124","towards":"Brockley Or Forest Hill"},{"icsId":"1008437","id":"490008437W1","lat":51.4421,"lon":-0.03868,"name":"Hurstbourne Road","parentId":"490G00008437","stationId":"490G00008437","stopLetter":"L","topMostParentId":"490G00008437","towards":"Brockley Or Forest Hill"},{"icsId":"1005717","id":"490005717W","lat":51.44205,"lon":-0.04065,"name":"Kilmorie Road","parentId":"490G00005717","stationId":"490G00005717","stopLetter":"M","topMostParentId":"490G00005717","towards":"Brockley Or Forest Hill"},{"icsId":"1006920","id":"490006920W","lat":51.44223,"lon":-0.04513,"name":"Forest Hill Fire Station","parentId":"490G00006920","stationId":"490G00006920","stopLetter":"N","topMostParentId":"490G00006920","towards":"Dulwich Or Sydenham"},{"icsId":"1014126","id":"490014126W","lat":51.44099,"lon":-0.04813,"name":"Waldram Park Road","parentId":"490G00014126","stationId":"490G00014126","stopLetter":"J","topMostParentId":"490G00014126","towards":"Dulwich Or Sydenham"},{"icsId":"1005324","id":"490006919K","lat":51.44003,"lon":-0.05186,"name":"Forest Hill Station  / Waldram Crescent","parentId":"490G000459","stationId":"490G000459","stopLetter":"K","topMostParentId":"490G000459","towards":"Dulwich Or Sydenham"},{"icsId":"1005319","id":"490001112F","lat":51.43961,"lon":-0.0537,"name":"Forest Hill Station  / Devonshire Road","parentId":"490G000458","stationId":"490G000458","stopLetter":"F","topMostParentId":"490G000458","towards":"Dulwich Or Sydenham"},{"icsId":"1005314","id":"490001112D","lat":51.43937,"lon":-0.05515,"name":"Forest Hill Station  / London Road","parentId":"490G000456","stationId":"490G000456","stopLetter":"D","topMostParentId":"490G000456","towards":"Dulwich Or Upper Sydenham"},{"icsId":"1008337","id":"490008337W","lat":51.4404,"lon":-0.05796,"name":"Honor Oak Road","parentId":"490G00008337","stationId":"490G00008337","stopLetter":"C","topMostParentId":"490G00008337","towards":"Dulwich Or Upper Sydenham"},{"icsId":"1008350","id":"490008350W1","lat":51.44059,"lon":-0.06266,"name":"Horniman Museum","parentId":"490G00008350","stationId":"490G00008350","stopLetter":"MH","topMostParentId":"490G00008350","towards":"Dulwich"},{"icsId":"1009362","id":"490009362S2","lat":51.44181,"lon":-0.06576,"name":"Lordship Lane / Wood Vale","parentId":"490G00009362","stationId":"490G00009362","stopLetter":"MJ","topMostParentId":"490G00009362","towards":"Brixton, Camberwell Or Peckham"},{"icsId":"1007586","id":"490007586N","lat":51.44386,"lon":-0.06837,"name":"Grove Tavern","parentId":"490G00007586","stationId":"490G00007586","stopLetter":"MK","topMostParentId":"490G00007586","towards":"Camberwell Or Peckham"},{"icsId":"1010671","id":"490010671N","lat":51.44528,"lon":-0.07079,"name":"Overhill Road","parentId":"490G00010671","stationId":"490G00010671","stopLetter":"DJ","topMostParentId":"490G00010671","towards":"Camberwell Or Peckham"},{"icsId":"1013919","id":"490013919N","lat":51.44694,"lon":-0.07242,"name":"Upland Road","parentId":"490G00013919","stationId":"490G00013919","stopLetter":"DK","topMostParentId":"490G00013919","towards":"Camberwell Or Peckham"},{"icsId":"1006232","id":"490006232N2","lat":51.44836,"lon":-0.07371,"name":"Dulwich Library","parentId":"490G00006232","stationId":"490G00006232","stopLetter":"DL","topMostParentId":"490G00006232","towards":"Camberwell Or Peckham"},{"icsId":"1015428","id":"490015428N","lat":51.44952,"lon":-0.07486,"name":"Dulwich / the Plough","parentId":"490G00015428","stationId":"490G00015428","stopLetter":"DM","topMostParentId":"490G00015428","towards":"Camberwell"},{"icsId":"1005874","id":"490005874N","lat":51.45073,"lon":-0.07633,"name":"Crystal Palace Road","parentId":"490G00005874","stationId":"490G00005874","stopLetter":"DN","topMostParentId":"490G00005874","towards":"Camberwell"},{"icsId":"1008041","id":"490008041N","lat":51.45319,"lon":-0.07747,"name":"Heber Road","parentId":"490G00008041","stationId":"490G00008041","stopLetter":"DP","topMostParentId":"490G00008041","towards":"Camberwell"},{"icsId":"1006335","id":"490006335N","lat":51.45653,"lon":-0.07602,"name":"Melbourne Grove","parentId":"490G00006335","stationId":"490G00006335","stopLetter":"DQ","topMostParentId":"490G00006335","towards":"Camberwell Or Peckham"},{"icsId":"1010346","id":"490010346R","lat":51.45817,"lon":-0.07524,"name":"North Cross Road","parentId":"490G00010346","stationId":"490G00010346","stopLetter":"R","topMostParentId":"490G00010346","towards":"Camberwell Or Peckham"},{"icsId":"1012417","id":"490012417L","lat":51.46019,"lon":-0.07536,"name":"Goose Green","parentId":"490G00012417","stationId":"490G00012417","stopLetter":"J","topMostParentId":"490G00012417","towards":"Camberwell Or Peckham"},{"icsId":"1006526","id":"490006526A","lat":51.46145,"lon":-0.0785,"name":"Elsie Road","parentId":"490G000502","stationId":"490G000502","stopLetter":"A","topMostParentId":"490G000502","towards":"Camberwell Or Peckham"},{"icsId":"1001090","id":"490001090D","lat":51.46187,"lon":-0.08058,"name":"East Dulwich Station","stopLetter":"D","topMostParentId":"490001090D","towards":"Camberwell Or Peckham"},{"icsId":"1006094","id":"490006094N","lat":51.46525,"lon":-0.08449,"name":"Champion Hill","parentId":"490G00006094","stationId":"490G00006094","stopLetter":"G","topMostParentId":"490G00006094","towards":"Camberwell Or Peckham"},{"icsId":"1004972","id":"490004972N","lat":51.46705,"lon":-0.08594,"name":"Champion Grove","parentId":"490G00004972","stationId":"490G00004972","stopLetter":"H","topMostParentId":"490G00004972","towards":"Camberwell"},{"icsId":"1001083","id":"490001083H2","lat":51.46757,"lon":-0.09027,"name":"Denmark Hill Station","stopLetter":"J","topMostParentId":"490001083H2","towards":"Oval Or Elephant & Castle"},{"icsId":"1008764","id":"490008764H5","lat":51.46954,"lon":-0.0927,"name":"King's College Hospital","parentId":"490G00008764","stationId":"490G00008764","stopLetter":"R","topMostParentId":"490G00008764","towards":"Oval, Elephant & Castle Or Bricklayers Arms"},{"icsId":"1005464","id":"490005464W","lat":51.47148,"lon":-0.09308,"name":"Coldharbour Lane","parentId":"490G00005464","stationId":"490G00005464","stopLetter":"W","topMostParentId":"490G00005464","towards":"Oval, Elephant & Castle Or Bricklayers Arms"},{"icsId":"1004687","id":"490004687S","lat":51.47306,"lon":-0.09329,"name":"Denmark Hill / Camberwell Green","parentId":"490G00004687","stationId":"490G00004687","stopLetter":"S","topMostParentId":"490G00004687","towards":"Oval Or Elephant & Castle"},{"icsId":"1014229","id":"490014229J","lat":51.47432,"lon":-0.09407,"name":"Warner Road","parentId":"490G00014229","stationId":"490G00014229","stopLetter":"J","topMostParentId":"490G00014229","towards":"Vauxhall"},{"icsId":"1011846","id":"490011846W","lat":51.47565,"lon":-0.09716,"name":"Sacred Heart School","parentId":"490G00011846","stationId":"490G00011846","stopLetter":"M","topMostParentId":"490G00011846","towards":"Vauxhall"},{"icsId":"1015480","id":"490015480W","lat":51.47723,"lon":-0.10104,"name":"Wyndham Road","parentId":"490G00015480","stationId":"490G00015480","stopLetter":"N","topMostParentId":"490G00015480","towards":"Vauxhall"},{"icsId":"1014014","id":"490014014W1","lat":51.478,"lon":-0.10289,"name":"Vassall Road","parentId":"490G00014014","stationId":"490G00014014","stopLetter":"P","topMostParentId":"490G00014014","towards":"Vauxhall"},{"icsId":"1004689","id":"490004689W","lat":51.47869,"lon":-0.10435,"name":"St John's School","parentId":"490G00004689","stationId":"490G00004689","stopLetter":"Q","topMostParentId":"490G00004689","towards":"Vauxhall"},{"icsId":"1008571","id":"490008571W","lat":51.48004,"lon":-0.10772,"name":"John Ruskin Street","parentId":"490G00008571","stationId":"490G00008571","stopLetter":"R","topMostParentId":"490G00008571","towards":"Vauxhall"},{"icsId":"1008644","id":"490008644F","lat":51.48095,"lon":-0.10993,"name":"Kennington Park","parentId":"490G00008644","stationId":"490G00008644","stopLetter":"F","topMostParentId":"490G00008644","towards":"Victoria"},{"icsId":"1000172","id":"490000172D","lat":51.48212,"lon":-0.11269,"name":"Oval Station","stopLetter":"D","topMostParentId":"490000172D","towards":"Victoria","zone":"2"},{"icsId":"1003359","id":"490003359B","lat":51.48321,"lon":-0.11633,"name":"Archbishop Tenison's School","parentId":"490G00003359","stationId":"490G00003359","stopLetter":"B","topMostParentId":"490G00003359","towards":"Victoria"},{"icsId":"1007806","id":"490007806W","lat":51.48492,"lon":-0.11914,"name":"Harleyford Road / Durham Street","parentId":"490G00007806","stationId":"490G00007806","stopLetter":"->W","topMostParentId":"490G00007806","towards":"Victoria"},{"icsId":"1020252","id":"490000247A","lat":51.48621,"lon":-0.12387,"name":"Vauxhall Bus Station","stopLetter":"A","topMostParentId":"490000247A"},{"icsId":"1007550","id":"490007550X","lat":51.4882,"lon":-0.12863,"name":"Vauxhall Bridge / Millbank","parentId":"490G00007550","stationId":"490G00007550","stopLetter":"X","topMostParentId":"490G00007550","towards":"Victoria, Trafalgar Square Or Sloane Square"},{"icsId":"1000180","id":"490000180A","lat":51.48998,"lon":-0.13241,"name":"Pimlico Station","stopLetter":"A","topMostParentId":"490000180A","towards":"Marble Arch","zone":"1"},{"icsId":"1011617","id":"490011617N","lat":51.49235,"lon":-0.13734,"name":"Rochester Row","parentId":"490G00011617","stationId":"490G00011617","stopLetter":"W","topMostParentId":"490G00011617","towards":"Marble Arch"},{"icsId":"1010164","id":"490010164K","lat":51.49446,"lon":-0.14136,"name":"Neathouse Place","parentId":"490G00010164","stationId":"490G00010164","stopLetter":"K","topMostParentId":"490G00010164","towards":"Marble Arch"},{"icsId":"1000248","id":"490000248H","lat":51.49566,"lon":-0.14303,"name":"Victoria Station","stopLetter":"J","topMostParentId":"490000248H","towards":"Parliament Square","zone":"1"}]}]}