{"direction":"outbound","lineId":"188","lineName":"188","mode":"bus","stopPointSequences":[{"stopPoint":[{"icsId":"1010374","id":"490010374C","lat":51.49965,"lon":0.00405,"name":"North Greenwich Station","parentId":"490G000682","stationId":"490G000682","stopLetter":"C","topMostParentId":"HUBNGW"},{"icsId":"1004146","id":"490004146L","lat":51.49545,"lon":0.00781,"name":"Boord Street","parentId":"490G00004146","stationId":"490G00004146","stopLetter":"MT","topMostParentId":"490G00004146","towards":"Bow Or Greenwich"},{"icsId":"1013840","id":"490013840Q","lat":51.49045,"lon":0.00877,"name":"Tunnel Avenue","parentId":"490G00013840","stationId":"490G00013840","stopLetter":"MP","topMostParentId":"490G00013840","towards":"Blackheath Or Greenwich"},{"icsId":"1005982","id":"490005982S","lat":51.48784,"lon":0.00774,"name":"Christ Church Primary School","parentId":"490G00005982","stationId":"490G00005982","stopLetter":"MR","topMostParentId":"490G00005982","towards":"Blackheath Or Greenwich"},{"icsId":"1004081","id":"490005224L","lat":51.48528,"lon":0.00559,"name":"Tyler Street","parentId":"490G00004081","stationId":"490G00004081","stopLetter":"L","topMostParentId":"490G00004081","towards":"Blackheath Village, Deptford Or Lewisham"},{"icsId":"1009754","id":"490009754G","lat":51.48363,"lon":0.00011,"name":"Trafalgar Road / Maze Hill","parentId":"490G000663","stationId":"490G000663","stopLetter":"G","topMostParentId":"490G000663","towards":"Blackheath Village, Deptford Or Lewisham"},{"icsId":"1013764","id":"490013764T","lat":51.48293,"lon":-0.00275,"name":"Trafalgar Estate","parentId":"490G00013764","stationId":"490G00013764","stopLetter":"T","topMostParentId":"490G00013764","towards":"Blackheath Village, Deptford Or Lewisham"},{"icsId":"1006196","id":"490006196G","lat":51.48146,"lon":-0.00712,"name":"National Maritime Museum","parentId":"490G000489","stationId":"490G000489","stopLetter":"G","topMostParentId":"490G000489","towards":"Blackheath Village, Deptford Or Lewisham"},{"icsId":"1007507","id":"490007507B","lat":51.4812,"lon":-0.00998,"name":"Greenwich Church Street","parentId":"490G000547","stationId":"490G000547","stopLetter":"B","topMostParentId":"490G000547","towards":"Surrey Quays and Central London"},{"icsId":"1010309","id":"490010309W","lat":51.48136,"lon":-0.01393,"name":"Creek Road / Norman Road","parentId":"490G00010309","stationId":"490G00010309","stopLetter":"W","topMostParentId":"490G00010309","towards":"Surrey Quays"},{"icsId":"1005736","id":"490005736W","lat":51.48122,"lon":-0.01815,"name":"Creekside","parentId":"490G00005736","stationId":"490G00005736","stopLetter":"G","topMostParentId":"490G00005736","towards":"Surrey Quays"},{"icsId":"1011687","id":"490011687H","lat":51.4808,"lon":-0.02205,"name":"Macmillan Students Village","parentId":"490G00011687","stationId":"490G00011687","stopLetter":"H","topMostParentId":"490G00011687","towards":"Surrey Quays"},{"icsId":"1006050","id":"490006050A","lat":51.48179,"lon":-0.02763,"name":"Deptford High Street","parentId":"490G00006050","stationId":"490G00006050","stopLetter":"A","topMostParentId":"490G00006050","towards":"Surrey Quays"},{"icsId":"1007585","id":"490007585W","lat":51.48364,"lon":-0.03149,"name":"Abinger Grove","parentId":"490G00007585","stationId":"490G00007585","stopLetter":"N","topMostParentId":"490G00007585","towards":"Surrey Quays"},{"icsId":"1006049","id":"490006049N","lat":51.48534,"lon":-0.03433,"name":"Deptford Fire Station","parentId":"490G00006049","stationId":"490G00006049","stopLetter":"P","topMostParentId":"490G00006049","towards":"Surrey Quays"},{"icsId":"1006052","id":"490006052W","lat":51.48793,"lon":-0.03844,"name":"Deptford Park School","parentId":"490G00006052","stationId":"490G00006052","stopLetter":"Q","topMostParentId":"490G00006052","towards":"Rotherhithe"},{"icsId":"1003944","id":"490003944N","lat":51.48976,"lon":-0.04189,"name":"Bestwood Street","parentId":"490G00003944","stationId":"490G00003944","stopLetter":"->N","topMostParentId":"490G00003944","towards":"Rotherhithe"},{"icsId":"1004655","id":"490004655N","lat":51.49107,"lon":-0.04517,"name":"Bush Road","parentId":"490G00004655","stationId":"490G00004655","stopLetter":"N","topMostParentId":"490G00004655","towards":"London Bridge Or Elephant & Castle"},{"icsId":"1000229","id":"490000229O","lat":51.49295,"lon":-0.04792,"name":"Surrey Quays Station","stopLetter":"S","topMostParentId":"490000229O","towards":"London Bridge Or Elephant & Castle"},{"icsId":"1013042","id":"490013042J","lat":51.49401,"lon":-0.04626,"name":"Surrey Quays Shopping Centre","parentId":"490G000775","stationId":"490G000775","stopLetter":"J","topMostParentId":"490G000775","towards":"London Bridge Or Elephant & Castle"},{"icsId":"1013040","id":"490013040F","lat":51.49521,"lon":-0.04555,"name":"Surrey Quays Leisure Park","parentId":"490G00013040","stationId":"490G00013040","stopLetter":"F","topMostParentId":"490G00013040","towards":"London Bridge Or Elephant & Castle"},{"icsId":"1015602","id":"490015602N","lat":51.49757,"lon":-0.04591,"name":"Canada Street","parentId":"490G000912","stationId":"490G000912","stopLetter":"U","topMostParentId":"490G000912","towards":"London Bridge Or Elephant & Castle"},{"icsId":"1004733","id":"490004733B","lat":51.49805,"lon":-0.05003,"name":"Canada Water Bus Station","parentId":"490G000438","stationId":"490G000438","stopLetter":"B1","topMostParentId":"HUBZCW","towards":"Greenwich, Lewisham Or Peckham"},{"icsId":"1010176","id":"490010176N","lat":51.49748,"lon":-0.05408,"name":"Neptune Street / St Olaves Estate","parentId":"490G000670","stationId":"490G000670","stopLetter":"R","topMostParentId":"490G000670","towards":"Elephant & Castle, London Bridge Or Peckham"},{"icsId":"1012349","id":"490012349C","lat":51.4988,"lon":-0.05726,"name":"Southwark Park","parentId":"490G00012349","stationId":"490G00012349","stopLetter":"C","topMostParentId":"490G00012349","towards":"London Bridge Or Elephant & Castle"},{"icsId":"1006202","id":"490006202B","lat":51.49844,"lon":-0.0612,"name":"Drummond Road","parentId":"490G00006202","stationId":"490G00006202","stopLetter":"B","topMostParentId":"490G00006202","towards":"London Bridge Or Elephant & Castle"},{"icsId":"1000021","id":"490000021W","lat":51.49796,"lon":-0.06494,"name":"Bermondsey Station","stopLetter":"A","topMostParentId":"490000021W","towards":"London Bridge Or Elephant & Castle","zone":"2"},{"icsId":"1012729","id":"490012729W","lat":51.49798,"lon":-0.06764,"name":"St James's Road","parentId":"490G000765","stationId":"490G000765","stopLetter":"C","topMostParentId":"490G000765","towards":"London Bridge Or Elephant & Castle"},{"icsId":"1003034","id":"490003034W","lat":51.49893,"lon":-0.0708,"name":"Jamaica Road / Abbey Street","parentId":"490G00003034","stationId":"490G00003034","stopLetter":"D","topMostParentId":"490G00003034","towards":"London Bridge Or Elephant & Castle"},{"icsId":"1006091","id":"490006091W","lat":51.49998,"lon":-0.07269,"name":"Dockhead","parentId":"490G00006091","stationId":"490G00006091","stopLetter":"E","topMostParentId":"490G00006091","towards":"London Bridge Or Elephant & Castle"},{"icsId":"1013154","id":"490013154B","lat":51.50025,"lon":-0.07531,"name":"Tanner Street","parentId":"490G00013154","stationId":"490G00013154","stopLetter":"B","topMostParentId":"490G00013154","towards":"Elephant & Castle"},{"icsId":"1006200","id":"490006200C","lat":51.50097,"lon":-0.07816,"name":"Druid Street","parentId":"490G00006200","stationId":"490G00006200","stopLetter":"C","topMostParentId":"490G00006200","towards":"Elephant & Castle, Camberwell Or Peckham"},{"icsId":"1003035","id":"490003035S","lat":51.49818,"lon":-0.07922,"name":"Abbey Street","parentId":"490G00003035","stationId":"490G00003035","stopLetter":"H","topMostParentId":"490G00003035","towards":"Camberwell Or Elephant & Castle"},{"icsId":"1007362","id":"490007362S","lat":51.4964,"lon":-0.08227,"name":"Grange Road / Caledonian Market","parentId":"490G00007362","stationId":"490G00007362","stopLetter":"J","topMostParentId":"490G00007362","towards":"Elephant & Castle"},{"icsId":"1019012","id":"490015272BJ","lat":51.49515,"lon":-0.08396,"name":"Bricklayer's Arms / Tower Bridge Road","parentId":"490G00019012","stationId":"490G00019012","stopLetter":"BJ","topMostParentId":"490G00019012","towards":"Camberwell Or Elephant & Castle"},{"icsId":"1003658","id":"490003658BS","lat":51.49403,"lon":-0.09024,"name":"Bricklayer's Arms / New Kent Road","parentId":"490G00003658","stationId":"490G00003658","stopLetter":"BS","topMostParentId":"490G00003658","towards":"Elephant & Castle"},{"icsId":"1011632","id":"490011632BT","lat":51.49417,"lon":-0.09467,"name":"Rodney Place","parentId":"490G00011632","stationId":"490G00011632","stopLetter":"BT","topMostParentId":"490G00011632","towards":"Blackfriars, Waterloo Or Westminster"},{"icsId":"1009298","id":"490000073N","lat":51.49498,"lon":-0.09923,"name":"Elephant & Castle / New Kent Road","parentId":"490G000645","stationId":"490G000645","stopLetter":"N","topMostParentId":"HUBEPH","towards":"Blackfriars, Kennington Or Waterloo"},{"icsId":"1009281","id":"490009281A","lat":51.49613,"lon":-0.10171,"name":"Elephant & Castle / London Road","parentId":"490G000642","stationId":"490G000642","stopLetter":"A","topMostParentId":"490G000642","towards":"Blackfriars Or Waterloo"},{"icsId":"1012693","id":"490012693N1","lat":51.49967,"lon":-0.10724,"name":"St George's Circus","parentId":"490G00012693","stationId":"490G00012693","stopLetter":"P","topMostParentId":"490G00012693","towards":"Aldwych"},{"icsId":"1013485","id":"490013485N","lat":51.50129,"lon":-0.10909,"name":"The Old Vic","parentId":"490G00013485","stationId":"490G00013485","stopLetter":"Q","topMostParentId":"490G00013485","towards":"Aldwych"},{"icsId":"1003713","id":"490000254K","lat":51.50436,"lon":-0.11374,"name":"Waterloo Station / Tenison Way","parentId":"490G000402","stationId":"490G000402","stopLetter":"K","topMostParentId":"HUBWAT","towards":"Holborn, Russell Square Or Euston"},{"icsId":"1014271","id":"490014270P","lat":51.50626,"lon":-0.115,"name":"Waterloo Bridge / South Bank","parentId":"490G000819","stationId":"490G000819","stopLetter":"P","topMostParentId":"490G000819","towards":"Trafalgar Square, Fleet Street Or Holborn"},{"icsId":"1008932","id":"490008932T","lat":51.51045,"lon":-0.11872,"name":"Lancaster Place","parentId":"490G00008932","stationId":"490G00008932","stopLetter":"T","topMostParentId":"490G00008932","towards":"Trafalgar Square, Fleet Street Or Holborn"},{"icsId":"1003195","id":"490003191F","lat":51.51314,"lon":-0.11795,"name":"Aldwych / Kingsway","parentId":"490G00003195","stationId":"490G00003195","stopLetter":"F","topMostParentId":"490G00003195","towards":"Russell Square Or Tottenham Court Road"},{"icsId":"1000112","id":"490000112P","lat":51.51693,"lon":-0.12021,"name":"Holborn Station","stopLetter":"P","topMostParentId":"490000112P","towards":"Holborn Circus Or Old Street","zone":"1"},{"icsId":"1006203","id":"490006203RA","lat":51.51636,"lon":-0.12384,"name":"Drury Lane","parentId":"490G00006203","stationId":"490G00006203","stopLetter":"S","topMostParentId":"490G00006203","towards":"Tottenham Court Road"},{"icsId":"1000235","id":"490000235N","lat":51.51602,"lon":-0.12874,"name":"Tottenham Court Road","stopLetter":"T","topMostParentId":"490000235N","zone":"1"}]}]}