{"direction":"outbound","lineId":"192","lineName":"192","mode":"bus","stopPointSequences":[{"stopPoint":[{"icsId":"1009222","id":"490009222A","lat":51.6527,"lon":-0.0865,"name":"Little Park Gardens","parentId":"490G00009222","stationId":"490G00009222","stopLetter":"A","topMostParentId":"490G00009222","towards":"Bush Hill Park, Palmers Green Or Waltham Cross"},{"icsId":"1006587","id":"490006587D","lat":51.65223,"lon":-0.08351,"name":"Enfield Town / Church Street","parentId":"490G00006587","stationId":"490G00006587","stopLetter":"D","topMostParentId":"490G00006587","towards":"Waltham Cross Or Bush Hill Park"},{"icsId":"1001101","id":"490001101K","lat":51.65241,"lon":-0.07863,"name":"Enfield Town Station","stopLetter":"K","topMostParentId":"490001101K","towards":"Bush Hill Park Or Ponders End"},{"icsId":"1008903","id":"490008903E","lat":51.65226,"lon":-0.07408,"name":"Ladysmith Road","parentId":"490G00008903","stationId":"490G00008903","stopLetter":"->E","topMostParentId":"490G00008903","towards":"Bush Hill Park, Ponders End Or Waltham Cross"},{"icsId":"1011357","id":"490011965S","lat":51.6513,"lon":-0.07113,"name":"Southbury Road","parentId":"490G00011357","stationId":"490G00011357","stopLetter":"->S","topMostParentId":"490G00011357","towards":"Bush Hill Park"},{"icsId":"1018558","id":"490006960N","lat":51.64863,"lon":-0.07187,"name":"Fotheringham Road","parentId":"490G00018558","stationId":"490G00018558","stopLetter":"->W","topMostParentId":"490G00018558","towards":"Bush Hill Park Or Enfield Town"},{"icsId":"1009175","id":"490018557S","lat":51.64745,"lon":-0.07245,"name":"Lincoln Road","parentId":"490G00009175","stationId":"490G00009175","stopLetter":"->S","topMostParentId":"490G00009175","towards":"Bush Hill Park"},{"icsId":"1009175","id":"490019478W","lat":51.64715,"lon":-0.0707,"name":"Lincoln Road","parentId":"490G00009175","stationId":"490G00009175","stopLetter":"->E","topMostParentId":"490G00009175"},{"icsId":"1001042","id":"490001024X","lat":51.6467,"lon":-0.06675,"name":"Bush Hill Park Station","topMostParentId":"490001024X"},{"icsId":"1019478","id":"490019478Z","lat":51.64544,"lon":-0.06479,"name":"Roman Way","parentId":"490G00019478","stationId":"490G00019478","stopLetter":"->S","topMostParentId":"490G00019478"},{"icsId":"1007819","id":"490007819Z","lat":51.64497,"lon":-0.06613,"name":"Main Avenue","parentId":"490G00007819","stationId":"490G00007819","stopLetter":"->W","topMostParentId":"490G00007819"},{"icsId":"1016726","id":"490016726S","lat":51.64304,"lon":-0.06703,"name":"St Mark's Road","parentId":"490G00016726","stationId":"490G00016726","stopLetter":"->S","topMostParentId":"490G00016726"},{"icsId":"1001042","id":"490001024Z","lat":51.64168,"lon":-0.06846,"name":"Bush Hill Park Station","topMostParentId":"490001024Z"},{"icsId":"1006449","id":"490006449W","lat":51.64079,"lon":-0.06908,"name":"First Avenue / Bush Hill Park","parentId":"490G00006449","stationId":"490G00006449","stopLetter":"->W","topMostParentId":"490G00006449"},{"icsId":"1016727","id":"490016727Z","lat":51.63996,"lon":-0.07231,"name":"Park Avenue Bush Hill Park","parentId":"490G00016727","stationId":"490G00016727","topMostParentId":"490G00016727"},{"icsId":"1011390","id":"490011390S","lat":51.63684,"lon":-0.07328,"name":"The Raglan School","parentId":"490G00011390","stationId":"490G00011390","stopLetter":"->S","topMostParentId":"490G00011390"},{"icsId":"1016791","id":"490016791Z","lat":51.63442,"lon":-0.07498,"name":"Wellington Road Enfield","parentId":"490G00016791","stationId":"490G00016791","stopLetter":"->S","topMostParentId":"490G00016791"},{"icsId":"1003286","id":"490003286E","lat":51.63392,"lon":-0.07467,"name":"Bury Lodge Gardens","parentId":"490G00003286","stationId":"490G00003286","stopLetter":"->E","topMostParentId":"490G00003286"},{"icsId":"1004632","id":"490004632Z","lat":51.63415,"lon":-0.07094,"name":"Bury Street","parentId":"490G00004632","stationId":"490G00004632","stopLetter":"->N","topMostParentId":"490G00004632"},{"icsId":"1016728","id":"490016728E","lat":51.63395,"lon":-0.06615,"name":"Bury Street Lower Edmonton","parentId":"490G00016728","stationId":"490G00016728","stopLetter":"->E","topMostParentId":"490G00016728"},{"icsId":"1007639","id":"490007639E","lat":51.63215,"lon":-0.06254,"name":"Galliard Road","parentId":"490G00007639","stationId":"490G00007639","topMostParentId":"490G00007639"},{"icsId":"1006444","id":"490019479S","lat":51.63101,"lon":-0.06071,"name":"Crescent Road","parentId":"490G00006444","stationId":"490G00006444","stopLetter":"->S","topMostParentId":"490G00006444"},{"icsId":"1019479","id":"490019479Z","lat":51.63039,"lon":-0.05676,"name":"Millbrook Road","parentId":"490G00019479","stationId":"490G00019479","stopLetter":"->E","topMostParentId":"490G00019479"},{"icsId":"1004180","id":"490004180S","lat":51.62942,"lon":-0.05615,"name":"Bounces Road","parentId":"490G00004180","stationId":"490G00004180","stopLetter":"LF","topMostParentId":"490G00004180","towards":"Tottenham Or North Middlesex Hospital"},{"icsId":"1004181","id":"490004181W","lat":51.62754,"lon":-0.05645,"name":"Monmouth Road","parentId":"490G00004181","stationId":"490G00004181","stopLetter":"LH","topMostParentId":"490G00004181","towards":"Enfield, Tottenham Or North Middlesex Hospital"},{"icsId":"1009983","id":"490009983E","lat":51.62539,"lon":-0.05858,"name":"Edmonton Green Bus Station","parentId":"490G00009983","stationId":"490G00009983","stopLetter":"E","topMostParentId":"490G00009983","towards":"Tottenham Hale, Palmers Green Or Enfield"},{"icsId":"1006445","id":"490006445A","lat":51.62267,"lon":-0.06132,"name":"Edmonton Police Station","parentId":"490G00006445","stationId":"490G00006445","stopLetter":"J","topMostParentId":"490G00006445","towards":"Palmers Green, Tottenham Or Wood Green"},{"icsId":"1019331","id":"49000HC186NE","lat":51.62194,"lon":-0.05964,"name":"Plevna Road","parentId":"490G00019331","stationId":"490G00019331","topMostParentId":"490G00019331"},{"icsId":"1006443","id":"490006443Z","lat":51.62333,"lon":-0.05802,"name":"Asda Edmonton Green","parentId":"490G00006443","stationId":"490G00006443","stopLetter":"->N","topMostParentId":"490G00006443"},{"icsId":"1012727","id":"490012727Y","lat":51.62534,"lon":-0.05589,"name":"Edmonton Green Shopping Centre","parentId":"490G00012727","stationId":"490G00012727","stopLetter":"->N","topMostParentId":"490G00012727"},{"icsId":"1010242","id":"490010242E","lat":51.62504,"lon":-0.05238,"name":"Town Road","parentId":"490G00010242","stationId":"490G00010242","stopLetter":"->E","topMostParentId":"490G00010242"},{"icsId":"1011459","id":"490011459N","lat":51.62386,"lon":-0.04844,"name":"Granville Avenue / Edmonton","parentId":"490G00011459","stationId":"490G00011459","stopLetter":"->E","topMostParentId":"490G00011459"},{"icsId":"1013756","id":"490013756Z","lat":51.62262,"lon":-0.04835,"name":"Montagu Road Zambezie Drive","parentId":"490G00013756","stationId":"490G00013756","stopLetter":"->S","topMostParentId":"490G00013756"},{"icsId":"1011216","id":"490011216Z","lat":51.61983,"lon":-0.04998,"name":"Edmonton Federation Cemetery","parentId":"490G00011216","stationId":"490G00011216","topMostParentId":"490G00011216"},{"icsId":"1008548","id":"490019480S","lat":51.61738,"lon":-0.05106,"name":"Jeremys Green","parentId":"490G00008548","stationId":"490G00008548","stopLetter":"->S","topMostParentId":"490G00008548"},{"icsId":"1001008","id":"490006440S","lat":51.6146,"lon":-0.04813,"name":"Angel Road","stopLetter":"->S","topMostParentId":"490006440S"},{"icsId":"1002134","id":"490007254E","lat":51.6092,"lon":-0.0475,"name":"Meridian Water Station","parentId":"910GMWRWSTN","stationId":"910GMWRWSTN","stopLetter":"K","topMostParentId":"910GMWRWSTN","towards":"Tottenham Hale Or Edmonton"},{"icsId":"1002134","id":"490007254W","lat":51.60906,"lon":-0.0471,"name":"Meridian Water Station","parentId":"910GMWRWSTN","stationId":"910GMWRWSTN","stopLetter":"L","topMostParentId":"910GMWRWSTN","towards":"Tottenham Hale Or Edmonton"},{"icsId":"1020013","id":"490001213C","lat":51.6014,"lon":-0.04951,"name":"Marigold Road / Northumberland Park","parentId":"490G00020013","stationId":"490G00020013","stopLetter":"NC","topMostParentId":"490G00020013","towards":"Tottenham Hale"},{"icsId":"1016334","id":"490016330S","lat":51.59809,"lon":-0.05236,"name":"Stonebridge Lock","parentId":"490G00016334","stationId":"490G00016334","stopLetter":"->S","topMostParentId":"490G00016334","towards":"Tottenham Hale"},{"icsId":"1016330","id":"490016330S1","lat":51.59619,"lon":-0.05541,"name":"Northumberland Park Rail Depot","parentId":"490G00016330","stationId":"490G00016330","stopLetter":"->S","topMostParentId":"490G00016330","towards":"Tottenham Hale"},{"icsId":"1016331","id":"490016331S","lat":51.59132,"lon":-0.05937,"name":"Burdock Road / Lee Valley Technopark","parentId":"490G00016331","stationId":"490G00016331","stopLetter":"->S","topMostParentId":"490G00016331","towards":"Tottenham Hale"},{"icsId":"1009917","id":"49009917N","lat":51.58947,"lon":-0.06018,"name":"Tottenham Hale Station","parentId":"490G000667","stationId":"490G000667","stopLetter":"UU","topMostParentId":"HUBTOM","towards":"Northumberland Park"}]}]}