{"direction":"outbound","lineId":"195","lineName":"195","mode":"bus","stopPointSequences":[{"stopPoint":[{"icsId":"1011666","id":"490011666N","lat":51.536,"lon":-0.43366,"name":"Romney Road","parentId":"490G00011666","stationId":"490G00011666","stopLetter":"A","topMostParentId":"490G00011666","towards":"Hayes Town"},{"icsId":"1005031","id":"490005031S","lat":51.53667,"lon":-0.42879,"name":"Charville Academy","parentId":"490G00005031","stationId":"490G00005031","stopLetter":"B","topMostParentId":"490G00005031","towards":"Hayes Town"},{"icsId":"1004631","id":"490004631D","lat":51.53568,"lon":-0.42586,"name":"Charville Library","parentId":"490G00004631","stationId":"490G00004631","stopLetter":"C","topMostParentId":"490G00004631","towards":"Hayes Town"},{"icsId":"1014544","id":"490014544E","lat":51.53545,"lon":-0.42323,"name":"Weymouth Road","parentId":"490G00014544","stationId":"490G00014544","stopLetter":"D","topMostParentId":"490G00014544","towards":"Hayes Town"},{"icsId":"1003111","id":"490003111S","lat":51.53338,"lon":-0.42503,"name":"Adelphi Crescent","parentId":"490G00003111","stationId":"490G00003111","stopLetter":"E","topMostParentId":"490G00003111","towards":"Hayes Town"},{"icsId":"1003113","id":"490003113S","lat":51.53204,"lon":-0.42196,"name":"Adelphi Way","parentId":"490G00003113","stationId":"490G00003113","stopLetter":"F","topMostParentId":"490G00003113","towards":"Hayes Town"},{"icsId":"1008963","id":"490008783S","lat":51.53136,"lon":-0.41873,"name":"The Brook House","parentId":"490G00008963","stationId":"490G00008963","stopLetter":"K","topMostParentId":"490G00008963","towards":"Hayes End Or Hayes Town"},{"icsId":"1006715","id":"490006715S","lat":51.52998,"lon":-0.41742,"name":"Fairholme Crescent","parentId":"490G00006715","stationId":"490G00006715","stopLetter":"L","topMostParentId":"490G00006715","towards":"Hayes End Or Hayes Town"},{"icsId":"1007002","id":"490007003S","lat":51.52824,"lon":-0.41713,"name":"Fredora Avenue","parentId":"490G00007002","stationId":"490G00007002","stopLetter":"M","topMostParentId":"490G00007002","towards":"Hayes End Or Hayes Town"},{"icsId":"1003572","id":"490003572D","lat":51.52573,"lon":-0.41974,"name":"Balmoral Drive","parentId":"490G00003572","stationId":"490G00003572","stopLetter":"D","topMostParentId":"490G00003572","towards":"Hayes End Or Hayes Town"},{"icsId":"1008962","id":"490008962E","lat":51.52237,"lon":-0.42012,"name":"Uxbridge County Court","parentId":"490G00008962","stationId":"490G00008962","stopLetter":"E","topMostParentId":"490G00008962","towards":"Hayes Or Southall"},{"icsId":"1013977","id":"490013977H","lat":51.52076,"lon":-0.41741,"name":"Church Road / Swift Close","parentId":"490G00013977","stationId":"490G00013977","stopLetter":"H","topMostParentId":"490G00013977","towards":"Hayes Town"},{"icsId":"1005262","id":"490005262S","lat":51.51786,"lon":-0.41885,"name":"Church Green","parentId":"490G00005262","stationId":"490G00005262","stopLetter":"SK","topMostParentId":"490G00005262","towards":"Harlington Or Southall"},{"icsId":"1009334","id":"490009334S","lat":51.51539,"lon":-0.41994,"name":"Longmead Road","parentId":"490G00009334","stationId":"490G00009334","stopLetter":"SL","topMostParentId":"490G00009334","towards":"Harlington Or Southall"},{"icsId":"1013751","id":"490013751S","lat":51.51295,"lon":-0.41998,"name":"Townfield Road","parentId":"490G00013751","stationId":"490G00013751","stopLetter":"SM","topMostParentId":"490G00013751","towards":"Harlington Or Southall"},{"icsId":"1004178","id":"490004178S","lat":51.5093,"lon":-0.42086,"name":"Botwell Lane","parentId":"490G00004178","stationId":"490G00004178","stopLetter":"SN","topMostParentId":"490G00004178","towards":"Harlington Or Southall"},{"icsId":"1004177","id":"490004177E","lat":51.50762,"lon":-0.41933,"name":"Botwell Green","parentId":"490G00004177","stationId":"490G00004177","stopLetter":"SP","topMostParentId":"490G00004177","towards":"Harlington, Prologis Park Or Southall"},{"icsId":"1000828","id":"490000828Y","lat":51.50654,"lon":-0.41886,"name":"Hayes Town Centre","parentId":"490G000162","stationId":"490G000162","stopLetter":"D","topMostParentId":"490G000162","towards":"Harlington, Prologis Park Or Southall"},{"icsId":"1001144","id":"490001144M","lat":51.50306,"lon":-0.42079,"name":"Hayes & Harlington Station","stopLetter":"E","topMostParentId":"490001144M","towards":"Harlington, Southall Or Stockley Park"},{"icsId":"1010579","id":"490010579E","lat":51.50095,"lon":-0.42296,"name":"Old Station Road","parentId":"490G00010579","stationId":"490G00010579","stopLetter":"G","topMostParentId":"490G00010579","towards":"Southall"},{"icsId":"1007825","id":"490007825E","lat":51.49896,"lon":-0.41733,"name":"Harold Avenue","parentId":"490G00007825","stationId":"490G00007825","stopLetter":"H","topMostParentId":"490G00007825","towards":"Southall"},{"icsId":"1013312","id":"490013312E","lat":51.49804,"lon":-0.41301,"name":"Roseville Road","parentId":"490G00013312","stationId":"490G00013312","stopLetter":"->E","topMostParentId":"490G00013312","towards":"Southall"},{"icsId":"1004573","id":"490004573E","lat":51.49809,"lon":-0.4056,"name":"Hayes Road / Tesco","parentId":"490G00004573","stationId":"490G00004573","stopLetter":"BA","topMostParentId":"490G00004573","towards":"Hounslow Or Southall"},{"icsId":"1014393","id":"490012242E","lat":51.49737,"lon":-0.39976,"name":"Wentworth Road","parentId":"490G00014393","stationId":"490G00014393","stopLetter":"BB","topMostParentId":"490G00014393","towards":"Southall"},{"icsId":"1012133","id":"490012133E","lat":51.49789,"lon":-0.39508,"name":"Brent Road","parentId":"490G00012133","stationId":"490G00012133","stopLetter":"BC","topMostParentId":"490G00012133","towards":"Ealing Hospital Or Greenford"},{"icsId":"1006056","id":"490006056E","lat":51.49914,"lon":-0.39136,"name":"Derley Road","parentId":"490G00006056","stationId":"490G00006056","stopLetter":"BD","topMostParentId":"490G00006056","towards":"Ealing Hospital Or Greenford"},{"icsId":"1013052","id":"490013052E","lat":51.50046,"lon":-0.38797,"name":"Sussex Road","parentId":"490G00013052","stationId":"490G00013052","stopLetter":"->E","topMostParentId":"490G00013052","towards":"Ealing Hospital Or Greenford"},{"icsId":"1014162","id":"490014162E","lat":51.50078,"lon":-0.38485,"name":"Waltham Road","parentId":"490G00014162","stationId":"490G00014162","stopLetter":"H","topMostParentId":"490G00014162","towards":"Ealing Hospital, Greenford Or Havelock Estate"},{"icsId":"1008833","id":"490008833E","lat":51.50138,"lon":-0.38263,"name":"King Street","parentId":"490G00008833","stationId":"490G00008833","stopLetter":"E","topMostParentId":"490G00008833","towards":"Ealing Hospital, Greenford Or Northolt"},{"icsId":"1013388","id":"490013388L","lat":51.5029,"lon":-0.38101,"name":"The Green","parentId":"490G00013388","stationId":"490G00013388","stopLetter":"L","topMostParentId":"490G00013388","towards":"Ealing Hospital, Greenford Or Northolt"},{"icsId":"1010754","id":"490010754P","lat":51.50757,"lon":-0.37832,"name":"Park Avenue","parentId":"490G00010754","stationId":"490G00010754","stopLetter":"P","topMostParentId":"490G00010754","towards":"Ealing Hospital, Greenford Or Yeading"},{"icsId":"1012241","id":"490012241N","lat":51.51037,"lon":-0.37612,"name":"Southall Broadway","parentId":"490G00012241","stationId":"490G00012241","stopLetter":"N","topMostParentId":"490G00012241","towards":"Ealing Hospital Or Greenford"},{"icsId":"1019182","id":"490013594R","lat":51.51094,"lon":-0.37297,"name":"Southall / North Road","parentId":"490G00019182","stationId":"490G00019182","stopLetter":"R","topMostParentId":"490G00019182","towards":"Boston Manor Or Ealing"},{"icsId":"1012244","id":"490012244T","lat":51.51114,"lon":-0.36956,"name":"Southall Park","parentId":"490G00012244","stationId":"490G00012244","stopLetter":"UA","topMostParentId":"490G00012244","towards":"Boston Manor Or Ealing"},{"icsId":"1015281","id":"490015281V","lat":51.51108,"lon":-0.36468,"name":"Dormer's Wells Lane","parentId":"490G00015281","stationId":"490G00015281","stopLetter":"V","topMostParentId":"490G00015281","towards":"Boston Manor Or Ealing"},{"icsId":"1009465","id":"490009465E","lat":51.51049,"lon":-0.36139,"name":"Lyndhurst Avenue","parentId":"490G00009465","stationId":"490G00009465","stopLetter":"UC","topMostParentId":"490G00009465","towards":"Boston Manor Or Ealing"},{"icsId":"1008498","id":"490008498E2","lat":51.50987,"lon":-0.35768,"name":"Iron Bridge","parentId":"490G00008498","stationId":"490G00008498","stopLetter":"UD","topMostParentId":"490G00008498","towards":"Boston Manor Or Ealing"},{"icsId":"1012638","id":"490012638E","lat":51.50911,"lon":-0.34953,"name":"St Bernard's Gatehouse / Windmill Park","parentId":"490G00012638","stationId":"490G00012638","stopLetter":"UH","topMostParentId":"490G00012638","towards":"Boston Manor Or Ealing"},{"icsId":"1006292","id":"490015230P","lat":51.50903,"lon":-0.34743,"name":"Ealing Hospital / Wharncliffe Drive","parentId":"490G00006292","stationId":"490G00006292","stopLetter":"P","topMostParentId":"490G00006292","towards":"Boston Manor Or Ealing Broadway"},{"icsId":"1013580","id":"490013580M","lat":51.50855,"lon":-0.3401,"name":"Half Acre Road","parentId":"490G00013580","stationId":"490G00013580","stopLetter":"M","topMostParentId":"490G00013580","towards":"Boston Manor Or Ealing Broadway"},{"icsId":"1007763","id":"490007760K","lat":51.50844,"lon":-0.33786,"name":"Jessamine Road","parentId":"490G00007763","stationId":"490G00007763","stopLetter":"K","topMostParentId":"490G00007763","towards":"Brentford"},{"icsId":"1011772","id":"490011772Z","lat":51.50558,"lon":-0.33636,"name":"Rosebank Road","parentId":"490G00011772","stationId":"490G00011772","stopLetter":"Z","topMostParentId":"490G00011772","towards":"Brentford"},{"icsId":"1005899","id":"490005899S","lat":51.50328,"lon":-0.33224,"name":"Cumberland Road","parentId":"490G00005899","stationId":"490G00005899","stopLetter":"J","topMostParentId":"490G00005899","towards":"Brentford"},{"icsId":"1006549","id":"490006549S","lat":51.50224,"lon":-0.33079,"name":"Elthorne Park Road","parentId":"490G00006549","stationId":"490G00006549","stopLetter":"K","topMostParentId":"490G00006549","towards":"Brentford"},{"icsId":"1005242","id":"490005242S","lat":51.50041,"lon":-0.32876,"name":"Christopher Avenue","parentId":"490G00005242","stationId":"490G00005242","stopLetter":"L","topMostParentId":"490G00005242","towards":"Brentford"},{"icsId":"1004168","id":"490004168S","lat":51.49821,"lon":-0.32689,"name":"Haslemere Avenue","parentId":"490G00004168","stationId":"490G00004168","stopLetter":"M","topMostParentId":"490G00004168","towards":"Brentford"},{"icsId":"1000027","id":"490000027B","lat":51.49573,"lon":-0.32401,"name":"Boston Manor Station","stopLetter":"N","topMostParentId":"490000027B","towards":"Brentford","zone":"4"},{"icsId":"1004167","id":"490004167S","lat":51.49431,"lon":-0.32016,"name":"Swyncombe Avenue","parentId":"490G00004167","stationId":"490G00004167","stopLetter":"P","topMostParentId":"490G00004167","towards":"Brentford"},{"icsId":"1013524","id":"490013524S","lat":51.49228,"lon":-0.31769,"name":"The Ride","parentId":"490G00013524","stationId":"490G00013524","stopLetter":"R","topMostParentId":"490G00013524","towards":"Brentford"},{"icsId":"1009593","id":"490009593S","lat":51.49057,"lon":-0.31606,"name":"Manor Vale","parentId":"490G00009593","stationId":"490G00009593","stopLetter":"->S","topMostParentId":"490G00009593","towards":"Brentford"},{"icsId":"1007424","id":"490007424S","lat":51.4886,"lon":-0.31392,"name":"Great West Road","parentId":"490G00007424","stationId":"490G00007424","stopLetter":"SZ","topMostParentId":"490G00007424","towards":"Brentford"},{"icsId":"1001032","id":"490005314T","lat":51.48802,"lon":-0.31225,"name":"Brentford Station","stopLetter":"SM","topMostParentId":"490005314T","towards":"Brentford Lock Or Brentford County Court"},{"icsId":"1014768","id":"490014768L","lat":51.4867,"lon":-0.30862,"name":"Windmill Road","parentId":"490G000839","stationId":"490G000839","stopLetter":"SN","topMostParentId":"490G000839","towards":"Brentford Lock Or Brentford County Court"},{"icsId":"1004294","id":"490004294J","lat":51.48411,"lon":-0.30661,"name":"Half Acre","parentId":"490G00004294","stationId":"490G00004294","stopLetter":"SE","topMostParentId":"490G00004294","towards":"Brentford Lock Or Brentford County Court"}]}]}