{"direction":"outbound","lineId":"196","lineName":"196","mode":"bus","stopPointSequences":[{"stopPoint":[{"icsId":"1009297","id":"490000073H","lat":51.49627,"lon":-0.09973,"name":"Elephant & Castle / Newington Causeway","parentId":"490G000644","stationId":"490G000644","stopLetter":"H","topMostParentId":"490G000644","towards":"Brixton Or Vauxhall"},{"icsId":"1010223","id":"490010223S2","lat":51.49211,"lon":-0.10192,"name":"Newington Butts","parentId":"490G00010223","stationId":"490G00010223","stopLetter":"BC","topMostParentId":"490G00010223","towards":"Vauxhall"},{"icsId":"1011521","id":"490011521W","lat":51.49044,"lon":-0.10652,"name":"Renfrew Road","parentId":"490G00011521","stationId":"490G00011521","stopLetter":"BH","topMostParentId":"490G00011521","towards":"Stockwell"},{"icsId":"1008646","id":"490008646KC","lat":51.48945,"lon":-0.10916,"name":"Kennington Road","parentId":"490G00008646","stationId":"490G00008646","stopLetter":"KC","topMostParentId":"490G00008646","towards":"Stockwell"},{"icsId":"1009375","id":"490009375W","lat":51.48682,"lon":-0.11579,"name":"Loughborough Street","parentId":"490G00009375","stationId":"490G00009375","stopLetter":"KN","topMostParentId":"490G00009375","towards":"Stockwell"},{"icsId":"1006274","id":"490006274W","lat":51.48654,"lon":-0.11819,"name":"Durham Street","parentId":"490G00006274","stationId":"490G00006274","stopLetter":"->W","topMostParentId":"490G00006274","towards":"Stockwell"},{"icsId":"1020252","id":"490000247G1","lat":51.48495,"lon":-0.12468,"name":"Vauxhall Bus Station","stopLetter":"G","topMostParentId":"490000247G1"},{"icsId":"1005678","id":"490005678X","lat":51.48347,"lon":-0.12698,"name":"Covent Garden Market East Side","parentId":"490G00005678","stationId":"490G00005678","stopLetter":"X","topMostParentId":"490G00005678","towards":"Brixton Or Clapham Junction"},{"icsId":"1002196","id":"490014679S","lat":51.48063,"lon":-0.1278,"name":"Nine Elms Station","stopLetter":"L","topMostParentId":"490014679S","towards":"Brixton Or Clapham Junction"},{"icsId":"1008969","id":"490008969S","lat":51.47668,"lon":-0.13031,"name":"Lansdowne Green","parentId":"490G00008969","stationId":"490G00008969","stopLetter":"M","topMostParentId":"490G00008969","towards":"Brixton Or Clapham Junction"},{"icsId":"1012831","id":"490012831E","lat":51.47466,"lon":-0.12575,"name":"Stockwell Bus Garage","parentId":"490G00012831","stationId":"490G00012831","stopLetter":"P","topMostParentId":"490G00012831","towards":"Brixton"},{"icsId":"1012835","id":"490000223B","lat":51.47388,"lon":-0.12239,"name":"South Lambeth Road / Stockwell Stn","parentId":"490G000770","stationId":"490G000770","stopLetter":"B","topMostParentId":"490G000770","towards":"Brixton Or Clapham Common"},{"icsId":"1012832","id":"490012832X","lat":51.4715,"lon":-0.12152,"name":"Stockwell Gardens","parentId":"490G000768","stationId":"490G000768","stopLetter":"X","topMostParentId":"490G000768","towards":"Camberwell, Streatham Or Tulse Hill"},{"icsId":"1008500","id":"490008500S","lat":51.46964,"lon":-0.11987,"name":"Irving Grove","parentId":"490G00008500","stationId":"490G00008500","stopLetter":"K","topMostParentId":"490G00008500","towards":"Camberwell, Streatham Or Tulse Hill"},{"icsId":"1012833","id":"490012833S1","lat":51.46837,"lon":-0.11884,"name":"Stockwell Green","parentId":"490G00012833","stationId":"490G00012833","topMostParentId":"490G00012833","towards":"Camberwell, Streatham Or Tulse Hill"},{"icsId":"1012578","id":"490012578B","lat":51.46631,"lon":-0.11684,"name":"Stansfield Road","parentId":"490G00012578","stationId":"490G00012578","topMostParentId":"490G00012578","towards":"Camberwell, Streatham Or Tulse Hill"},{"icsId":"1007526","id":"490007523B","lat":51.46524,"lon":-0.11518,"name":"Brixton Academy","parentId":"490G00007526","stationId":"490G00007526","stopLetter":"B","topMostParentId":"490G00007526","towards":"Camberwell, Streatham Or Tulse Hill"},{"icsId":"1000031","id":"490000031Q","lat":51.46168,"lon":-0.11536,"name":"Brixton Station","stopLetter":"Q","topMostParentId":"490000031Q","towards":"Herne Hill Or Tulse Hill","zone":"2"},{"icsId":"1012808","id":"4900019343S","lat":51.46024,"lon":-0.11553,"name":"St Matthew's Church","parentId":"490G00012808","stationId":"490G00012808","stopLetter":"ZA","topMostParentId":"490G00012808","towards":"Herne Hill"},{"icsId":"1012810","id":"490012810S","lat":51.45815,"lon":-0.11478,"name":"St Matthews Estate","parentId":"490G00012810","stationId":"490G00012810","stopLetter":"A","topMostParentId":"490G00012810","towards":"Herne Hill Or Tulse Hill"},{"icsId":"1005847","id":"490010053S","lat":51.4564,"lon":-0.11415,"name":"Morval Road","parentId":"490G00005847","stationId":"490G00005847","stopLetter":"B","topMostParentId":"490G00005847","towards":"Herne Hill Or Tulse Hill"},{"icsId":"1005933","id":"490005933S","lat":51.45595,"lon":-0.11092,"name":"Dalberg Road / Effra Parade","parentId":"490G00005933","stationId":"490G00005933","stopLetter":"Q","topMostParentId":"490G00005933","towards":"Crystal Palace, East Dulwich Or Tulse Hill"},{"icsId":"1009933","id":"490009933W","lat":51.45412,"lon":-0.1077,"name":"Milton Road","parentId":"490G00009933","stationId":"490G00009933","stopLetter":"R","topMostParentId":"490G00009933","towards":"Crystal Palace, East Dulwich Or Tulse Hill"},{"icsId":"1004402","id":"490004402P","lat":51.45334,"lon":-0.1054,"name":"Brockwell Lido","parentId":"490G00004402","stationId":"490G00004402","stopLetter":"Z","topMostParentId":"490G00004402","towards":"Crystal Palace, East Dulwich Or Tulse Hill"},{"icsId":"1001149","id":"490001149N","lat":51.45262,"lon":-0.10265,"name":"Herne Hill Station","stopLetter":"N","topMostParentId":"490001149N","towards":"Crystal Palace, East Dulwich Or Tulse Hill"},{"icsId":"1004403","id":"490004403F","lat":51.45188,"lon":-0.10124,"name":"Brockwell Park","parentId":"490G000428","stationId":"490G000428","stopLetter":"F","topMostParentId":"490G000428","towards":"West Norwood"},{"icsId":"1011701","id":"490011701S","lat":51.44812,"lon":-0.10256,"name":"Rosendale Road","parentId":"490G00011701","stationId":"490G00011701","stopLetter":"P","topMostParentId":"490G00011701","towards":"West Norwood"},{"icsId":"1004404","id":"490004404S","lat":51.44624,"lon":-0.10488,"name":"Brockwell Park Gardens","parentId":"490G00004404","stationId":"490G00004404","stopLetter":"R","topMostParentId":"490G00004404","towards":"West Norwood"},{"icsId":"1006058","id":"490006058S","lat":51.44388,"lon":-0.10487,"name":"Deronda Road","parentId":"490G00006058","stationId":"490G00006058","stopLetter":"->S","topMostParentId":"490G00006058","towards":"West Norwood"},{"icsId":"1001298","id":"490001298G","lat":51.43943,"lon":-0.10612,"name":"Tulse Hill Station","stopLetter":"G","topMostParentId":"490001298G","towards":"Crown Point Or Crystal Palace"},{"icsId":"1014508","id":"490014508H","lat":51.43779,"lon":-0.10554,"name":"Elmcourt Road","parentId":"490G00014508","stationId":"490G00014508","stopLetter":"H","topMostParentId":"490G00014508","towards":"Crown Point Or Crystal Palace"},{"icsId":"1008927","id":"490008927L","lat":51.43574,"lon":-0.10411,"name":"Lancaster Avenue","parentId":"490G00008927","stationId":"490G00008927","stopLetter":"L","topMostParentId":"490G00008927","towards":"Crown Point Or Crystal Palace"},{"icsId":"1013670","id":"490013655P","lat":51.43402,"lon":-0.10364,"name":"Norwood Road / Robson Road","parentId":"490G00013670","stationId":"490G00013670","stopLetter":"P","topMostParentId":"490G00013670","towards":"Crown Point Or Crystal Palace"},{"icsId":"1001331","id":"490001331T","lat":51.43166,"lon":-0.10254,"name":"West Norwood Station","stopLetter":"T","topMostParentId":"490001331T","towards":"Crown Point Or Crystal Palace"},{"icsId":"1010444","id":"490010444W","lat":51.42952,"lon":-0.10355,"name":"Norwood Bus Garage","parentId":"490G00010444","stationId":"490G00010444","stopLetter":"U","topMostParentId":"490G00010444","towards":"Upper Norwood"},{"icsId":"1011726","id":"490011726S","lat":51.4289,"lon":-0.10429,"name":"Rothschild Street","parentId":"490G00011726","stationId":"490G00011726","stopLetter":"V","topMostParentId":"490G00011726","towards":"Upper Norwood"},{"icsId":"1012969","id":"490012969S","lat":51.42686,"lon":-0.10481,"name":"West Norwood Fire Station","parentId":"490G00012969","stationId":"490G00012969","stopLetter":"CP","topMostParentId":"490G00012969","towards":"Upper Norwood"},{"icsId":"1007066","id":"490007066S","lat":51.42388,"lon":-0.10532,"name":"Furneaux Avenue","parentId":"490G00007066","stationId":"490G00007066","stopLetter":"CR","topMostParentId":"490G00007066","towards":"Upper Norwood"},{"icsId":"1005839","id":"490005839S","lat":51.42201,"lon":-0.10602,"name":"Crown Point / Beulah Hill","parentId":"490G00005839","stationId":"490G00005839","stopLetter":"CQ","topMostParentId":"490G00005839","towards":"Crystal Palace Or Thornton Heath"},{"icsId":"1007430","id":"490007430S","lat":51.42042,"lon":-0.10643,"name":"Grecian Crescent","parentId":"490G00007430","stationId":"490G00007430","stopLetter":"->S","topMostParentId":"490G00007430","towards":"Crystal Palace Or Thornton Heath"},{"icsId":"1003992","id":"490003992S","lat":51.41882,"lon":-0.10365,"name":"Biggin Hill","parentId":"490G00003992","stationId":"490G00003992","stopLetter":"SA","topMostParentId":"490G00003992","towards":"Crystal Palace, Norwood Junction Or Thornton Heath"},{"icsId":"1005559","id":"490005559S","lat":51.41822,"lon":-0.10059,"name":"Convent Hill","parentId":"490G00005559","stationId":"490G00005559","stopLetter":"SB","topMostParentId":"490G00005559","towards":"Crystal Palace Or Thornton Heath"},{"icsId":"1015337","id":"490015337S","lat":51.41639,"lon":-0.09656,"name":"Hermitage Road","parentId":"490G00015337","stationId":"490G00015337","stopLetter":"SC","topMostParentId":"490G00015337","towards":"Crystal Palace Or Thornton Heath"},{"icsId":"1003959","id":"490003959S","lat":51.41424,"lon":-0.0925,"name":"Beulah Spa","parentId":"490G00003959","stationId":"490G00003959","stopLetter":"SD","topMostParentId":"490G00003959","towards":"Crystal Palace Or Thornton Heath"},{"icsId":"1013929","id":"490013929S","lat":51.41267,"lon":-0.0888,"name":"Upper Beulah Hill","parentId":"490G00013929","stationId":"490G00013929","stopLetter":"SK","topMostParentId":"490G00013929","towards":"Crystal Palace Or Thornton Heath"},{"icsId":"1003242","id":"490003242S","lat":51.41098,"lon":-0.08738,"name":"Beulah Hill / All Saints Church","parentId":"490G00003242","stationId":"490G00003242","stopLetter":"SL","topMostParentId":"490G00003242","towards":"Crystal Palace, Croydon Or South Norwood"},{"icsId":"1007344","id":"490007344S","lat":51.40832,"lon":-0.08634,"name":"Grange Avenue","parentId":"490G00007344","stationId":"490G00007344","stopLetter":"SQ","topMostParentId":"490G00007344","towards":"South Norwood Or West Croydon"},{"icsId":"1014227","id":"490014227S","lat":51.40692,"lon":-0.08503,"name":"Wharncliffe Gardens","parentId":"490G00014227","stationId":"490G00014227","stopLetter":"SR","topMostParentId":"490G00014227","towards":"South Norwood Or West Croydon"},{"icsId":"1011718","id":"490011718S","lat":51.40555,"lon":-0.08306,"name":"Ross Road","parentId":"490G00011718","stationId":"490G00011718","stopLetter":"ST","topMostParentId":"490G00011718","towards":"South Norwood Or West Croydon"},{"icsId":"1008410","id":"490008410S","lat":51.40366,"lon":-0.08072,"name":"Howden Road","parentId":"490G00008410","stationId":"490G00008410","stopLetter":"->S","topMostParentId":"490G00008410","towards":"Norwood Junction"},{"icsId":"1006512","id":"490006512S","lat":51.40185,"lon":-0.07845,"name":"Elm Park Road","parentId":"490G00006512","stationId":"490G00006512","stopLetter":"->S","topMostParentId":"490G00006512","towards":"Norwood Junction"},{"icsId":"1012551","id":"490012551K","lat":51.4001,"lon":-0.07562,"name":"Stanley Hall","parentId":"490G00012551","stationId":"490G00012551","stopLetter":"K","topMostParentId":"490G00012551","towards":"Croydon"},{"icsId":"1001216","id":"490001216E","lat":51.39863,"lon":-0.07511,"name":"Norwood Junction Station","stopLetter":"E","topMostParentId":"490001216E","towards":"Upper Norwood Or Thornton Heath"}]}]}