{"direction":"outbound","lineId":"199","lineName":"199","mode":"bus","stopPointSequences":[{"stopPoint":[{"icsId":"1004733","id":"490000037S","lat":51.49795,"lon":-0.05,"name":"Canada Water Bus Station","parentId":"490G000438","stationId":"490G000438","stopLetter":"B2","topMostParentId":"HUBZCW"},{"icsId":"1011723","id":"490011723E","lat":51.49494,"lon":-0.05048,"name":"Rotherhithe Police Station","parentId":"490G00011723","stationId":"490G00011723","stopLetter":"E","topMostParentId":"490G00011723","towards":"South Bermondsey, Deptford Or New Cross"},{"icsId":"1013042","id":"490013042K","lat":51.494,"lon":-0.04587,"name":"Surrey Quays Shopping Centre","parentId":"490G000775","stationId":"490G000775","stopLetter":"K","topMostParentId":"490G000775","towards":"Greenwich Or Peckham"},{"icsId":"1000229","id":"490000229L","lat":51.49342,"lon":-0.04601,"name":"Surrey Quays Station","stopLetter":"L","topMostParentId":"490000229L","towards":"Southwark Park Road, New Cross Or Lewisham"},{"icsId":"1011487","id":"490000229S","lat":51.49233,"lon":-0.04557,"name":"Lower Road / Surrey Quays Station","parentId":"490G00011487","stationId":"490G00011487","stopLetter":"M","topMostParentId":"490G00011487","towards":"Greenwich Or Lewisham"},{"icsId":"1015001","id":"490015001E","lat":51.49275,"lon":-0.04107,"name":"Yeoman Street","parentId":"490G00015001","stationId":"490G00015001","stopLetter":"->E","topMostParentId":"490G00015001","towards":"Greenwich"},{"icsId":"1006258","id":"490006258E","lat":51.49256,"lon":-0.03593,"name":"Dunnage Crescent","parentId":"490G00006258","stationId":"490G00006258","stopLetter":"->E","topMostParentId":"490G00006258","towards":"Greenwich"},{"icsId":"1016665","id":"490016665S","lat":51.49215,"lon":-0.0344,"name":"Grove Street / Plough Way","parentId":"490G00016665","stationId":"490G00016665","stopLetter":"->S","topMostParentId":"490G00016665","towards":"Greenwich"},{"icsId":"1007582","id":"490007582S","lat":51.49024,"lon":-0.03436,"name":"Windlass Place","parentId":"490G00007582","stationId":"490G00007582","stopLetter":"->S","topMostParentId":"490G00007582","towards":"Greenwich"},{"icsId":"1011605","id":"490011605W","lat":51.48887,"lon":-0.03448,"name":"Riverside Youth Club","parentId":"490G00011605","stationId":"490G00011605","stopLetter":"X","topMostParentId":"490G00011605","towards":"Greenwich"},{"icsId":"1006052","id":"490006052S","lat":51.4879,"lon":-0.0374,"name":"Deptford Park School","parentId":"490G00006052","stationId":"490G00006052","stopLetter":"Y","topMostParentId":"490G00006052","towards":"Greenwich"},{"icsId":"1006049","id":"490006049E","lat":51.4858,"lon":-0.03463,"name":"Deptford Fire Station","parentId":"490G00006049","stationId":"490G00006049","stopLetter":"V","topMostParentId":"490G00006049","towards":"Greenwich Or Lewisham"},{"icsId":"1007585","id":"490007585E","lat":51.48355,"lon":-0.03112,"name":"Abinger Grove","parentId":"490G00007585","stationId":"490G00007585","stopLetter":"W","topMostParentId":"490G00007585","towards":"Greenwich Or Lewisham"},{"icsId":"1018861","id":"490018861","lat":51.48213,"lon":-0.02816,"name":"Sayes Court Estate","parentId":"490G00018861","stationId":"490G00018861","stopLetter":"->E","topMostParentId":"490G00018861","towards":"Greenwich Or Lewisham"},{"icsId":"1006050","id":"490006050C","lat":51.48124,"lon":-0.02499,"name":"Deptford High Street","parentId":"490G00006050","stationId":"490G00006050","stopLetter":"C","topMostParentId":"490G00006050","towards":"Lewisham Or North Greenwich"},{"icsId":"1011687","id":"490011687D","lat":51.48099,"lon":-0.02148,"name":"Macmillan Students Village","parentId":"490G00011687","stationId":"490G00011687","stopLetter":"D","topMostParentId":"490G00011687","towards":"Lewisham Or North Greenwich"},{"icsId":"1005736","id":"490005736E","lat":51.48141,"lon":-0.01724,"name":"Creekside","parentId":"490G00005736","stationId":"490G00005736","stopLetter":"Z","topMostParentId":"490G00005736","towards":"Lewisham Or North Greenwich"},{"icsId":"1010309","id":"490010309E","lat":51.4815,"lon":-0.01435,"name":"Creek Road / Norman Road","parentId":"490G00010309","stationId":"490G00010309","stopLetter":"Y","topMostParentId":"490G00010309","towards":"Lewisham Or North Greenwich"},{"icsId":"1002027","id":"490002027A","lat":51.48152,"lon":-0.01112,"name":"Greenwich Tn Ctr / Cutty Sark Stn","stopLetter":"A","topMostParentId":"490002027A","towards":"Lewisham Or North Greenwich","zone":"2+3"},{"icsId":"1007506","id":"490007506E","lat":51.48086,"lon":-0.00887,"name":"Greenwich Town Centre / Nelson Road","parentId":"490G000546","stationId":"490G000546","stopLetter":"E","topMostParentId":"490G000546","towards":"Blackheath Village, Deptford Or Lewisham"},{"icsId":"1007516","id":"490007513K","lat":51.47909,"lon":-0.01022,"name":"Greenwich High Road / Royal Hill","parentId":"490G00007516","stationId":"490G00007516","stopLetter":"K","topMostParentId":"490G00007516","towards":"Blackheath Village, Lewisham Or New Cross"},{"icsId":"1001123","id":"490001123L","lat":51.47826,"lon":-0.01145,"name":"Greenwich Station","stopLetter":"L","topMostParentId":"490001123L","towards":"Lewisham Or Blackheath Village","zone":"2+3"},{"icsId":"1003411","id":"490003411S","lat":51.47498,"lon":-0.01335,"name":"Ashburnham Grove","parentId":"490G00003411","stationId":"490G00003411","stopLetter":"A","topMostParentId":"490G00003411","towards":"Catford Or Blackheath Village"},{"icsId":"1015265","id":"490015265S","lat":51.47345,"lon":-0.01485,"name":"Greenwich South Street / Blackheath Road","parentId":"490G00015265","stationId":"490G00015265","stopLetter":"B","topMostParentId":"490G00015265","towards":"Catford Or Blackheath Village"},{"icsId":"1012371","id":"490012371S","lat":51.47152,"lon":-0.01485,"name":"Sparta Street","parentId":"490G00012371","stationId":"490G00012371","stopLetter":"C","topMostParentId":"490G00012371","towards":"Catford"},{"icsId":"1010022","id":"490010022D","lat":51.46917,"lon":-0.0132,"name":"Morden Hill","parentId":"490G00010022","stationId":"490G00010022","stopLetter":"EE","topMostParentId":"490G00010022","towards":"Catford"},{"icsId":"1004068","id":"490004068S","lat":51.4676,"lon":-0.01171,"name":"Blackheath Rise","parentId":"490G00004068","stationId":"490G00004068","stopLetter":"EF","topMostParentId":"490G00004068","towards":"Catford"},{"icsId":"1001177","id":"490001177Z","lat":51.46424,"lon":-0.01255,"name":"Lewisham Station","stopLetter":"B","topMostParentId":"490001177Z","towards":"Catford","zone":"2+3"},{"icsId":"1009105","id":"490009110W","lat":51.46088,"lon":-0.01058,"name":"Lewisham Centre","parentId":"490G00009105","stationId":"490G00009105","stopLetter":"W","topMostParentId":"490G00009105","towards":"Catford"},{"icsId":"1010038","id":"490010038Z","lat":51.4587,"lon":-0.01246,"name":"Morley Road","parentId":"490G00010038","stationId":"490G00010038","stopLetter":"Z","topMostParentId":"490G00010038","towards":"Catford"},{"icsId":"1009111","id":"490009111HN","lat":51.4567,"lon":-0.0139,"name":"Lewisham Fire Station","parentId":"490G00009111","stationId":"490G00009111","stopLetter":"HN","topMostParentId":"490G00009111","towards":"Catford"},{"icsId":"1009113","id":"490009113S","lat":51.45427,"lon":-0.01597,"name":"Lewisham Park","parentId":"490G00009113","stationId":"490G00009113","stopLetter":"HP","topMostParentId":"490G00009113","towards":"Catford"},{"icsId":"1009109","id":"490009109S","lat":51.45289,"lon":-0.01628,"name":"Lewisham Hospital","parentId":"490G00009109","stationId":"490G00009109","stopLetter":"HR","topMostParentId":"490G00009109","towards":"Bellingham, Forest Hill Or Sydenham"},{"icsId":"1000914","id":"490007163HS","lat":51.4512,"lon":-0.01678,"name":"Mount Pleasant Road","parentId":"490G000231","stationId":"490G000231","stopLetter":"HS","topMostParentId":"490G000231","towards":"Bellingham, Forest Hill Or Sydenham"},{"icsId":"1011703","id":"490011703O","lat":51.44813,"lon":-0.01762,"name":"Rosenthal Road","parentId":"490G00011703","stationId":"490G00011703","stopLetter":"G","topMostParentId":"490G00011703","towards":"Bellingham, Forest Hill Or Sydenham"},{"icsId":"1013282","id":"490013282D","lat":51.44476,"lon":-0.01987,"name":"The Catford Centre","parentId":"490G00013282","stationId":"490G00013282","stopLetter":"D","topMostParentId":"490G00013282","towards":"Bellingham"},{"icsId":"1015150","id":"490015150Z","lat":51.44339,"lon":-0.0203,"name":"Bromley Road / Lewisham Town Hall","parentId":"490G00015150","stationId":"490G00015150","stopLetter":"Z","topMostParentId":"490G00015150","towards":"Catford Garage"},{"icsId":"1005020","id":"490003596S","lat":51.43927,"lon":-0.01969,"name":"Inchmery Road","parentId":"490G00005020","stationId":"490G00005020","stopLetter":"->S","topMostParentId":"490G00005020","towards":"Beckenham Or Downham"},{"icsId":"1010248","id":"490010248S","lat":51.43709,"lon":-0.01855,"name":"Newquay Road","parentId":"490G00010248","stationId":"490G00010248","stopLetter":"BM","topMostParentId":"490G00010248","towards":"Beckenham Or Downham"},{"icsId":"1004865","id":"490004865S1","lat":51.4349,"lon":-0.01781,"name":"Catford Garage","parentId":"490G00004865","stationId":"490G00004865","stopLetter":"->S","topMostParentId":"490G00004865"}]}]}