{"direction":"outbound","lineId":"203","lineName":"203","mode":"bus","stopPointSequences":[{"stopPoint":[{"icsId":"1015241","id":"490015241B","lat":51.47019,"lon":-0.35588,"name":"School Road","parentId":"490G000884","stationId":"490G000884","stopLetter":"C","topMostParentId":"490G000884","towards":"Hounslow Heath, Hounslow West Or Whitton"},{"icsId":"1007766","id":"490007766L","lat":51.46897,"lon":-0.35883,"name":"Fairfields Road","parentId":"490G00007766","stationId":"490G00007766","stopLetter":"L","topMostParentId":"490G00007766","towards":"Hounslow West Or Heston"},{"icsId":"1013777","id":"490013777R","lat":51.46704,"lon":-0.36369,"name":"Treaty Centre","parentId":"490G00013777","stationId":"490G00013777","stopLetter":"T","topMostParentId":"490G00013777","towards":"Hounslow West Or Heston"},{"icsId":"1008391","id":"490008391X","lat":51.46817,"lon":-0.36691,"name":"Bell Corner / Hounslow Civic Centre","parentId":"490G000600","stationId":"490G000600","stopLetter":"X","topMostParentId":"490G000600","towards":"Hounslow West"},{"icsId":"1012454","id":"490012454W","lat":51.46885,"lon":-0.373,"name":"St Michael & St Martin Church","parentId":"490G00012454","stationId":"490G00012454","stopLetter":"H","topMostParentId":"490G00012454","towards":"Cranford, Heston Or Hatton Cross"},{"icsId":"1006406","id":"490014357W","lat":51.46992,"lon":-0.37757,"name":"Wellington Road North","parentId":"490G00006406","stationId":"490G00006406","stopLetter":"J","topMostParentId":"490G00006406","towards":"Cranford, Heston Or Hatton Cross"},{"icsId":"1012458","id":"490012458W","lat":51.47141,"lon":-0.38184,"name":"St Paul's Church","parentId":"490G00012458","stationId":"490G00012458","stopLetter":"K","topMostParentId":"490G00012458","towards":"Cranford, Heston Or Hatton Cross"},{"icsId":"1000118","id":"490000118C","lat":51.47256,"lon":-0.38535,"name":"Hounslow West Station","stopLetter":"C","topMostParentId":"490000118C","towards":"Cranford Or Hatton Cross","zone":"5"},{"icsId":"1007425","id":"490007425W","lat":51.47463,"lon":-0.39218,"name":"Great West Road / Basildene Road","parentId":"490G00007425","stationId":"490G00007425","stopLetter":"L","topMostParentId":"490G00007425","towards":"Cranford Or Hatton Cross"},{"icsId":"1015462","id":"490015462W","lat":51.47476,"lon":-0.39711,"name":"Henlys Roundabout","parentId":"490G00015462","stationId":"490G00015462","stopLetter":"CY","topMostParentId":"490G00015462","towards":"Hatton Cross"},{"icsId":"1007370","id":"490007370W","lat":51.47369,"lon":-0.40035,"name":"Grantley Road","parentId":"490G00007370","stationId":"490G00007370","stopLetter":"->W","topMostParentId":"490G00007370","towards":"Hatton Cross"},{"icsId":"1013285","id":"490013285W","lat":51.47247,"lon":-0.40389,"name":"The Parkway","parentId":"490G00013285","stationId":"490G00013285","stopLetter":"->W","topMostParentId":"490G00013285","towards":"Hatton Cross"},{"icsId":"1007196","id":"490007196W","lat":51.46921,"lon":-0.41365,"name":"Girling Way","parentId":"490G00007196","stationId":"490G00007196","stopLetter":"->W","topMostParentId":"490G00007196","towards":"Harlington Corner, Terminals 4 & 5 Or Stanwell"},{"icsId":"1007904","id":"490007904J","lat":51.46601,"lon":-0.42162,"name":"Great South West Road","parentId":"490G00007904","stationId":"490G00007904","stopLetter":"J","topMostParentId":"490G00007904","towards":"Harlington Corner, Terminals 4 & 5 Or Bedfont"},{"icsId":"1000103","id":"490000103Z","lat":51.46692,"lon":-0.4232,"name":"Hatton Cross Station","stopLetter":"D","topMostParentId":"490000103Z","zone":"5+6"},{"icsId":"1010142","id":"490010142S","lat":51.46241,"lon":-0.42646,"name":"Myrtle Avenue","parentId":"490G00010142","stationId":"490G00010142","stopLetter":"->S","topMostParentId":"490G00010142","towards":"Ashford Or Feltham"},{"icsId":"1004673","id":"490004673S","lat":51.46039,"lon":-0.42959,"name":"Cains Lane","parentId":"490G00004673","stationId":"490G00004673","stopLetter":"->S","topMostParentId":"490G00004673","towards":"Ashford Or Feltham"},{"icsId":"1007972","id":"490007972S","lat":51.45815,"lon":-0.43312,"name":"Hazelmere Close","parentId":"490G00007972","stationId":"490G00007972","stopLetter":"->S","topMostParentId":"490G00007972","towards":"Ashford Or Feltham"},{"icsId":"1014513","id":"490014513S","lat":51.45493,"lon":-0.43743,"name":"West Road","parentId":"490G00014513","stationId":"490G00014513","stopLetter":"W","topMostParentId":"490G00014513","towards":"Ashford Or Feltham"},{"icsId":"1003784","id":"490003784S","lat":51.45352,"lon":-0.43951,"name":"Bedfont Close","parentId":"490G00003784","stationId":"490G00003784","stopLetter":"Y","topMostParentId":"490G00003784","towards":"Ashford Or Feltham"},{"icsId":"1007903","id":"490007903W","lat":51.45255,"lon":-0.44147,"name":"Spinney Drive","parentId":"490G00007903","stationId":"490G00007903","stopLetter":"BA","topMostParentId":"490G00007903","towards":"Ashford Hospital and Staines"},{"icsId":"1007415","id":"490007415W","lat":51.45319,"lon":-0.44548,"name":"Great South West Road","parentId":"490G00007415","stationId":"490G00007415","stopLetter":"BB","topMostParentId":"490G00007415","towards":"Ashford Hospital and Staines"},{"icsId":"1003332","id":"490003332W","lat":51.45468,"lon":-0.45398,"name":"Animal Reception Centre","parentId":"490G00003332","stationId":"490G00003332","stopLetter":"->W","topMostParentId":"490G00003332","towards":"Stanwell"},{"icsId":"1003704","id":"490003704NW","lat":51.4552,"lon":-0.45633,"name":"Beacon Road","parentId":"490G00003704","stationId":"490G00003704","topMostParentId":"490G00003704","towards":"Sunbury Or Staines"},{"icsId":"1009325","id":"40004402007A","lat":51.45722,"lon":-0.463563,"name":"Long Lane","parentId":"400G4402007A","stationId":"400G4402007A","topMostParentId":"400G4402007A","towards":"Sunbury Or Staines"},{"icsId":"1003792","id":"40004402008A","lat":51.457952,"lon":-0.471384,"name":"Bedfont Road","parentId":"400G4402008B","stationId":"400G4402008B","stopLetter":"after","topMostParentId":"400G4402008B","towards":"Staines Or Sunbury"},{"icsId":"1006662","id":"40004402009A","lat":51.454721,"lon":-0.473247,"name":"Everest Road","parentId":"400G4402009B","stationId":"400G4402009B","topMostParentId":"400G4402009B","towards":"Staines Or Sunbury"},{"icsId":"1005606","id":"40004402010A","lat":51.453112,"lon":-0.473258,"name":"Cordelia Road","parentId":"400G4402010B","stationId":"400G4402010B","topMostParentId":"400G4402010B","towards":"Staines Or Sunbury"},{"icsId":"1005364","id":"40004402011A","lat":51.45037,"lon":-0.476775,"name":"Viscount Road","topMostParentId":"40004402011A","towards":"Staines Or Sunbury"},{"icsId":"1012570","id":"40004402012A","lat":51.448952,"lon":-0.478419,"name":"St Anne's Avenue","parentId":"400G4402012B","stationId":"400G4402012B","topMostParentId":"400G4402012B","towards":"Staines Or Sunbury"},{"icsId":"1011952","id":"40004402013A","lat":51.446338,"lon":-0.47724,"name":"Scots Close","parentId":"400G4402013B","stationId":"400G4402013B","topMostParentId":"400G4402013B","towards":"Staines Or Sunbury"},{"icsId":"1003431","id":"40004402014A","lat":51.444087,"lon":-0.474911,"name":"Ashford Hospital","parentId":"400G4402014A","stationId":"400G4402014A","topMostParentId":"400G4402014A","towards":"Bedfont, Staines Or Sunbury"},{"icsId":"1013752","id":"40004402017B","lat":51.442214,"lon":-0.476067,"name":"Town Lane","parentId":"400G4402017D","stationId":"400G4402017D","topMostParentId":"400G4402017D","towards":"Staines"},{"icsId":"1008629","id":"40004402018B","lat":51.440717,"lon":-0.482736,"name":"Kenilworth Road","parentId":"400G4402018A","stationId":"400G4402018A","topMostParentId":"400G4402018A","towards":"Staines"},{"icsId":"1012125","id":"40004402019B","lat":51.438565,"lon":-0.491541,"name":"Shortwood Avenue","parentId":"400G4402019A","stationId":"400G4402019A","topMostParentId":"400G4402019A","towards":"Staines"},{"icsId":"1012477","id":"40004402020B","lat":51.436996,"lon":-0.497491,"name":"Crooked Billet Roundabout","parentId":"400G4402020A","stationId":"400G4402020A","topMostParentId":"400G4402020A","towards":"Staines"},{"icsId":"1019935","id":"40004402022A","lat":51.435457,"lon":-0.505124,"name":"Kingston Road","stopLetter":"L","topMostParentId":"40004402022A","towards":"Egham"},{"icsId":"1012337","id":"40004402209A","lat":51.434558,"lon":-0.508649,"name":"South Street","stopLetter":"K","topMostParentId":"40004402209A"},{"icsId":"1012479","id":"40004402126C","lat":51.432723,"lon":-0.509356,"name":"Staines Bus Station","parentId":"400G4402126A","stationId":"400G4402126A","stopLetter":"3","topMostParentId":"400G4402126A"}]}]}