{"direction":"outbound","lineId":"207","lineName":"207","mode":"bus","stopPointSequences":[{"stopPoint":[{"icsId":"1007944","id":"490007944E","lat":51.51593,"lon":-0.39891,"name":"Hayes By-Pass","parentId":"490G00007944","stationId":"490G00007944","stopLetter":"->E","topMostParentId":"490G00007944","towards":"Southall"},{"icsId":"1004472","id":"490004472E","lat":51.51459,"lon":-0.39485,"name":"Brookside Road","parentId":"490G00004472","stationId":"490G00004472","stopLetter":"->E","topMostParentId":"490G00004472","towards":"Hanwell"},{"icsId":"1013409","id":"490006026E","lat":51.51333,"lon":-0.39094,"name":"Hayes Bridge","parentId":"490G00013409","stationId":"490G00013409","topMostParentId":"490G00013409","towards":"Ealing"},{"icsId":"1013805","id":"490013805E","lat":51.51271,"lon":-0.38667,"name":"Southall / Trinity Road","parentId":"490G00013805","stationId":"490G00013805","stopLetter":"T","topMostParentId":"490G00013805","towards":"Ealing"},{"icsId":"1010341","id":"490010341H","lat":51.51166,"lon":-0.38043,"name":"Northcote Avenue","parentId":"490G00010341","stationId":"490G00010341","stopLetter":"H","topMostParentId":"490G00010341","towards":"Ealing Broadway"},{"icsId":"1012242","id":"490012241J","lat":51.51147,"lon":-0.37795,"name":"Southall Broadway / St Georges Avenue","parentId":"490G00012242","stationId":"490G00012242","stopLetter":"J","topMostParentId":"490G00012242","towards":"Ealing"},{"icsId":"1019182","id":"490013594R","lat":51.51094,"lon":-0.37297,"name":"Southall / North Road","parentId":"490G00019182","stationId":"490G00019182","stopLetter":"R","topMostParentId":"490G00019182","towards":"Boston Manor Or Ealing"},{"icsId":"1012244","id":"490012244T","lat":51.51114,"lon":-0.36956,"name":"Southall Park","parentId":"490G00012244","stationId":"490G00012244","stopLetter":"UA","topMostParentId":"490G00012244","towards":"Boston Manor Or Ealing"},{"icsId":"1015281","id":"490015281V","lat":51.51108,"lon":-0.36468,"name":"Dormer's Wells Lane","parentId":"490G00015281","stationId":"490G00015281","stopLetter":"V","topMostParentId":"490G00015281","towards":"Boston Manor Or Ealing"},{"icsId":"1009465","id":"490009465E","lat":51.51049,"lon":-0.36139,"name":"Lyndhurst Avenue","parentId":"490G00009465","stationId":"490G00009465","stopLetter":"UC","topMostParentId":"490G00009465","towards":"Boston Manor Or Ealing"},{"icsId":"1008498","id":"490008498E2","lat":51.50987,"lon":-0.35768,"name":"Iron Bridge","parentId":"490G00008498","stationId":"490G00008498","stopLetter":"UD","topMostParentId":"490G00008498","towards":"Boston Manor Or Ealing"},{"icsId":"1012638","id":"490012638E","lat":51.50911,"lon":-0.34953,"name":"St Bernard's Gatehouse / Windmill Park","parentId":"490G00012638","stationId":"490G00012638","stopLetter":"UH","topMostParentId":"490G00012638","towards":"Boston Manor Or Ealing"},{"icsId":"1006292","id":"490015230P","lat":51.50903,"lon":-0.34743,"name":"Ealing Hospital / Wharncliffe Drive","parentId":"490G00006292","stationId":"490G00006292","stopLetter":"P","topMostParentId":"490G00006292","towards":"Boston Manor Or Ealing Broadway"},{"icsId":"1013580","id":"490013580M","lat":51.50855,"lon":-0.3401,"name":"Half Acre Road","parentId":"490G00013580","stationId":"490G00013580","stopLetter":"M","topMostParentId":"490G00013580","towards":"Boston Manor Or Ealing Broadway"},{"icsId":"1007760","id":"490007760E1","lat":51.50883,"lon":-0.33518,"name":"Hanwell Broadway","parentId":"490G00007760","stationId":"490G00007760","stopLetter":"G","topMostParentId":"490G00007760","towards":"Ealing Broadway"},{"icsId":"1007549","id":"490007549E","lat":51.50963,"lon":-0.32909,"name":"Grosvenor Road","parentId":"490G00007549","stationId":"490G00007549","stopLetter":"->E","topMostParentId":"490G00007549","towards":"Ealing Broadway Or Northfields"},{"icsId":"1014430","id":"490014430U","lat":51.51029,"lon":-0.3238,"name":"West Ealing Broadway","parentId":"490G00014430","stationId":"490G00014430","stopLetter":"U","topMostParentId":"490G00014430","towards":"Hanger Lane Or Acton"},{"icsId":"1010367","id":"490010362R","lat":51.51069,"lon":-0.32139,"name":"Dean Gardens / Bedford Road","parentId":"490G00010367","stationId":"490G00010367","stopLetter":"R","topMostParentId":"490G00010367","towards":"Hanger Lane Or Acton"},{"icsId":"1004500","id":"490004500M","lat":51.51153,"lon":-0.31595,"name":"Broughton Road","parentId":"490G00004500","stationId":"490G00004500","stopLetter":"M","topMostParentId":"490G00004500","towards":"Acton Or Hanger Lane"},{"icsId":"1012763","id":"490012763E1","lat":51.51204,"lon":-0.31274,"name":"St Leonard's Road","parentId":"490G00012763","stationId":"490G00012763","stopLetter":"T","topMostParentId":"490G00012763","towards":"Acton"},{"icsId":"1006304","id":"490006301E","lat":51.51268,"lon":-0.30875,"name":"Longfield Avenue","parentId":"490G00006304","stationId":"490G00006304","stopLetter":"V","topMostParentId":"490G00006304","towards":"Acton Or Hanger Lane"},{"icsId":"1004143","id":"490019653E","lat":51.51301,"lon":-0.30655,"name":"Bond Street","parentId":"490G00004143","stationId":"490G00004143","stopLetter":"W","topMostParentId":"490G00004143","towards":"Acton Or Hanger Lane"},{"icsId":"1000062","id":"490000062H","lat":51.514,"lon":-0.30298,"name":"Ealing Broadway Station","stopLetter":"H","topMostParentId":"490000062H","towards":"Acton Or Hanger Lane","zone":"3"},{"icsId":"1010339","id":"490010339E","lat":51.51316,"lon":-0.29694,"name":"North Common Road","parentId":"490G00010339","stationId":"490G00010339","stopLetter":"EM","topMostParentId":"490G00010339","towards":"Acton Or Hanger Lane"},{"icsId":"1007749","id":"490007749E","lat":51.512,"lon":-0.29354,"name":"Hanger Lane","parentId":"490G00007749","stationId":"490G00007749","stopLetter":"EN","topMostParentId":"490G00007749","towards":"Acton"},{"icsId":"1000063","id":"490000063S","lat":51.5107,"lon":-0.28837,"name":"Ealing Common Station","stopLetter":"ET","topMostParentId":"490000063S","towards":"Shepherds Bush","zone":"3"},{"icsId":"1004009","id":"490004009E","lat":51.50929,"lon":-0.28406,"name":"Birch Grove","parentId":"490G00004009","stationId":"490G00004009","stopLetter":"EU","topMostParentId":"490G00004009","towards":"Shepherd's Bush"},{"icsId":"1013879","id":"490013879R","lat":51.50865,"lon":-0.2815,"name":"Twyford Avenue","parentId":"490G00013879","stationId":"490G00013879","stopLetter":"EV","topMostParentId":"490G00013879","towards":"Shepherd's Bush"},{"icsId":"1003089","id":"490003089B","lat":51.50843,"lon":-0.27735,"name":"Denehurst Gardens","parentId":"490G00003089","stationId":"490G00003089","stopLetter":"B","topMostParentId":"490G00003089","towards":"Hammersmith Or Shepherd's Bush"},{"icsId":"1008835","id":"490008835D","lat":51.50789,"lon":-0.2731,"name":"King Street","parentId":"490G00008835","stationId":"490G00008835","stopLetter":"D","topMostParentId":"490G00008835","towards":"Shepherd's Bush, Hammersmith, Chiswick Or E Acton"},{"icsId":"1003083","id":"490003083F","lat":51.50675,"lon":-0.26725,"name":"Acton Old Town Hall","parentId":"490G00003083","stationId":"490G00003083","stopLetter":"F","topMostParentId":"490G00003083","towards":"Shepherd's Bush, Hammersmith, Chiswick Or E Acton"},{"icsId":"1001002","id":"490001002H","lat":51.50655,"lon":-0.26287,"name":"Acton Central Station","stopLetter":"H","topMostParentId":"490001002H","towards":"East Acton, Hammersmith Or Shepherd's Bush"},{"icsId":"1003084","id":"490003084E","lat":51.5066,"lon":-0.2603,"name":"Acton Park","parentId":"490G00003084","stationId":"490G00003084","stopLetter":"VP","topMostParentId":"490G00003084","towards":"East Acton, Hammersmith Or Shepherd's Bush"},{"icsId":"1006312","id":"490006312E","lat":51.50666,"lon":-0.25782,"name":"East Acton Lane","parentId":"490G00006312","stationId":"490G00006312","stopLetter":"VR","topMostParentId":"490G00006312","towards":"Hammersmith Or Shepherd's Bush"},{"icsId":"1008976","id":"490008976E","lat":51.50669,"lon":-0.25442,"name":"Larden Road","parentId":"490G00008976","stationId":"490G00008976","stopLetter":"VS","topMostParentId":"490G00008976","towards":"Hammersmith Or Shepherd's Bush"},{"icsId":"1004438","id":"490004438E","lat":51.50679,"lon":-0.25241,"name":"Acton Vale / Bromyard Avenue","parentId":"490G00004438","stationId":"490G00004438","stopLetter":"VT","topMostParentId":"490G00004438","towards":"East Acton, Hammersmith Or Shepherd's Bush"},{"icsId":"1011970","id":"490011970E","lat":51.50685,"lon":-0.24856,"name":"Second Avenue","parentId":"490G00011970","stationId":"490G00011970","stopLetter":"VU","topMostParentId":"490G00011970","towards":"East Acton, Hammersmith Or Shepherd's Bush"},{"icsId":"1018990","id":"490003456E","lat":51.50684,"lon":-0.24634,"name":"First Avenue","parentId":"490G00018990","stationId":"490G00018990","stopLetter":"VV","topMostParentId":"490G00018990","towards":"Shepherd's Bush, Hammersmith Or East Acton"},{"icsId":"1003746","id":"490003746E","lat":51.50674,"lon":-0.24153,"name":"Wormholt Road","parentId":"490G00003746","stationId":"490G00003746","stopLetter":"LA","topMostParentId":"490G00003746","towards":"Shepherd's Bush Or White City"},{"icsId":"1003110","id":"490003110E","lat":51.50652,"lon":-0.23751,"name":"Adelaide Grove","parentId":"490G00003110","stationId":"490G00003110","stopLetter":"LB","topMostParentId":"490G00003110","towards":"White City"},{"icsId":"1004111","id":"490004111E2","lat":51.50654,"lon":-0.23367,"name":"Bloemfontein Road","parentId":"490G00004111","stationId":"490G00004111","stopLetter":"LC","topMostParentId":"490G00004111","towards":"Shepherd's Bush"},{"icsId":"1006065","id":"490009257E","lat":51.50633,"lon":-0.2311,"name":"Loftus Road","parentId":"490G00006065","stationId":"490G00006065","stopLetter":"LD","topMostParentId":"490G00006065","towards":"Hammersmith Or Shepherd's Bush"},{"icsId":"1012066","id":"490012066B","lat":51.50575,"lon":-0.22741,"name":"Shepherds Bush Market Station","parentId":"490G000741","stationId":"490G000741","stopLetter":"R","topMostParentId":"490G000741","towards":"Hammersmith Or White City Bus Station"},{"icsId":"1000203","id":"490000203B","lat":51.50541,"lon":-0.21815,"name":"Shepherd's Bush Station","stopLetter":"B","topMostParentId":"490000203B","towards":"White City Bus Station","zone":"2"},{"icsId":"1003375","id":"490003375AP","lat":51.50904,"lon":-0.22402,"name":"White City Bus Station","parentId":"490G00003375","stationId":"490G00003375","stopLetter":"WG","topMostParentId":"490G00003375"}]}]}