{"direction":"outbound","lineId":"208","lineName":"208","mode":"bus","stopPointSequences":[{"stopPoint":[{"icsId":"1001177","id":"490001177Z","lat":51.46424,"lon":-0.01255,"name":"Lewisham Station","stopLetter":"B","topMostParentId":"490001177Z","towards":"Catford","zone":"2+3"},{"icsId":"1009105","id":"490009110W","lat":51.46088,"lon":-0.01058,"name":"Lewisham Centre","parentId":"490G00009105","stationId":"490G00009105","stopLetter":"W","topMostParentId":"490G00009105","towards":"Catford"},{"icsId":"1010038","id":"490010038Z","lat":51.4587,"lon":-0.01246,"name":"Morley Road","parentId":"490G00010038","stationId":"490G00010038","stopLetter":"Z","topMostParentId":"490G00010038","towards":"Catford"},{"icsId":"1009111","id":"490009111HN","lat":51.4567,"lon":-0.0139,"name":"Lewisham Fire Station","parentId":"490G00009111","stationId":"490G00009111","stopLetter":"HN","topMostParentId":"490G00009111","towards":"Catford"},{"icsId":"1009113","id":"490009113S","lat":51.45427,"lon":-0.01597,"name":"Lewisham Park","parentId":"490G00009113","stationId":"490G00009113","stopLetter":"HP","topMostParentId":"490G00009113","towards":"Catford"},{"icsId":"1009109","id":"490009109S","lat":51.45289,"lon":-0.01628,"name":"Lewisham Hospital","parentId":"490G00009109","stationId":"490G00009109","stopLetter":"HR","topMostParentId":"490G00009109","towards":"Bellingham, Forest Hill Or Sydenham"},{"icsId":"1000914","id":"490007163HS","lat":51.4512,"lon":-0.01678,"name":"Mount Pleasant Road","parentId":"490G000231","stationId":"490G000231","stopLetter":"HS","topMostParentId":"490G000231","towards":"Bellingham, Forest Hill Or Sydenham"},{"icsId":"1011703","id":"490011703O","lat":51.44813,"lon":-0.01762,"name":"Rosenthal Road","parentId":"490G00011703","stationId":"490G00011703","stopLetter":"G","topMostParentId":"490G00011703","towards":"Bellingham, Forest Hill Or Sydenham"},{"icsId":"1013282","id":"490013282D","lat":51.44476,"lon":-0.01987,"name":"The Catford Centre","parentId":"490G00013282","stationId":"490G00013282","stopLetter":"D","topMostParentId":"490G00013282","towards":"Bellingham"},{"icsId":"1015150","id":"490015150Y","lat":51.44371,"lon":-0.02023,"name":"Bromley Road / Lewisham Town Hall","parentId":"490G00015150","stationId":"490G00015150","stopLetter":"Y","topMostParentId":"490G00015150","towards":"Beckenham Or Downham"},{"icsId":"1005020","id":"490003596S","lat":51.43927,"lon":-0.01969,"name":"Inchmery Road","parentId":"490G00005020","stationId":"490G00005020","stopLetter":"->S","topMostParentId":"490G00005020","towards":"Beckenham Or Downham"},{"icsId":"1010248","id":"490010248S","lat":51.43709,"lon":-0.01855,"name":"Newquay Road","parentId":"490G00010248","stationId":"490G00010248","stopLetter":"BM","topMostParentId":"490G00010248","towards":"Beckenham Or Downham"},{"icsId":"1004867","id":"490004865S","lat":51.43467,"lon":-0.01779,"name":"Catford Bus Garage","parentId":"490G00004867","stationId":"490G00004867","stopLetter":"BN","topMostParentId":"490G00004867","towards":"Beckenham Or Downham"},{"icsId":"1003852","id":"490003852B","lat":51.43393,"lon":-0.01763,"name":"Bellingham Road","parentId":"490G000410","stationId":"490G000410","stopLetter":"BQ","topMostParentId":"490G000410","towards":"Beckenham Or Downham"},{"icsId":"1004866","id":"490004866S","lat":51.43124,"lon":-0.01568,"name":"Catford Police Station","parentId":"490G00004866","stationId":"490G00004866","stopLetter":"BS","topMostParentId":"490G00004866","towards":"Beckenham Or Downham"},{"icsId":"1002403","id":"490013572S","lat":51.42949,"lon":-0.01436,"name":"Southend Lane","parentId":"490G00002403","stationId":"490G00002403","stopLetter":"ST","topMostParentId":"490G00002403","towards":"Beckenham Or Downham"},{"icsId":"1012286","id":"490012286S","lat":51.42778,"lon":-0.01154,"name":"Green Man Community Hub","parentId":"490G00012286","stationId":"490G00012286","stopLetter":"SX","topMostParentId":"490G00012286","towards":"Beckenham, Bromley Or Grove Park"},{"icsId":"1010528","id":"490010528S","lat":51.4258,"lon":-0.00554,"name":"Old Bromley Road","parentId":"490G00010528","stationId":"490G00010528","stopLetter":"DL","topMostParentId":"490G00010528","towards":"Bromley Or Grove Park"},{"icsId":"1004430","id":"490004430DA","lat":51.42384,"lon":-0.00348,"name":"Bromley Road / Downham Way","parentId":"490G00004430","stationId":"490G00004430","stopLetter":"DA","topMostParentId":"490G00004430","towards":"Bromley"},{"icsId":"1003438","id":"490003438S2","lat":51.4222,"lon":-0.0023,"name":"Ashgrove Road","parentId":"490G00003438","stationId":"490G00003438","stopLetter":"DB","topMostParentId":"490G00003438","towards":"Bromley"},{"icsId":"1004422","id":"490004422S","lat":51.41917,"lon":0.00097,"name":"Bromley Hill Cemetery","parentId":"490G00004422","stationId":"490G00004422","stopLetter":"DC","topMostParentId":"490G00004422","towards":"Bromley"},{"icsId":"1004418","id":"490004418S1","lat":51.41717,"lon":0.00402,"name":"Bromley Court Hotel","parentId":"490G00004418","stationId":"490G00004418","stopLetter":"DG","topMostParentId":"490G00004418","towards":"Bromley Common"},{"icsId":"1010748","id":"490010748S","lat":51.41503,"lon":0.00669,"name":"Park Avenue","parentId":"490G00010748","stationId":"490G00010748","stopLetter":"->S","topMostParentId":"490G00010748","towards":"Bromley Common"},{"icsId":"1014230","id":"490007999S","lat":51.41286,"lon":0.00832,"name":"Warner Road","parentId":"490G00014230","stationId":"490G00014230","stopLetter":"->S","topMostParentId":"490G00014230","towards":"Bromley Common"},{"icsId":"1006765","id":"490006765S2","lat":51.41039,"lon":0.0102,"name":"Farwig Lane","parentId":"490G00006765","stationId":"490G00006765","stopLetter":"->S","topMostParentId":"490G00006765","towards":"Bromley Common"},{"icsId":"1004419","id":"490004419C","lat":51.40796,"lon":0.0114,"name":"Bromley Magistrates Court","parentId":"490G00004419","stationId":"490G00004419","stopLetter":"A","topMostParentId":"490G00004419","towards":"Bromley Common"},{"icsId":"1004409","id":"4900004411SE","lat":51.40624,"lon":0.01341,"name":"High Street / Market Square","parentId":"490G00004409","stationId":"490G00004409","stopLetter":"I","topMostParentId":"490G00004409","towards":"Bromley Common"},{"icsId":"1004435","id":"490004435K","lat":51.40624,"lon":0.01781,"name":"Bromley Town Hall","parentId":"490G00004435","stationId":"490G00004435","stopLetter":"K","topMostParentId":"490G00004435","towards":"Bromley Common"},{"icsId":"1008665","id":"490008665T","lat":51.40531,"lon":0.0188,"name":"Bromley Civic Centre","parentId":"490G00008665","stationId":"490G00008665","stopLetter":"T","topMostParentId":"490G00008665","towards":"Beckenham, Bromley Common Or Hayes"},{"icsId":"1006507","id":"490006507Y","lat":51.40184,"lon":0.01625,"name":"Bromley High Street / the Mall","parentId":"490G00006507","stationId":"490G00006507","stopLetter":"X","topMostParentId":"490G00006507","towards":"Bickley Or Bromley Common"},{"icsId":"1001037","id":"490001037Z","lat":51.40049,"lon":0.01712,"name":"Bromley South Station","stopLetter":"Z","topMostParentId":"490001037Z","towards":"Bickley Or Bromley Common"},{"icsId":"1004423","id":"490004423G","lat":51.39892,"lon":0.01891,"name":"Cromwell Avenue","parentId":"490G00004423","stationId":"490G00004423","stopLetter":"G","topMostParentId":"490G00004423","towards":"Bickley Or Bromley Common"},{"icsId":"1003934","id":"490003934S","lat":51.3968,"lon":0.02353,"name":"Bertha James Day Centre","parentId":"490G00003934","stationId":"490G00003934","stopLetter":"BA","topMostParentId":"490G00003934","towards":"Biggin Hill, Locksbottom Or Petts Wood"},{"icsId":"1008330","id":"490008330S","lat":51.39604,"lon":0.02493,"name":"Homesdale Road","parentId":"490G00008330","stationId":"490G00008330","stopLetter":"BB","topMostParentId":"490G00008330","towards":"Biggin Hill, Locksbottom Or Petts Wood"},{"icsId":"1012309","id":"490012309S","lat":51.39269,"lon":0.0311,"name":"Southlands Road","parentId":"490G00012309","stationId":"490G00012309","stopLetter":"BA","topMostParentId":"490G00012309","towards":"Biggin Hill, Locksbottom Or Petts Wood"},{"icsId":"1008573","id":"490008573S","lat":51.39021,"lon":0.03455,"name":"Bromley Common / the Crown","parentId":"490G00008573","stationId":"490G00008573","stopLetter":"BB","topMostParentId":"490G00008573","towards":"Biggin Hill, Locksbottom Or Petts Wood"},{"icsId":"1015277","id":"490015277E","lat":51.38881,"lon":0.03672,"name":"Crown Lane Spur","parentId":"490G00015277","stationId":"490G00015277","stopLetter":"BC","topMostParentId":"490G00015277","towards":"Petts Wood"},{"icsId":"1012253","id":"490012253E","lat":51.38972,"lon":0.0434,"name":"Southborough Library","parentId":"490G00012253","stationId":"490G00012253","stopLetter":"M","topMostParentId":"490G00012253","towards":"Bickley Or Petts Wood"},{"icsId":"1013351","id":"490013351E","lat":51.38978,"lon":0.0502,"name":"The Fairway","parentId":"490G00013351","stationId":"490G00013351","stopLetter":"E","topMostParentId":"490G00013351","towards":"Orpington"},{"icsId":"1004055","id":"490004055E","lat":51.39074,"lon":0.0543,"name":"Southborough Lane / Blackbrook Lane","parentId":"490G00004055","stationId":"490G00004055","stopLetter":"P","topMostParentId":"490G00004055","towards":"Orpington"},{"icsId":"1010694","id":"490010694E","lat":51.38937,"lon":0.0601,"name":"Oxhawth Crescent / West Arm","parentId":"490G00010694","stationId":"490G00010694","stopLetter":"Q","topMostParentId":"490G00010694","towards":"Orpington"},{"icsId":"1010698","id":"490010693E","lat":51.38863,"lon":0.06492,"name":"Southborough Lane / Baptist Church","parentId":"490G00010698","stationId":"490G00010698","stopLetter":"R","topMostParentId":"490G00010698","towards":"Orpington"},{"icsId":"1005738","id":"490005738E","lat":51.38895,"lon":0.06803,"name":"Crescent Drive","parentId":"490G00005738","stationId":"490G00005738","stopLetter":"S","topMostParentId":"490G00005738","towards":"Orpington"},{"icsId":"1010976","id":"490010976B","lat":51.38892,"lon":0.07288,"name":"Queensway / Petts Wood Station","parentId":"490G000703","stationId":"490G000703","stopLetter":"B","topMostParentId":"490G000703","towards":"Orpington"},{"icsId":"1008551","id":"490008551N1","lat":51.38526,"lon":0.07687,"name":"Jersey Drive","parentId":"490G00008551","stationId":"490G00008551","stopLetter":"->S","topMostParentId":"490G00008551","towards":"Orpington"},{"icsId":"1005792","id":"490005792S","lat":51.38196,"lon":0.07981,"name":"Crofton School","parentId":"490G00005792","stationId":"490G00005792","stopLetter":"->S","topMostParentId":"490G00005792","towards":"Orpington"},{"icsId":"1011033","id":"490011033S","lat":51.37932,"lon":0.0791,"name":"Place Farm Avenue","parentId":"490G00011033","stationId":"490G00011033","stopLetter":"CJ","topMostParentId":"490G00011033","towards":"Orpington"},{"icsId":"1012952","id":"490012952S","lat":51.37494,"lon":0.07623,"name":"St Thomas Drive","parentId":"490G00012952","stationId":"490G00012952","stopLetter":"CK","topMostParentId":"490G00012952","towards":"Orpington"},{"icsId":"1005790","id":"490005788E","lat":51.37335,"lon":0.07671,"name":"Crofton Road / Crofton Lane","parentId":"490G00005790","stationId":"490G00005790","stopLetter":"CP","topMostParentId":"490G00005790","towards":"Chislehurst Or Ramsden Estate"},{"icsId":"1011150","id":"490011150E","lat":51.373,"lon":0.08054,"name":"Pound Court Drive","parentId":"490G00011150","stationId":"490G00011150","stopLetter":"CR","topMostParentId":"490G00011150","towards":"Chislehurst Or Ramsden Estate"},{"icsId":"1001220","id":"490001220B","lat":51.37281,"lon":0.08865,"name":"Orpington Station","stopLetter":"B","topMostParentId":"490001220B","towards":"Chislehurst Or Ramsden Estate"},{"icsId":"1013818","id":"490013818H","lat":51.37185,"lon":0.09134,"name":"Tubbenden Lane","parentId":"490G00013818","stationId":"490G00013818","stopLetter":"H","topMostParentId":"490G00013818","towards":"St Mary Cray, Chelsfield Or Chislehurst"},{"icsId":"1019892","id":"490015411R","lat":51.37396,"lon":0.09783,"name":"High Street / Orpington War Memorial","parentId":"490G00019892","stationId":"490G00019892","stopLetter":"R","topMostParentId":"490G00019892","towards":"Chislehurst or St Mary Cray"},{"icsId":"1014142","id":"490014142T","lat":51.37642,"lon":0.09956,"name":"Walnuts Centre","parentId":"490G00014142","stationId":"490G00014142","stopLetter":"T","topMostParentId":"490G00014142","towards":"Chislehurst Or St Mary Cray"},{"icsId":"1010636","id":"490010636V","lat":51.37827,"lon":0.10124,"name":"High Street / Broomhill Road","parentId":"490G00010636","stationId":"490G00010636","stopLetter":"V","topMostParentId":"490G00010636","towards":"Chislehurst Or St Mary Cray"},{"icsId":"1007292","id":"490007292N","lat":51.38165,"lon":0.10245,"name":"Goodmead Road","parentId":"490G00007292","stationId":"490G00007292","stopLetter":"D","topMostParentId":"490G00007292","towards":"Chislehurst Or St Mary Cray"},{"icsId":"1010634","id":"490010634E","lat":51.38207,"lon":0.10595,"name":"Orpington / Perry Hall Road","parentId":"490G00010634","stationId":"490G00010634","stopLetter":"K","topMostParentId":"490G00010634","towards":"Petts Wood"}]}]}