{"direction":"outbound","lineId":"213","lineName":"213","mode":"bus","stopPointSequences":[{"stopPoint":[{"icsId":"1006705","id":"490006705B2","lat":51.41044,"lon":-0.29974,"name":"Fairfield Bus Station","parentId":"490G00006705","stationId":"490G00006705","stopLetter":"D","topMostParentId":"490G00006705","towards":"Ham Or Norbiton"},{"icsId":"1006412","id":"490006412E2","lat":51.41015,"lon":-0.30251,"name":"Eden Street","parentId":"490G00006412","stationId":"490G00006412","stopLetter":"E2","topMostParentId":"490G00006412","towards":"Kingston Hospital Or New Malden"},{"icsId":"1005800","id":"490005800A1","lat":51.41235,"lon":-0.29938,"name":"Cromwell Road Bus Station","parentId":"490G000476","stationId":"490G000476","stopLetter":"A1","topMostParentId":"490G000476","towards":"Kingston Hospital, New Malden Or Ham"},{"icsId":"1013664","id":"490013664C1","lat":51.41075,"lon":-0.29599,"name":"Tiffin School / London Road","parentId":"490G00013664","stationId":"490G00013664","stopLetter":"B","topMostParentId":"490G00013664","towards":"Kingston Vale, New Malden Or Raynes Park"},{"icsId":"1010295","id":"490010295E","lat":51.41097,"lon":-0.29312,"name":"Norbiton Church","parentId":"490G00010295","stationId":"490G00010295","stopLetter":"->E","topMostParentId":"490G00010295","towards":"Ham, Kingston Vale Or New Malden"},{"icsId":"1018701","id":"4900018701N","lat":51.41259,"lon":-0.28935,"name":"Gordon Road","parentId":"490G00018701","stationId":"490G00018701","stopLetter":"NZ","topMostParentId":"490G00018701","towards":"Kingston Vale, New Malden Or Raynes Park"},{"icsId":"1010799","id":"490010799NP","lat":51.41462,"lon":-0.28693,"name":"Park Road","parentId":"490G00010799","stationId":"490G00010799","stopLetter":"NP","topMostParentId":"490G00010799","towards":"Kingston Vale, New Malden Or Raynes Park"},{"icsId":"1011351","id":"490011351NM","lat":51.41642,"lon":-0.28353,"name":"Queens Road / Kingston Hospital","parentId":"490G00011351","stationId":"490G00011351","stopLetter":"NM","topMostParentId":"490G00011351","towards":"Kingston Vale, New Malden Or Raynes Park"},{"icsId":"1015315","id":"490015315NK","lat":51.41538,"lon":-0.28065,"name":"Kingston Hospital","parentId":"490G00015315","stationId":"490G00015315","stopLetter":"NK","topMostParentId":"490G00015315","towards":"New Malden, Raynes Park Or Kingston"},{"icsId":"1007247","id":"490007247S","lat":51.41188,"lon":-0.28045,"name":"Gloucester Road","parentId":"490G00007247","stationId":"490G00007247","stopLetter":"NC","topMostParentId":"490G00007247","towards":"New Malden"},{"icsId":"1008632","id":"490008632W","lat":51.41074,"lon":-0.27858,"name":"Kenley Road","parentId":"490G00008632","stationId":"490G00008632","stopLetter":"Q","topMostParentId":"490G00008632","towards":"New Malden"},{"icsId":"1017195","id":"490013574E","lat":51.40881,"lon":-0.2731,"name":"The Triangle","parentId":"490G00017195","stationId":"490G00017195","stopLetter":"R","topMostParentId":"490G00017195","towards":"Worcester Park"},{"icsId":"1010500","id":"490010500E","lat":51.40946,"lon":-0.26758,"name":"Oak Road","parentId":"490G00010500","stationId":"490G00010500","stopLetter":"S","topMostParentId":"490G00010500","towards":"Worcester Park"},{"icsId":"1005569","id":"490005569E","lat":51.40987,"lon":-0.2619,"name":"Coombe Girls School","parentId":"490G00005569","stationId":"490G00005569","stopLetter":"->E","topMostParentId":"490G00005569","towards":"Worcester Park"},{"icsId":"1008953","id":"490008953S","lat":51.40954,"lon":-0.25866,"name":"Langley Grove","parentId":"490G00008953","stationId":"490G00008953","stopLetter":"->S","topMostParentId":"490G00008953","towards":"Worcester Park"},{"icsId":"1004693","id":"490004693S","lat":51.40617,"lon":-0.25756,"name":"Cambridge Avenue","parentId":"490G00004693","stationId":"490G00004693","stopLetter":"->S","topMostParentId":"490G00004693","towards":"Worcester Park"},{"icsId":"1001206","id":"490001206B","lat":51.40325,"lon":-0.25669,"name":"New Malden Station","stopLetter":"B","topMostParentId":"490001206B","towards":"Worcester Park"},{"icsId":"1010234","id":"490010234D","lat":51.40063,"lon":-0.25573,"name":"New Malden High Street","parentId":"490G00010234","stationId":"490G00010234","stopLetter":"D","topMostParentId":"490G00010234","towards":"Malden Manor Or Worcester Park"},{"icsId":"1015206","id":"490015206J","lat":51.39817,"lon":-0.25537,"name":"New Malden / the Fountain","parentId":"490G000880","stationId":"490G000880","stopLetter":"J","topMostParentId":"490G000880","towards":"Worcester Park, Raynes Park Or Tolworth"},{"icsId":"1012723","id":"490012723S","lat":51.39544,"lon":-0.25417,"name":"St James Church / Kingston By-Pass","parentId":"490G00012723","stationId":"490G00012723","stopLetter":"MA","topMostParentId":"490G00012723","towards":"Worcester Park, Raynes Park Or Tolworth"},{"icsId":"1004091","id":"490004091S","lat":51.39351,"lon":-0.25291,"name":"Blakes Lane","parentId":"490G00004091","stationId":"490G00004091","stopLetter":"MB","topMostParentId":"490G00004091","towards":"Raynes Park, Tolworth Or Worcester Park"},{"icsId":"1010058","id":"490010058S","lat":51.38986,"lon":-0.25303,"name":"Motspur Park","parentId":"490G00010058","stationId":"490G00010058","stopLetter":"MC","topMostParentId":"490G00010058","towards":"North Cheam"},{"icsId":"1009467","id":"490009467S","lat":51.38799,"lon":-0.25302,"name":"Lyndhurst Drive","parentId":"490G00009467","stationId":"490G00009467","stopLetter":"MD","topMostParentId":"490G00009467","towards":"North Cheam"},{"icsId":"1013501","id":"490013501S","lat":51.38532,"lon":-0.25215,"name":"Plough Green","parentId":"490G00013501","stationId":"490G00013501","stopLetter":"ME","topMostParentId":"490G00013501","towards":"North Cheam"},{"icsId":"1009521","id":"490009521E","lat":51.38329,"lon":-0.24954,"name":"Malden Green Avenue","parentId":"490G00009521","stationId":"490G00009521","stopLetter":"MF","topMostParentId":"490G00009521","towards":"North Cheam"},{"icsId":"1001346","id":"490001346B","lat":51.38144,"lon":-0.24628,"name":"Worcester Park Station","stopLetter":"B","topMostParentId":"490001346B","towards":"North Cheam"},{"icsId":"1009304","id":"490014261E","lat":51.37885,"lon":-0.24204,"name":"Longfellow Road","parentId":"490G00009304","stationId":"490G00009304","stopLetter":"E","topMostParentId":"490G00009304","towards":"Cheam Or Stoneleigh"},{"icsId":"1009181","id":"490009181S","lat":51.37674,"lon":-0.23732,"name":"Lindsay Road","parentId":"490G00009181","stationId":"490G00009181","stopLetter":"->E","topMostParentId":"490G00009181","towards":"Cheam Or Stoneleigh"},{"icsId":"1014815","id":"490014815S","lat":51.37333,"lon":-0.2324,"name":"Woodbine Lane","parentId":"490G00014815","stationId":"490G00014815","stopLetter":"->S","topMostParentId":"490G00014815","towards":"Cheam"},{"icsId":"1010323","id":"490009283B","lat":51.37152,"lon":-0.2287,"name":"North Cheam / London Road","parentId":"490G00010323","stationId":"490G00010323","stopLetter":"B","topMostParentId":"490G00010323","towards":"Sutton"},{"icsId":"1010335","id":"490010323J","lat":51.36989,"lon":-0.22672,"name":"Church Hill Road","parentId":"490G00010335","stationId":"490G00010335","stopLetter":"J","topMostParentId":"490G00010335","towards":"Sutton"},{"icsId":"1005059","id":"490005059S","lat":51.36803,"lon":-0.22517,"name":"Cheam Leisure Centre","parentId":"490G00005059","stationId":"490G00005059","stopLetter":"T","topMostParentId":"490G00005059","towards":"Sutton"},{"icsId":"1009524","id":"490009524R","lat":51.36568,"lon":-0.22307,"name":"Malden Road / Priory Road","parentId":"490G00009524","stationId":"490G00009524","stopLetter":"R","topMostParentId":"490G00009524","towards":"Sutton"},{"icsId":"1013668","id":"490013668S","lat":51.36355,"lon":-0.22023,"name":"Tilehurst Road","parentId":"490G00013668","stationId":"490G00013668","stopLetter":"->S","topMostParentId":"490G00013668","towards":"Sutton"},{"icsId":"1009451","id":"490009451P","lat":51.36163,"lon":-0.21863,"name":"Lumley Road","parentId":"490G00009451","stationId":"490G00009451","stopLetter":"P","topMostParentId":"490G00009451","towards":"Sutton"},{"icsId":"1005056","id":"490005056C","lat":51.3585,"lon":-0.21651,"name":"Cheam Broadway","parentId":"490G00005056","stationId":"490G00005056","stopLetter":"C","topMostParentId":"490G00005056","towards":"Sutton"},{"icsId":"1012437","id":"490012437H","lat":51.3591,"lon":-0.21167,"name":"St Dunstan's Hill","parentId":"490G00012437","stationId":"490G00012437","stopLetter":"H","topMostParentId":"490G00012437","towards":"Sutton"},{"icsId":"1007103","id":"490007103E","lat":51.3599,"lon":-0.2065,"name":"Cheam Road / Gander Green Lane","parentId":"490G00007103","stationId":"490G00007103","stopLetter":"C","topMostParentId":"490G00007103","towards":"Rosehill"},{"icsId":"1014453","id":"490014453E","lat":51.36055,"lon":-0.20267,"name":"Western Road","parentId":"490G00014453","stationId":"490G00014453","stopLetter":"D","topMostParentId":"490G00014453","towards":"Rosehill"},{"icsId":"1011969","id":"490011969U","lat":51.36127,"lon":-0.19739,"name":"Secombe Centre","parentId":"490G00011969","stationId":"490G00011969","stopLetter":"U","topMostParentId":"490G00011969","towards":"Rosehill"},{"icsId":"1013064","id":"490013064V","lat":51.36191,"lon":-0.1945,"name":"Sutton Civic Centre","parentId":"490G00013064","stationId":"490G00013064","stopLetter":"V","topMostParentId":"490G00013064","towards":"Rosehill Or Sutton Common"},{"icsId":"1011856","id":"490011856W","lat":51.36548,"lon":-0.19541,"name":"St Nicholas Centre","parentId":"490G00011856","stationId":"490G00011856","stopLetter":"W","topMostParentId":"490G00011856","towards":"Rosehill Or Sutton Common"},{"icsId":"1005844","id":"490005844X","lat":51.36739,"lon":-0.19786,"name":"Crown Road","parentId":"490G00005844","stationId":"490G00005844","stopLetter":"X","topMostParentId":"490G00005844","towards":"Sutton Bus Garage"},{"icsId":"1013063","id":"490013063NE","lat":51.36893,"lon":-0.19948,"name":"Sutton Bus Garage","parentId":"490G00013063","stationId":"490G00013063","topMostParentId":"490G00013063"}]}]}