{"direction":"outbound","lineId":"215","lineName":"215","mode":"bus","stopPointSequences":[{"stopPoint":[{"icsId":"1009071","id":"1500617","lat":51.655087,"lon":-0.006276,"name":"Lee Valley Campsite","topMostParentId":"1500617","towards":"Chingford Mount"},{"icsId":"1014988","id":"490014988S","lat":51.64636,"lon":-0.01027,"name":"Yardley Lane Estate","parentId":"490G00014988","stationId":"490G00014988","stopLetter":"->S","topMostParentId":"490G00014988","towards":"Chingford Mount Or Chingford Station #"},{"icsId":"1012008","id":"490012008S","lat":51.64294,"lon":-0.01135,"name":"Sewardstone Gardens","parentId":"490G00012008","stationId":"490G00012008","stopLetter":"->S","topMostParentId":"490G00012008","towards":"Chingford Mount Or Chingford Station"},{"icsId":"1007926","id":"490007926S","lat":51.641,"lon":-0.0113,"name":"Hawkwood Crescent","parentId":"490G00007926","stationId":"490G00007926","stopLetter":"->S","topMostParentId":"490G00007926","towards":"Chingford Mount Or Chingford Station"},{"icsId":"1003299","id":"490003299S","lat":51.63745,"lon":-0.01227,"name":"Amesbury Drive","parentId":"490G00003299","stationId":"490G00003299","stopLetter":"G","topMostParentId":"490G00003299","towards":"Chingford Mount Or Chingford Station"},{"icsId":"1009050","id":"490009050S","lat":51.63515,"lon":-0.01302,"name":"Lea Valley Road","parentId":"490G00009050","stationId":"490G00009050","stopLetter":"H","topMostParentId":"490G00009050","towards":"Chingford Mount"},{"icsId":"1014175","id":"490005489S","lat":51.63324,"lon":-0.01343,"name":"Maida Avenue","parentId":"490G00014175","stationId":"490G00014175","stopLetter":"J","topMostParentId":"490G00014175","towards":"Chingford Mount"},{"icsId":"1010077","id":"490010077S","lat":51.63219,"lon":-0.01348,"name":"Mount Echo Drive","parentId":"490G00010077","stationId":"490G00010077","stopLetter":"K","topMostParentId":"490G00010077","towards":"Chingford Mount"},{"icsId":"1009612","id":"490009612S","lat":51.62754,"lon":-0.01193,"name":"Mansfield Park","parentId":"490G00009612","stationId":"490G00009612","stopLetter":"L","topMostParentId":"490G00009612","towards":"Chingford Mount"},{"icsId":"1005169","id":"490005169S","lat":51.62555,"lon":-0.01472,"name":"Ridgeway Park","parentId":"490G00005169","stationId":"490G00005169","stopLetter":"Q","topMostParentId":"490G00005169","towards":"Walthamstow"},{"icsId":"1005181","id":"490005181S","lat":51.62364,"lon":-0.01655,"name":"Chingford Old Church","parentId":"490G00005181","stationId":"490G00005181","stopLetter":"Z","topMostParentId":"490G00005181","towards":"Walthamstow"},{"icsId":"1003270","id":"490003270B","lat":51.62024,"lon":-0.01701,"name":"Alpha Road","parentId":"490G00003270","stationId":"490G00003270","stopLetter":"B","topMostParentId":"490G00003270","towards":"Walthamstow"},{"icsId":"1007676","id":"490007676J","lat":51.61663,"lon":-0.01735,"name":"Hall Lane","parentId":"490G000561","stationId":"490G000561","stopLetter":"J","topMostParentId":"490G000561","towards":"Blackhorse Road Or Walthamstow"},{"icsId":"1008981","id":"490008981S","lat":51.61354,"lon":-0.01741,"name":"Larkswood Road","parentId":"490G00008981","stationId":"490G00008981","stopLetter":"U","topMostParentId":"490G00008981","towards":"Blackhorse Road Or Walthamstow"},{"icsId":"1003124","id":"490003124S","lat":51.61219,"lon":-0.01785,"name":"Ainslie Wood Road","parentId":"490G00003124","stationId":"490G00003124","stopLetter":"V","topMostParentId":"490G00003124","towards":"Blackhorse Road Or Walthamstow"},{"icsId":"1009091","id":"490009091S","lat":51.60961,"lon":-0.01747,"name":"Leonard Road","parentId":"490G00009091","stationId":"490G00009091","stopLetter":"->S","topMostParentId":"490G00009091","towards":"Blackhorse Road Or Walthamstow"},{"icsId":"1008132","id":"490008132S","lat":51.60738,"lon":-0.01669,"name":"Higham Station Avenue","parentId":"490G00008132","stationId":"490G00008132","stopLetter":"->S","topMostParentId":"490G00008132","towards":"Blackhorse Road Or Walthamstow"},{"icsId":"1011741","id":"490011741S","lat":51.6052,"lon":-0.01635,"name":"Rowden Park Gardens","parentId":"490G00011741","stationId":"490G00011741","stopLetter":"CC","topMostParentId":"490G00011741","towards":"Blackhorse Road Or Walthamstow"},{"icsId":"1014170","id":"490014170S","lat":51.60366,"lon":-0.01634,"name":"Walthamstow Stadium","parentId":"490G00014170","stationId":"490G00014170","stopLetter":"CD","topMostParentId":"490G00014170","towards":"Blackhorse Road Or Walthamstow"},{"icsId":"1005781","id":"490005781S","lat":51.5996,"lon":-0.01591,"name":"Walthamstow / Crooked Billet Roundabout","parentId":"490G00005781","stationId":"490G00005781","stopLetter":"CE","topMostParentId":"490G00005781","towards":"Walthamstow Central"},{"icsId":"1004303","id":"490004303S","lat":51.5977,"lon":-0.01506,"name":"Brettenham Road","parentId":"490G00004303","stationId":"490G00004303","stopLetter":"CF","topMostParentId":"490G00004303","towards":"Walthamstow Central"},{"icsId":"1012179","id":"490012179S","lat":51.59504,"lon":-0.01575,"name":"Sir George Monoux College","parentId":"490G00012179","stationId":"490G00012179","stopLetter":"BK","topMostParentId":"490G00012179","towards":"Walthamstow Central"},{"icsId":"1014158","id":"490014158S","lat":51.59378,"lon":-0.01748,"name":"Aveling Park Road","parentId":"490G00014158","stationId":"490G00014158","stopLetter":"BL","topMostParentId":"490G00014158","towards":"Walthamstow Central"},{"icsId":"1014163","id":"490014163S","lat":51.59062,"lon":-0.01731,"name":"Forest Road / Bell Corner","parentId":"490G00014163","stationId":"490G00014163","stopLetter":"BM","topMostParentId":"490G00014163","towards":"Walthamstow Central"},{"icsId":"1004518","id":"490004518S","lat":51.58849,"lon":-0.02032,"name":"Jewel Road","parentId":"490G00004518","stationId":"490G00004518","stopLetter":"BN","topMostParentId":"490G00004518","towards":"Bakers Arms"},{"icsId":"1014165","id":"490014165J","lat":51.58536,"lon":-0.01948,"name":"Walthamstow Market","parentId":"490G00014165","stationId":"490G00014165","stopLetter":"J","topMostParentId":"490G00014165","towards":"Bakers Arms"},{"icsId":"1014164","id":"490014164N","lat":51.58362,"lon":-0.02019,"name":"Walthamstow Bus Station","parentId":"490G000817","stationId":"490G000817","stopLetter":"->N","topMostParentId":"490G000817"}]}]}