{"direction":"outbound","lineId":"217","lineName":"217","mode":"bus","stopPointSequences":[{"stopPoint":[{"icsId":"1014156","id":"210021703420","lat":51.685603,"lon":-0.031092,"name":"Waltham Cross Bus Station","parentId":"210G432","stationId":"210G432","stopLetter":"A","topMostParentId":"210G432","towards":"Turkey Street Or Elsinge Estate"},{"icsId":"1003378","id":"490003378G","lat":51.68216,"lon":-0.03344,"name":"Arlington Crescent","parentId":"490G00003378","stationId":"490G00003378","stopLetter":"H","topMostParentId":"490G00003378","towards":"Enfield Lock, Ponders End Or Turkey St"},{"icsId":"1008103","id":"490008103W","lat":51.68006,"lon":-0.0349,"name":"Bullsmoor Lane / Hertford Road","parentId":"490G00008103","stationId":"490G00008103","stopLetter":"J","topMostParentId":"490G00008103","towards":"Bush Hill Park Or Enfield Town"},{"icsId":"1008941","id":"490008941W","lat":51.68083,"lon":-0.03899,"name":"Langdale Gardens","parentId":"490G00008941","stationId":"490G00008941","stopLetter":"K","topMostParentId":"490G00008941","towards":"Edmonton Or Enfield Town"},{"icsId":"1009049","id":"490009049W","lat":51.68106,"lon":-0.04191,"name":"Lea Valley High School","parentId":"490G00009049","stationId":"490G00009049","stopLetter":"L","topMostParentId":"490G00009049","towards":"Edmonton Or Enfield Town"},{"icsId":"1004575","id":"490004575W","lat":51.68007,"lon":-0.04875,"name":"Bullsmoor Lane / Great Cambridge Road","parentId":"490G00004575","stationId":"490G00004575","stopLetter":"M","topMostParentId":"490G00004575","towards":"Edmonton Or Enfield Town"},{"icsId":"1009549","id":"490009549S","lat":51.67786,"lon":-0.05162,"name":"Manor Court","parentId":"490G00009549","stationId":"490G00009549","stopLetter":"N","topMostParentId":"490G00009549","towards":"Bush Hill Park Or Enfield Town"},{"icsId":"1013843","id":"490013843S","lat":51.67354,"lon":-0.05311,"name":"Turkey Street Station","parentId":"490G00013843","stationId":"490G00013843","stopLetter":"C","topMostParentId":"490G00013843","towards":"Bush Hill Park Or Enfield Town"},{"icsId":"1006580","id":"490006580S","lat":51.66873,"lon":-0.05501,"name":"Enfield Crematorium","parentId":"490G00006580","stationId":"490G00006580","stopLetter":"D","topMostParentId":"490G00006580","towards":"Enfield Town Or Turnpike Lane"},{"icsId":"1008269","id":"490008269S","lat":51.66449,"lon":-0.05684,"name":"Hoe Lane","parentId":"490G00008269","stationId":"490G00008269","stopLetter":"X","topMostParentId":"490G00008269","towards":"Edmonton Or Enfield Town"},{"icsId":"1004829","id":"490004829S","lat":51.6611,"lon":-0.05821,"name":"Carterhatch Lane","parentId":"490G00004829","stationId":"490G00004829","stopLetter":"Y","topMostParentId":"490G00004829","towards":"Edmonton Or Enfield Town"},{"icsId":"1004830","id":"490004830S","lat":51.65928,"lon":-0.05866,"name":"Cambridge Gardens","parentId":"490G00004830","stationId":"490G00004830","stopLetter":"Z","topMostParentId":"490G00004830","towards":"Edmonton Or Enfield Town"},{"icsId":"1006584","id":"490006584W1","lat":51.65341,"lon":-0.05839,"name":"Enfield Retail Park","parentId":"490G00006584","stationId":"490G00006584","stopLetter":"F","topMostParentId":"490G00006584","towards":"Edmonton Or Enfield Town"},{"icsId":"1003544","id":"490003544S","lat":51.65111,"lon":-0.05658,"name":"Dearsley Road","parentId":"490G00003544","stationId":"490G00003544","stopLetter":"G","topMostParentId":"490G00003544","towards":"Enfield Town and Edmonton"},{"icsId":"1015329","id":"490015329W","lat":51.64907,"lon":-0.05797,"name":"Baird Road","parentId":"490G00015329","stationId":"490G00015329","stopLetter":"H","topMostParentId":"490G00015329","towards":"Enfield Town Or Edmonton"},{"icsId":"1012261","id":"490012261S","lat":51.64867,"lon":-0.06004,"name":"Southbury Road","parentId":"490G00012261","stationId":"490G00012261","stopLetter":"B","topMostParentId":"490G00012261","towards":"Edmonton"},{"icsId":"1009170","id":"490009170S","lat":51.64554,"lon":-0.06025,"name":"Lincoln Road","parentId":"490G00009170","stationId":"490G00009170","stopLetter":"H","topMostParentId":"490G00009170","towards":"Edmonton"},{"icsId":"1013798","id":"490013798S","lat":51.63989,"lon":-0.06316,"name":"Trinity Avenue / Bush Hill Park Stn","parentId":"490G000806","stationId":"490G000806","stopLetter":"A","topMostParentId":"490G000806","towards":"Edmonton"},{"icsId":"1004632","id":"490004632S1","lat":51.63356,"lon":-0.07054,"name":"Bury Street","parentId":"490G00004632","stationId":"490G00004632","stopLetter":"D","topMostParentId":"490G00004632","towards":"Turnpike Lane"},{"icsId":"1005305","id":"490005305S","lat":51.63016,"lon":-0.07759,"name":"Church Street","parentId":"490G00005305","stationId":"490G00005305","stopLetter":"EL","topMostParentId":"490G00005305","towards":"Turnpike Lane"},{"icsId":"1006010","id":"490006010S","lat":51.62416,"lon":-0.08127,"name":"Deansway","parentId":"490G00006010","stationId":"490G00006010","stopLetter":"EM","topMostParentId":"490G00006010","towards":"Turnpike Lane"},{"icsId":"1014439","id":"490014439S","lat":51.62134,"lon":-0.08281,"name":"Westerham Avenue","parentId":"490G00014439","stationId":"490G00014439","stopLetter":"SF","topMostParentId":"490G00014439","towards":"Turnpike Lane"},{"icsId":"1015300","id":"490015300S","lat":51.6174,"lon":-0.08603,"name":"Cambridge Roundabout / North Side","parentId":"490G00015300","stationId":"490G00015300","stopLetter":"SG","topMostParentId":"490G00015300","towards":"Turnpike Lane"},{"icsId":"1019163","id":"490004712S2","lat":51.61526,"lon":-0.08664,"name":"Cambridge Roundabout / South Side","parentId":"490G00019163","stationId":"490G00019163","stopLetter":"SH","topMostParentId":"490G00019163","towards":"Turnpike Lane Or Wood Green"},{"icsId":"1010864","id":"490010864S","lat":51.61239,"lon":-0.08636,"name":"Pasteur Gardens","parentId":"490G00010864","stationId":"490G00010864","stopLetter":"SJ","topMostParentId":"490G00010864","towards":"Turnpike Lane Or Wood Green"},{"icsId":"1006564","id":"490006564S","lat":51.6091,"lon":-0.08541,"name":"Empire Parade","parentId":"490G00006564","stationId":"490G00006564","stopLetter":"SK","topMostParentId":"490G00006564","towards":"Turnpike Lane Or Wood Green"},{"icsId":"1014597","id":"490014597S","lat":51.6049,"lon":-0.08595,"name":"White Hart Lane","parentId":"490G00014597","stationId":"490G00014597","stopLetter":"RK","topMostParentId":"490G00014597","towards":"Wood Green and Turnpike Lane"},{"icsId":"1005666","id":"490005666W","lat":51.60266,"lon":-0.08807,"name":"Courtman Road","parentId":"490G00005666","stationId":"490G00005666","stopLetter":"RL","topMostParentId":"490G00005666","towards":"Wood Green Or Turnpike Lane"},{"icsId":"1007323","id":"490007323W","lat":51.60173,"lon":-0.09069,"name":"Gospatrick Road","parentId":"490G00007323","stationId":"490G00007323","stopLetter":"RM","topMostParentId":"490G00007323","towards":"Wood Green and Turnpike Lane"},{"icsId":"1007377","id":"490007377W","lat":51.59946,"lon":-0.0918,"name":"Granville Road","parentId":"490G00007377","stationId":"490G00007377","stopLetter":"RN","topMostParentId":"490G00007377","towards":"Wood Green Or Turnpike Lane"},{"icsId":"1004186","id":"490004186W","lat":51.59687,"lon":-0.09391,"name":"Boundary Road","parentId":"490G00004186","stationId":"490G00004186","stopLetter":"NV","topMostParentId":"490G00004186","towards":"Wood Green"},{"icsId":"1008909","id":"490008909W","lat":51.59353,"lon":-0.098,"name":"Westbury Avenue Baptist Church","parentId":"490G00008909","stationId":"490G00008909","stopLetter":"->W","topMostParentId":"490G00008909","towards":"Wood Green"},{"icsId":"1000241","id":"490000241P","lat":51.59091,"lon":-0.10255,"name":"Turnpike Lane Station","stopLetter":"P","topMostParentId":"490000241P","towards":"Wood Green","zone":"3"},{"icsId":"1013852","id":"490013852N","lat":51.58994,"lon":-0.10226,"name":"Turnpike Lane Bus Station","parentId":"490G000808","stationId":"490G000808","stopLetter":"AP","topMostParentId":"490G000808"}]}]}