{"direction":"outbound","lineId":"225","lineName":"225","mode":"bus","stopPointSequences":[{"stopPoint":[{"icsId":"1015429","id":"490015429S","lat":51.44969,"lon":0.00041,"name":"Springbank Road / Hither Green Station","parentId":"490G00015429","stationId":"490G00015429","stopLetter":"A","topMostParentId":"490G00015429","towards":"Lewisham"},{"icsId":"1018563","id":"490018563W","lat":51.44778,"lon":0.00136,"name":"Wellmeadow Road","parentId":"490G00018563","stationId":"490G00018563","stopLetter":"AA","topMostParentId":"490G00018563","towards":"Lewisham"},{"icsId":"1006243","id":"490006243N","lat":51.44895,"lon":-0.00233,"name":"Duncrievie Road","parentId":"490G00006243","stationId":"490G00006243","stopLetter":"R","topMostParentId":"490G00006243","towards":"Lewisham"},{"icsId":"1008259","id":"490008259N","lat":51.45006,"lon":-0.00487,"name":"George Lane","parentId":"490G00008259","stationId":"490G00008259","stopLetter":"S","topMostParentId":"490G00008259","towards":"Lewisham"},{"icsId":"1013479","id":"490013479N","lat":51.45162,"lon":-0.00665,"name":"Theodore Road","parentId":"490G00013479","stationId":"490G00013479","stopLetter":"T","topMostParentId":"490G00013479","towards":"Lewisham"},{"icsId":"1013624","id":"490013624N","lat":51.45367,"lon":-0.00826,"name":"Thornford Road","parentId":"490G00013624","stationId":"490G00013624","stopLetter":"->N","topMostParentId":"490G00013624","towards":"Lewisham"},{"icsId":"1005658","id":"490005658W","lat":51.45686,"lon":-0.01092,"name":"Courthill Road","parentId":"490G00005658","stationId":"490G00005658","stopLetter":"HT","topMostParentId":"490G00005658","towards":"Deptford"},{"icsId":"1009105","id":"490009105U","lat":51.46043,"lon":-0.01119,"name":"Lewisham Centre","parentId":"490G00009105","stationId":"490G00009105","stopLetter":"U","topMostParentId":"490G00009105","towards":"Deptford Or New Cross"},{"icsId":"1009106","id":"490011522E","lat":51.46253,"lon":-0.01012,"name":"Lewisham Police Station","parentId":"490G00009106","stationId":"490G00009106","stopLetter":"E","topMostParentId":"490G00009106","towards":"Deptford Or New Cross"},{"icsId":"1001177","id":"490001177T","lat":51.46519,"lon":-0.01196,"name":"Lewisham Station","stopLetter":"H","topMostParentId":"490001177T","towards":"Deptford","zone":"2+3"},{"icsId":"1000386","id":"490001177F","lat":51.46448,"lon":-0.01413,"name":"Lewisham Station   / Loampit Vale","stopLetter":"F","topMostParentId":"490001177F","towards":"Deptford Or New Cross"},{"icsId":"1020306","id":"490020306W","lat":51.46622,"lon":-0.01711,"name":"Thurston Road / Jerrard Street","parentId":"490G20306","stationId":"490G20306","stopLetter":"->W","topMostParentId":"490G20306","towards":"Deptford"},{"icsId":"1002035","id":"490002035A","lat":51.46871,"lon":-0.01903,"name":"Elverson Road","stopLetter":"EA","topMostParentId":"490002035A","towards":"Surrey Quays","zone":"2+3"},{"icsId":"1005696","id":"490005696N","lat":51.47109,"lon":-0.02214,"name":"Cranbrook Road","parentId":"490G000470","stationId":"490G000470","stopLetter":"SX","topMostParentId":"490G000470","towards":"Surrey Quays"},{"icsId":"1007024","id":"490007024Q","lat":51.47314,"lon":-0.02388,"name":"Friendly Street","parentId":"490G00007024","stationId":"490G00007024","stopLetter":"Q","topMostParentId":"490G00007024","towards":"Surrey Quays"},{"icsId":"1006879","id":"490006879F","lat":51.47524,"lon":-0.0284,"name":"Florence Road","parentId":"490G00006879","stationId":"490G00006879","stopLetter":"F","topMostParentId":"490G00006879","towards":"Bricklayers Arms, Peckham Or Surrey Quays"},{"icsId":"1000155","id":"490000155W","lat":51.47568,"lon":-0.03122,"name":"New Cross Station","stopLetter":"W","topMostParentId":"490000155W","towards":"Bricklayers Arms, Peckham Or Surrey Quays"},{"icsId":"1009689","id":"490009689S","lat":51.47586,"lon":-0.03461,"name":"Marquis of Granby","parentId":"490G00009689","stationId":"490G00009689","stopLetter":"S","topMostParentId":"490G00009689","towards":"Blackheath, Greenwich Or Surrey Quays"},{"icsId":"1006688","id":"490006688Q","lat":51.47626,"lon":-0.03433,"name":"Exeter Way","parentId":"490G00006688","stationId":"490G00006688","stopLetter":"Q","topMostParentId":"490G00006688","towards":"Surrey Quays"},{"icsId":"1006897","id":"490006897N","lat":51.478,"lon":-0.03479,"name":"Fordham Park","parentId":"490G00006897","stationId":"490G00006897","stopLetter":"P","topMostParentId":"490G00006897","towards":"Surrey Quays"},{"icsId":"1009446","id":"490009446W","lat":51.47832,"lon":-0.03766,"name":"Ludwick Mews","parentId":"490G00009446","stationId":"490G00009446","stopLetter":"R","topMostParentId":"490G00009446","towards":"Surrey Quays"},{"icsId":"1005634","id":"490005634N","lat":51.48031,"lon":-0.04126,"name":"Cottesbrook Street","parentId":"490G00005634","stationId":"490G00005634","stopLetter":"A","topMostParentId":"490G00005634","towards":"Surrey Quays"},{"icsId":"1005460","id":"490005460N","lat":51.48144,"lon":-0.04177,"name":"Cold Blow Lane","parentId":"490G00005460","stationId":"490G00005460","stopLetter":"B","topMostParentId":"490G00005460","towards":"Surrey Quays"},{"icsId":"1013039","id":"490013039N","lat":51.48366,"lon":-0.04178,"name":"Surrey Canal Road","parentId":"490G00013039","stationId":"490G00013039","stopLetter":"C","topMostParentId":"490G00013039","towards":"Canada Water"},{"icsId":"1007534","id":"490007534N","lat":51.48539,"lon":-0.04242,"name":"Grinstead Road","parentId":"490G00007534","stationId":"490G00007534","stopLetter":"D","topMostParentId":"490G00007534","towards":"Canada Water"},{"icsId":"1003241","id":"490003241N","lat":51.48713,"lon":-0.04328,"name":"Alloa Road","parentId":"490G00003241","stationId":"490G00003241","stopLetter":"E","topMostParentId":"490G00003241","towards":"Canada Water"},{"icsId":"1008572","id":"490008572N","lat":51.4887,"lon":-0.04458,"name":"John Silkin Lane","parentId":"490G00008572","stationId":"490G00008572","stopLetter":"F","topMostParentId":"490G00008572","towards":"Canada Water"},{"icsId":"1004655","id":"490004655N","lat":51.49107,"lon":-0.04517,"name":"Bush Road","parentId":"490G00004655","stationId":"490G00004655","stopLetter":"N","topMostParentId":"490G00004655","towards":"London Bridge Or Elephant & Castle"},{"icsId":"1000229","id":"490000229O","lat":51.49295,"lon":-0.04792,"name":"Surrey Quays Station","stopLetter":"S","topMostParentId":"490000229O","towards":"London Bridge Or Elephant & Castle"},{"icsId":"1011723","id":"490011723P","lat":51.49546,"lon":-0.05135,"name":"Rotherhithe Police Station","parentId":"490G00011723","stationId":"490G00011723","stopLetter":"P","topMostParentId":"490G00011723","towards":"Canada Water"},{"icsId":"1004733","id":"490004733D","lat":51.49814,"lon":-0.04994,"name":"Canada Water Bus Station","parentId":"490G000438","stationId":"490G000438","stopLetter":"D","topMostParentId":"HUBZCW"}]}]}