{"direction":"outbound","lineId":"226","lineName":"226","mode":"bus","stopPointSequences":[{"stopPoint":[{"icsId":"1007913","id":"490007913D","lat":51.51518,"lon":-0.30343,"name":"Haven Grn / Ealing Broadway Stn","parentId":"490G000578","stationId":"490G000578","stopLetter":"D","topMostParentId":"HUBEAL","towards":"Greenford Or Hanger Lane"},{"icsId":"1006279","id":"490006279N","lat":51.51726,"lon":-0.30646,"name":"Castlebar Road","parentId":"490G00006279","stationId":"490G00006279","stopLetter":"SE","topMostParentId":"490G00006279","towards":"Greenford Or Hanger Lane Station"},{"icsId":"1009636","id":"490009636N","lat":51.52056,"lon":-0.30631,"name":"Marchwood Crescent","parentId":"490G00009636","stationId":"490G00009636","stopLetter":"SF","topMostParentId":"490G00009636","towards":"Greenford"},{"icsId":"1010001","id":"490010001F","lat":51.52219,"lon":-0.30621,"name":"Montpelier Road","parentId":"490G00010001","stationId":"490G00010001","stopLetter":"->E","topMostParentId":"490G00010001"},{"icsId":"1002338","id":"490002338HZ","lat":51.5227,"lon":-0.3039,"name":"Montpelier Road / St Peters Way","parentId":"490G00002338","stationId":"490G00002338","stopLetter":"->E","topMostParentId":"490G00002338"},{"icsId":"1002339","id":"490002339HY","lat":51.5236,"lon":-0.3029,"name":"Helena Road","parentId":"490G00002339","stationId":"490G00002339","stopLetter":"->N","topMostParentId":"490G00002339"},{"icsId":"1002340","id":"490002340HZ","lat":51.52456,"lon":-0.30253,"name":"Helena Road / Mount Avenue","parentId":"490G00002340","stationId":"490G00002340","stopLetter":"->E","topMostParentId":"490G00002340"},{"icsId":"1002341","id":"490002341HY","lat":51.52498,"lon":-0.30018,"name":"Mount Avenue","parentId":"490G00002341","stationId":"490G00002341","stopLetter":"->N","topMostParentId":"490G00002341"},{"icsId":"1002342","id":"490002342HY","lat":51.52768,"lon":-0.29976,"name":"Birkdale Road","parentId":"490G00002342","stationId":"490G00002342","stopLetter":"->N","topMostParentId":"490G00002342"},{"icsId":"1002343","id":"490002343HZ","lat":51.5297,"lon":-0.29902,"name":"Brunswick Road / Clarendon Road","parentId":"490G00002343","stationId":"490G00002343","stopLetter":"->E","topMostParentId":"490G00002343"},{"icsId":"1002344","id":"490002344HZ","lat":51.5289,"lon":-0.29471,"name":"Brunswick Road / Sandall Road","parentId":"490G00002344","stationId":"490G00002344","stopLetter":"->E","topMostParentId":"490G00002344"},{"icsId":"1000874","id":"490000874Z","lat":51.52886,"lon":-0.2933,"name":"Brunswick Road / Garrick Close","parentId":"490G000196","stationId":"490G000196","stopLetter":"->E","topMostParentId":"490G000196"},{"icsId":"1000099","id":"490000099A","lat":51.52904,"lon":-0.29273,"name":"Hanger Lane Station","stopLetter":"A","topMostParentId":"490000099A","towards":"Stonebridge Park, Alperton Or Park Royal","zone":"3"},{"icsId":"1013878","id":"490013878H","lat":51.53156,"lon":-0.29014,"name":"Bispham Road","parentId":"490G00013878","stationId":"490G00013878","stopLetter":"H","topMostParentId":"490G00013878","towards":"Harlesden"},{"icsId":"1016718","id":"490016718E","lat":51.53234,"lon":-0.28713,"name":"Park Avenue","parentId":"490G00016718","stationId":"490G00016718","stopLetter":"E","topMostParentId":"490G00016718","towards":"Park Royal"},{"icsId":"1016693","id":"490016693E","lat":51.5322,"lon":-0.28569,"name":"Bodiam Way","parentId":"490G00016693","stationId":"490G00016693","stopLetter":"F","topMostParentId":"490G00016693","towards":"Central Middlesex Hospital"},{"icsId":"1016694","id":"490016694E","lat":51.53032,"lon":-0.28612,"name":"Lakeside Drive","parentId":"490G00016694","stationId":"490G00016694","stopLetter":"G","topMostParentId":"490G00016694","towards":"Central Middlesex Hospital"},{"icsId":"1000176","id":"490007599E","lat":51.52896,"lon":-0.28173,"name":"Park Royal Station","stopLetter":"H","topMostParentId":"490007599E","towards":"Harlesden","zone":"3"},{"icsId":"1011389","id":"490011389E","lat":51.52824,"lon":-0.27724,"name":"Radnor Way","parentId":"490G00011389","stationId":"490G00011389","stopLetter":"J","topMostParentId":"490G00011389","towards":"Harlesden"},{"icsId":"1014449","id":"490014449E","lat":51.52905,"lon":-0.27144,"name":"Western Road","parentId":"490G00014449","stationId":"490G00014449","stopLetter":"M","topMostParentId":"490G00014449","towards":"Harlesden"},{"icsId":"1004925","id":"490004925A","lat":51.53033,"lon":-0.26903,"name":"Central Middlesex Hospital","parentId":"490G00004925","stationId":"490G00004925","stopLetter":"A","topMostParentId":"490G00004925","towards":"Harlesden Or Stonebridge Park"},{"icsId":"1003652","id":"490003652E","lat":51.53263,"lon":-0.26359,"name":"Barretts Green Road","parentId":"490G00003652","stationId":"490G00003652","stopLetter":"U","topMostParentId":"490G00003652","towards":"Harlesden Or Willesden"},{"icsId":"1014319","id":"490014319E","lat":51.53444,"lon":-0.26054,"name":"Waxlow Road","parentId":"490G00014319","stationId":"490G00014319","stopLetter":"PN","topMostParentId":"490G00014319","towards":"Harlesden Or Willesden"},{"icsId":"1000100","id":"490000100N","lat":51.53631,"lon":-0.25712,"name":"Harlesden Station","stopLetter":"HB","topMostParentId":"490000100N","towards":"Willesden Or East Acton","zone":"3"},{"icsId":"1006717","id":"490006717E","lat":51.53682,"lon":-0.25354,"name":"Fairlight Avenue","parentId":"490G00006717","stationId":"490G00006717","stopLetter":"HE","topMostParentId":"490G00006717","towards":"Cricklewood, Queens Park Or East Acton"},{"icsId":"1014690","id":"490014690T","lat":51.53573,"lon":-0.24852,"name":"Willesden County Court","parentId":"490G00014690","stationId":"490G00014690","stopLetter":"T","topMostParentId":"490G00014690","towards":"Cricklewood, Queens Park Or East Acton"},{"icsId":"1000343","id":"49000343NE","lat":51.53604,"lon":-0.24607,"name":"Buckingham Road","parentId":"490G00000343","stationId":"490G00000343","stopLetter":"B","topMostParentId":"490G00000343","towards":"Kensal Rise, Willesden Or White City"},{"icsId":"1008187","id":"490010792C","lat":51.53676,"lon":-0.24407,"name":"Park Parade","parentId":"490G00008187","stationId":"490G00008187","stopLetter":"C","topMostParentId":"490G00008187","towards":"Kensal Rise Or Willesden"},{"icsId":"1014963","id":"490014963H","lat":51.53773,"lon":-0.23979,"name":"Newman College / Wrottesley Road","parentId":"490G00014963","stationId":"490G00014963","stopLetter":"H","topMostParentId":"490G00014963","towards":"Cricklewood Or Queens Park"},{"icsId":"1011731","id":"490011731N","lat":51.5407,"lon":-0.23766,"name":"Roundwood Park","parentId":"490G00011731","stationId":"490G00011731","stopLetter":"HA","topMostParentId":"490G00011731","towards":"Cricklewood Or Kilburn Park"},{"icsId":"1003192","id":"49003192HB","lat":51.54228,"lon":-0.23683,"name":"Cross Way","parentId":"490G00003192","stationId":"490G00003192","stopLetter":"HB","topMostParentId":"490G00003192","towards":"Kilburn Or Willesden"},{"icsId":"1010834","id":"490010834N","lat":51.54451,"lon":-0.23654,"name":"Clare Road","parentId":"490G00010834","stationId":"490G00010834","stopLetter":"HC","topMostParentId":"490G00010834","towards":"Willesden Bus Garage Or Cricklewood"},{"icsId":"1003935","id":"490003935N","lat":51.54652,"lon":-0.23876,"name":"Bertie Road","parentId":"490G00003935","stationId":"490G00003935","stopLetter":"HD","topMostParentId":"490G00003935","towards":"Willesden Bus Garage Or Cricklewood"},{"icsId":"1014703","id":"490014687N","lat":51.5477,"lon":-0.2402,"name":"Pound Lane / Willesden Bus Garage","parentId":"490G00014703","stationId":"490G00014703","stopLetter":"WX","topMostParentId":"490G00014703","towards":"Willesden Green, Cricklewood Or Neasden"},{"icsId":"1009844","id":"490009844N","lat":51.54933,"lon":-0.2395,"name":"Meyrick Road","parentId":"490G00009844","stationId":"490G00009844","stopLetter":"WL","topMostParentId":"490G00009844","towards":"Cricklewood Or Kingsbury"},{"icsId":"1004989","id":"490006047D","lat":51.55044,"lon":-0.24094,"name":"Chapter Road","parentId":"490G000447","stationId":"490G000447","stopLetter":"DK","topMostParentId":"490G000447","towards":"Cricklewood Or Kingsbury"},{"icsId":"1003054","id":"490003054E","lat":51.55308,"lon":-0.24184,"name":"Aberdeen Road","parentId":"490G00003054","stationId":"490G00003054","stopLetter":"DC","topMostParentId":"490G00003054","towards":"Cricklewood"},{"icsId":"1000061","id":"490000061B","lat":51.55266,"lon":-0.23917,"name":"Dollis Hill Station","stopLetter":"DB","topMostParentId":"490000061B","towards":"Cricklewood","zone":"3"},{"icsId":"1007150","id":"490007150N","lat":51.55514,"lon":-0.23765,"name":"Geary Road","parentId":"490G00007150","stationId":"490G00007150","stopLetter":"->N","topMostParentId":"490G00007150","towards":"Cricklewood"},{"icsId":"1008620","id":"490008620E","lat":51.55551,"lon":-0.23317,"name":"Cullingworth Road","parentId":"490G00008620","stationId":"490G00008620","stopLetter":"->E","topMostParentId":"490G00008620","towards":"Cricklewood"},{"icsId":"1013372","id":"490013372E","lat":51.55504,"lon":-0.22911,"name":"The Gladstone Centre","parentId":"490G00013372","stationId":"490G00013372","stopLetter":"->E","topMostParentId":"490G00013372","towards":"Golders Green"},{"icsId":"1008077","id":"490008077E","lat":51.55462,"lon":-0.2252,"name":"Henson Avenue","parentId":"490G00008077","stationId":"490G00008077","stopLetter":"->E","topMostParentId":"490G00008077","towards":"Golders Green"},{"icsId":"1005993","id":"490005993E","lat":51.55426,"lon":-0.22152,"name":"Dawson Road","parentId":"490G00005993","stationId":"490G00005993","stopLetter":"->E","topMostParentId":"490G00005993","towards":"Golders Green"},{"icsId":"1003337","id":"490003337E","lat":51.55392,"lon":-0.21793,"name":"Anson Primary School","parentId":"490G00003337","stationId":"490G00003337","stopLetter":"CC","topMostParentId":"490G00003337","towards":"Golders Green"},{"icsId":"1005771","id":"490005771F","lat":51.55594,"lon":-0.21598,"name":"Sheldon Road","parentId":"490G000472","stationId":"490G000472","stopLetter":"CD","topMostParentId":"490G000472","towards":"Brent Cross Or Golders Green"},{"icsId":"1005773","id":"490005773C","lat":51.55757,"lon":-0.2143,"name":"Cricklewood Broadway","parentId":"490G000473","stationId":"490G000473","stopLetter":"CE","topMostParentId":"490G000473","towards":"Brent Cross and Golders Green"},{"icsId":"1001075","id":"490001075P","lat":51.55922,"lon":-0.21217,"name":"Cricklewood Station","stopLetter":"CH","topMostParentId":"490001075P","towards":"Brent Cross Or Golders Green"},{"icsId":"1012230","id":"490012230N","lat":51.5609,"lon":-0.21345,"name":"Somerton Road","parentId":"490G00012230","stationId":"490G00012230","stopLetter":"CJ","topMostParentId":"490G00012230","towards":"Brent Cross Or Golders Green"},{"icsId":"1010914","id":"490010914N1","lat":51.56414,"lon":-0.21595,"name":"Pennine Drive","parentId":"490G00010914","stationId":"490G00010914","stopLetter":"E","topMostParentId":"490G00010914","towards":"Golders Green"},{"icsId":"1010915","id":"490010915E","lat":51.56501,"lon":-0.21542,"name":"Pennine Drive / Claremont Road","parentId":"490G00010915","stationId":"490G00010915","stopLetter":"K","topMostParentId":"490G00010915","towards":"Golders Green"},{"icsId":"1010916","id":"490010916E","lat":51.56697,"lon":-0.21155,"name":"Cleveland Gardens","parentId":"490G00010916","stationId":"490G00010916","stopLetter":"L","topMostParentId":"490G00010916","towards":"Golders Green"},{"icsId":"1008059","id":"490008059E","lat":51.56864,"lon":-0.20827,"name":"Hendon Way","parentId":"490G00008059","stationId":"490G00008059","stopLetter":"M","topMostParentId":"490G00008059","towards":"Golders Green"},{"icsId":"1000503","id":"490013578S","lat":51.5678,"lon":-0.20696,"name":"The Vale","parentId":"490G00000503","stationId":"490G00000503","stopLetter":"W","topMostParentId":"490G00000503","towards":"Golders Green Or Swiss Cottage"},{"icsId":"1006263","id":"490006263E","lat":51.56896,"lon":-0.20242,"name":"Dunstan Road","parentId":"490G00006263","stationId":"490G00006263","stopLetter":"->E","topMostParentId":"490G00006263","towards":"East Finchley"},{"icsId":"1008268","id":"490008268GP","lat":51.57178,"lon":-0.19684,"name":"Hodford Road","parentId":"490G00008268","stationId":"490G00008268","stopLetter":"GP","topMostParentId":"490G00008268","towards":"Golders Green"},{"icsId":"1000087","id":"490000087GB","lat":51.57198,"lon":-0.19392,"name":"Golders Green Station","stopLetter":"GB","topMostParentId":"490000087GB","zone":"3"}]}]}