{"direction":"outbound","lineId":"231","lineName":"231","mode":"bus","stopPointSequences":[{"stopPoint":[{"icsId":"1001099","id":"490001099CC","lat":51.65367,"lon":-0.08902,"name":"Enfield Chase Station","stopLetter":"CC","topMostParentId":"490001099CC","towards":"Bush Hill Park, Forty Hill Or Ponders End"},{"icsId":"1006587","id":"490006587D","lat":51.65223,"lon":-0.08351,"name":"Enfield Town / Church Street","parentId":"490G00006587","stationId":"490G00006587","stopLetter":"D","topMostParentId":"490G00006587","towards":"Waltham Cross Or Bush Hill Park"},{"icsId":"1001101","id":"490001101K","lat":51.65241,"lon":-0.07863,"name":"Enfield Town Station","stopLetter":"K","topMostParentId":"490001101K","towards":"Bush Hill Park Or Ponders End"},{"icsId":"1008903","id":"490008903E","lat":51.65226,"lon":-0.07408,"name":"Ladysmith Road","parentId":"490G00008903","stationId":"490G00008903","stopLetter":"->E","topMostParentId":"490G00008903","towards":"Bush Hill Park, Ponders End Or Waltham Cross"},{"icsId":"1004902","id":"490004902E","lat":51.65167,"lon":-0.07051,"name":"Cecil Avenue","parentId":"490G00004902","stationId":"490G00004902","stopLetter":"M","topMostParentId":"490G00004902","towards":"Bush Hill Park, Ponders End Or Waltham Cross"},{"icsId":"1003937","id":"490010933E","lat":51.65072,"lon":-0.06592,"name":"Percival Road","parentId":"490G00003937","stationId":"490G00003937","stopLetter":"N","topMostParentId":"490G00003937","towards":"Bush Hill Park, Ponders End Or Waltham Cross"},{"icsId":"1007396","id":"490007396E1","lat":51.65018,"lon":-0.06243,"name":"Great Cambridge Road","parentId":"490G00007396","stationId":"490G00007396","stopLetter":"P","topMostParentId":"490G00007396","towards":"Chingford, Edmonton Or Waltham Cross"},{"icsId":"1012261","id":"490012261S","lat":51.64867,"lon":-0.06004,"name":"Southbury Road","parentId":"490G00012261","stationId":"490G00012261","stopLetter":"B","topMostParentId":"490G00012261","towards":"Edmonton"},{"icsId":"1009170","id":"490009170S","lat":51.64554,"lon":-0.06025,"name":"Lincoln Road","parentId":"490G00009170","stationId":"490G00009170","stopLetter":"H","topMostParentId":"490G00009170","towards":"Edmonton"},{"icsId":"1013798","id":"490013798S","lat":51.63989,"lon":-0.06316,"name":"Trinity Avenue / Bush Hill Park Stn","parentId":"490G000806","stationId":"490G000806","stopLetter":"A","topMostParentId":"490G000806","towards":"Edmonton"},{"icsId":"1004632","id":"490004632S1","lat":51.63356,"lon":-0.07054,"name":"Bury Street","parentId":"490G00004632","stationId":"490G00004632","stopLetter":"D","topMostParentId":"490G00004632","towards":"Turnpike Lane"},{"icsId":"1005305","id":"490005305S","lat":51.63016,"lon":-0.07759,"name":"Church Street","parentId":"490G00005305","stationId":"490G00005305","stopLetter":"EL","topMostParentId":"490G00005305","towards":"Turnpike Lane"},{"icsId":"1006010","id":"490006010S","lat":51.62416,"lon":-0.08127,"name":"Deansway","parentId":"490G00006010","stationId":"490G00006010","stopLetter":"EM","topMostParentId":"490G00006010","towards":"Turnpike Lane"},{"icsId":"1014439","id":"490014439S","lat":51.62134,"lon":-0.08281,"name":"Westerham Avenue","parentId":"490G00014439","stationId":"490G00014439","stopLetter":"SF","topMostParentId":"490G00014439","towards":"Turnpike Lane"},{"icsId":"1015300","id":"490015300S","lat":51.6174,"lon":-0.08603,"name":"Cambridge Roundabout / North Side","parentId":"490G00015300","stationId":"490G00015300","stopLetter":"SG","topMostParentId":"490G00015300","towards":"Turnpike Lane"},{"icsId":"1019163","id":"490004712S2","lat":51.61526,"lon":-0.08664,"name":"Cambridge Roundabout / South Side","parentId":"490G00019163","stationId":"490G00019163","stopLetter":"SH","topMostParentId":"490G00019163","towards":"Turnpike Lane Or Wood Green"},{"icsId":"1010864","id":"490010864S","lat":51.61239,"lon":-0.08636,"name":"Pasteur Gardens","parentId":"490G00010864","stationId":"490G00010864","stopLetter":"SJ","topMostParentId":"490G00010864","towards":"Turnpike Lane Or Wood Green"},{"icsId":"1006564","id":"490006564S","lat":51.6091,"lon":-0.08541,"name":"Empire Parade","parentId":"490G00006564","stationId":"490G00006564","stopLetter":"SK","topMostParentId":"490G00006564","towards":"Turnpike Lane Or Wood Green"},{"icsId":"1014597","id":"490014597S","lat":51.6049,"lon":-0.08595,"name":"White Hart Lane","parentId":"490G00014597","stationId":"490G00014597","stopLetter":"RK","topMostParentId":"490G00014597","towards":"Wood Green and Turnpike Lane"},{"icsId":"1005666","id":"490005666W","lat":51.60266,"lon":-0.08807,"name":"Courtman Road","parentId":"490G00005666","stationId":"490G00005666","stopLetter":"RL","topMostParentId":"490G00005666","towards":"Wood Green Or Turnpike Lane"},{"icsId":"1007323","id":"490007323W","lat":51.60173,"lon":-0.09069,"name":"Gospatrick Road","parentId":"490G00007323","stationId":"490G00007323","stopLetter":"RM","topMostParentId":"490G00007323","towards":"Wood Green and Turnpike Lane"},{"icsId":"1007377","id":"490007377W","lat":51.59946,"lon":-0.0918,"name":"Granville Road","parentId":"490G00007377","stationId":"490G00007377","stopLetter":"RN","topMostParentId":"490G00007377","towards":"Wood Green Or Turnpike Lane"},{"icsId":"1004186","id":"490004186W","lat":51.59687,"lon":-0.09391,"name":"Boundary Road","parentId":"490G00004186","stationId":"490G00004186","stopLetter":"NV","topMostParentId":"490G00004186","towards":"Wood Green"},{"icsId":"1008909","id":"490008909W","lat":51.59353,"lon":-0.098,"name":"Westbury Avenue Baptist Church","parentId":"490G00008909","stationId":"490G00008909","stopLetter":"->W","topMostParentId":"490G00008909","towards":"Wood Green"},{"icsId":"1000241","id":"490000241P","lat":51.59091,"lon":-0.10255,"name":"Turnpike Lane Station","stopLetter":"P","topMostParentId":"490000241P","towards":"Wood Green","zone":"3"},{"icsId":"1013852","id":"490013852N","lat":51.58994,"lon":-0.10226,"name":"Turnpike Lane Bus Station","parentId":"490G000808","stationId":"490G000808","stopLetter":"AP","topMostParentId":"490G000808"}]}]}