{"direction":"outbound","lineId":"233","lineName":"233","mode":"bus","stopPointSequences":[{"stopPoint":[{"icsId":"1018704","id":"490001097A","lat":51.45503,"lon":0.05208,"name":"Eltham Bus Station","parentId":"490G000923","stationId":"490G000923","stopLetter":"A","topMostParentId":"490G000923"},{"icsId":"1018654","id":"490006532E","lat":51.45377,"lon":0.0516,"name":"Eltham Station  / Lassa Road","parentId":"490G00018654","stationId":"490G00018654","stopLetter":"E","topMostParentId":"490G00018654","towards":"Bexleyheath, Chislehurst Or Sidcup"},{"icsId":"1018570","id":"490006537G","lat":51.45139,"lon":0.05228,"name":"Eltham Church / Well Hall Road","parentId":"490G00018570","stationId":"490G00018570","stopLetter":"G","topMostParentId":"490G00018570","towards":"Bexleyheath, Chislehurst Or Sidcup"},{"icsId":"1006539","id":"490006537L","lat":51.45074,"lon":0.05525,"name":"Eltham High Street / Passey Place","parentId":"490G00006539","stationId":"490G00006539","stopLetter":"L","topMostParentId":"490G00006539","towards":"Elmstead Woods Or Sidcup"},{"icsId":"1006547","id":"490006533Q","lat":51.45089,"lon":0.05872,"name":"Eltham High Street / Pound Place","parentId":"490G00006547","stationId":"490G00006547","stopLetter":"Q","topMostParentId":"490G00006547","towards":"Elmstead Woods Or Sidcup"},{"icsId":"1023124","id":"490012279S1","lat":51.45004,"lon":0.06414,"name":"Southend Crescent / Wythens Walk","parentId":"490G00023124","stationId":"490G00023124","stopLetter":"B","topMostParentId":"490G00023124","towards":"Elmstead Woods Or Sidcup"},{"icsId":"1008321","id":"490008321S","lat":51.44852,"lon":0.06417,"name":"Holy Trinity Church","parentId":"490G00008321","stationId":"490G00008321","stopLetter":"FA","topMostParentId":"490G00008321","towards":"Elmstead Woods, Grove Park Or Sidcup"},{"icsId":"1007684","id":"490007684S","lat":51.44706,"lon":0.06305,"name":"Halons Road","parentId":"490G00007684","stationId":"490G00007684","stopLetter":"FB","topMostParentId":"490G00007684","towards":"Elmstead Woods Or Sidcup"},{"icsId":"1008477","id":"490008477S","lat":51.44512,"lon":0.0635,"name":"Inca Drive","parentId":"490G00008477","stationId":"490G00008477","stopLetter":"FC","topMostParentId":"490G00008477","towards":"Elmstead Woods Or Sidcup"},{"icsId":"1007463","id":"490007463S","lat":51.44298,"lon":0.06499,"name":"Green Lane","parentId":"490G00007463","stationId":"490G00007463","stopLetter":"FD","topMostParentId":"490G00007463","towards":"Elmstead Woods Or Sidcup"},{"icsId":"1006892","id":"490006892N","lat":51.44171,"lon":0.06812,"name":"Footscray Rugby Club","parentId":"490G00006892","stationId":"490G00006892","stopLetter":"H","topMostParentId":"490G00006892","towards":"Elmstead Woods Or Sidcup"},{"icsId":"1010209","id":"490010209B","lat":51.43836,"lon":0.07141,"name":"New Eltham Station  / Footscray Road","parentId":"490G000674","stationId":"490G000674","stopLetter":"J","topMostParentId":"490G000674","towards":"Elmstead Woods Or Sidcup"},{"icsId":"1013225","id":"490003121J","lat":51.43557,"lon":0.07448,"name":"Thaxted Road","parentId":"490G00013225","stationId":"490G00013225","stopLetter":"Q","topMostParentId":"490G00013225","towards":"Sidcup"},{"icsId":"1005644","id":"490005644S","lat":51.43327,"lon":0.07729,"name":"County Gate","parentId":"490G00005644","stationId":"490G00005644","stopLetter":"R","topMostParentId":"490G00005644","towards":"Sidcup"},{"icsId":"1009642","id":"490009642E","lat":51.43053,"lon":0.08362,"name":"Marechal Niel Parade","parentId":"490G00009642","stationId":"490G00009642","stopLetter":"->E","topMostParentId":"490G00009642","towards":"Foots Cray"},{"icsId":"1009318","id":"490009318E","lat":51.43093,"lon":0.08691,"name":"Longlands Road / Main Road","parentId":"490G00009318","stationId":"490G00009318","stopLetter":"->E","topMostParentId":"490G00009318"},{"icsId":"1000449","id":"490000449Y","lat":51.43162,"lon":0.08784,"name":"Bedford Road","parentId":"490G000098","stationId":"490G000098","stopLetter":"->N","topMostParentId":"490G000098"},{"icsId":"1009319","id":"490009319Z","lat":51.4325,"lon":0.08999,"name":"Longlands Park Crescent","parentId":"490G00009319","stationId":"490G00009319","stopLetter":"->E","topMostParentId":"490G00009319"},{"icsId":"1009316","id":"490009316E","lat":51.43273,"lon":0.09318,"name":"York Avenue / Little Birches","parentId":"490G00009316","stationId":"490G00009316","stopLetter":"->E","topMostParentId":"490G00009316"},{"icsId":"1015179","id":"490015179E1","lat":51.43297,"lon":0.09745,"name":"Austral Close","parentId":"490G00015179","stationId":"490G00015179","topMostParentId":"490G00015179"},{"icsId":"1000448","id":"490015179E","lat":51.433,"lon":0.10073,"name":"Kingsmead Close","parentId":"490G000097","stationId":"490G000097","stopLetter":"->E","topMostParentId":"490G000097"},{"icsId":"1001249","id":"490015177G","lat":51.43246,"lon":0.10269,"name":"Sidcup Station","stopLetter":"G","topMostParentId":"490015177G","towards":"Foots Cray Or Queen Mary's Hospital"},{"icsId":"1005743","id":"490005743M","lat":51.43053,"lon":0.10215,"name":"Station Road / Crescent Road","parentId":"490G00005743","stationId":"490G00005743","stopLetter":"M","topMostParentId":"490G00005743","towards":"Chislehurst Or Foots Cray"},{"icsId":"1012140","id":"490012140T","lat":51.42642,"lon":0.10199,"name":"Sidcup High Street / Station Road","parentId":"490G00012140","stationId":"490G00012140","stopLetter":"T","topMostParentId":"490G00012140","towards":"Albany Park Or Foots Cray"},{"icsId":"1005299","id":"490005299Y","lat":51.42492,"lon":0.10656,"name":"Church Road","parentId":"490G00005299","stationId":"490G00005299","stopLetter":"Y","topMostParentId":"490G00005299","towards":"Bexley, Orpington Or Swanley"},{"icsId":"1008885","id":"490008885E","lat":51.42165,"lon":0.11117,"name":"Knoll Road","parentId":"490G00008885","stationId":"490G00008885","stopLetter":"->E","topMostParentId":"490G00008885","towards":"Bexley, Orpington Or Swanley"},{"icsId":"1009854","id":"490009854E","lat":51.42021,"lon":0.11469,"name":"Middleton Avenue","parentId":"490G00009854","stationId":"490G00009854","stopLetter":"->E","topMostParentId":"490G00009854","towards":"Bexley, Orpington Or Swanley"},{"icsId":"1011467","id":"490011463E","lat":51.41839,"lon":0.11872,"name":"Rectory Lane","parentId":"490G00011467","stationId":"490G00011467","stopLetter":"FC","topMostParentId":"490G00011467","towards":"Bexley Or Swanley"},{"icsId":"1012143","id":"490012143E","lat":51.41774,"lon":0.12033,"name":"Five Arches Business Estate","parentId":"490G00012143","stationId":"490G00012143","stopLetter":"FD","topMostParentId":"490G00012143","towards":"Bexley Or Swanley"},{"icsId":"1010734","id":"490010734E","lat":51.41671,"lon":0.12283,"name":"Palm Avenue","parentId":"490G00010734","stationId":"490G00010734","stopLetter":"FE","topMostParentId":"490G00010734","towards":"Bexley Or Swanley"},{"icsId":"1019342","id":"490015422E","lat":51.4157,"lon":0.12492,"name":"Ruxley Corner","parentId":"490G00019342","stationId":"490G00019342","stopLetter":"FF","topMostParentId":"490G00019342","towards":"Bexley Or Swanley"},{"icsId":"1011829","id":"490011829E2","lat":51.41497,"lon":0.12992,"name":"Ruxley Nursery","parentId":"490G00011829","stationId":"490G00011829","stopLetter":"FH","topMostParentId":"490G00011829","towards":"Swanley"},{"icsId":"1007212","id":"490007212E","lat":51.41381,"lon":0.13461,"name":"Glebe Cottages","parentId":"490G00007212","stationId":"490G00007212","stopLetter":"->E","topMostParentId":"490G00007212","towards":"Swanley"},{"icsId":"1010566","id":"490010566E","lat":51.41102,"lon":0.14166,"name":"Old Maidstone Road","parentId":"490G00010566","stationId":"490G00010566","topMostParentId":"490G00010566","towards":"Swanley"},{"icsId":"1008239","id":"490008239E","lat":51.40892,"lon":0.1483,"name":"Hillside Nursery","parentId":"490G00008239","stationId":"490G00008239","stopLetter":"->E","topMostParentId":"490G00008239","towards":"Swanley"},{"icsId":"1004020","id":"2400A020790A","lat":51.405615,"lon":0.157654,"name":"Birchwood Corner","topMostParentId":"2400A020790A","towards":"Swanley"},{"icsId":"1014146","id":"2400A020310A","lat":51.40273,"lon":0.163428,"name":"Walnut Way","topMostParentId":"2400A020310A","towards":"Beechenlea Lane"},{"icsId":"1016063","id":"2400A020730A","lat":51.400455,"lon":0.169747,"name":"Hilda May Avenue","topMostParentId":"2400A020730A","towards":"Beechenlea Lane"},{"icsId":"1010417","id":"2400A020980A","lat":51.401929,"lon":0.17413,"name":"Northview","topMostParentId":"2400A020980A","towards":"Beechenlea Lane"},{"icsId":"1013121","id":"2400A020990A","lat":51.400332,"lon":0.174428,"name":"Sycamore Drive","topMostParentId":"2400A020990A","towards":"Beechenlea Lane"},{"icsId":"1013106","id":"2400A020320A","lat":51.397709,"lon":0.17472,"name":"Bartholomew Way","topMostParentId":"2400A020320A","towards":"Farningham"},{"icsId":"1013464","id":"2400A020500A","lat":51.395213,"lon":0.177908,"name":"High Street / Station Road","topMostParentId":"2400A020500A","towards":"Crockenhill Or Farningham"},{"icsId":"1010820","id":"2400A020510A","lat":51.394768,"lon":0.179138,"name":"High Street / Goldsel Road","topMostParentId":"2400A020510A","towards":"Farningham"},{"icsId":"1013108","id":"2400A020520A","lat":51.392376,"lon":0.185392,"name":"Rogers Court","topMostParentId":"2400A020520A","towards":"Farningham"},{"icsId":"1013105","id":"2400A021130A","lat":51.390239,"lon":0.188553,"name":"Beechenlea Lane","topMostParentId":"2400A021130A","towards":"Sidcup"}]}]}