{"direction":"outbound","lineId":"237","lineName":"237","mode":"bus","stopPointSequences":[{"stopPoint":[{"icsId":"1018733","id":"490008395E","lat":51.46337,"lon":-0.38697,"name":"Frampton Road","parentId":"490G00018733","stationId":"490G00018733","stopLetter":"C","topMostParentId":"490G00018733","towards":"Hounslow"},{"icsId":"1015374","id":"490009702E","lat":51.4638,"lon":-0.38503,"name":"Martindale Road","parentId":"490G00015374","stationId":"490G00015374","stopLetter":"D","topMostParentId":"490G00015374","towards":"Hounslow"},{"icsId":"1005698","id":"490005698E","lat":51.4647,"lon":-0.38166,"name":"Cranbrook Road","parentId":"490G00005698","stationId":"490G00005698","stopLetter":"E","topMostParentId":"490G00005698","towards":"Hounslow Town Centre"},{"icsId":"1014362","id":"490014362E","lat":51.46549,"lon":-0.3774,"name":"Wellington Road South","parentId":"490G00014362","stationId":"490G00014362","stopLetter":"F","topMostParentId":"490G00014362","towards":"Isleworth"},{"icsId":"1008125","id":"490008125E","lat":51.46675,"lon":-0.37162,"name":"Hibernia Road","parentId":"490G00008125","stationId":"490G00008125","stopLetter":"->E","topMostParentId":"490G00008125","towards":"Isleworth"},{"icsId":"1013259","id":"490013259U","lat":51.46731,"lon":-0.3665,"name":"The Bell","parentId":"490G00013259","stationId":"490G00013259","stopLetter":"U","topMostParentId":"490G00013259","towards":"Brentford, Isleworth Or Whitton"},{"icsId":"1013777","id":"490013777O","lat":51.46752,"lon":-0.36212,"name":"Treaty Centre","parentId":"490G00013777","stationId":"490G00013777","stopLetter":"O","topMostParentId":"490G00013777","towards":"Heston Or Isleworth"},{"icsId":"1008399","id":"490008399K","lat":51.46945,"lon":-0.35801,"name":"Hounslow High Street","parentId":"490G00008399","stationId":"490G00008399","stopLetter":"K","topMostParentId":"490G00008399","towards":"Heston, Isleworth Or West Middlesex Hospital"},{"icsId":"1008392","id":"490008392F","lat":51.47101,"lon":-0.35362,"name":"Hounslow Bus Station","parentId":"490G000601","stationId":"490G000601","stopLetter":"F","topMostParentId":"490G000601","towards":"Brentford, St Margaret's Or Whitton"},{"icsId":"1004327","id":"490004327W2","lat":51.47201,"lon":-0.34939,"name":"Bridge Road","parentId":"490G00004327","stationId":"490G00004327","stopLetter":"->E","topMostParentId":"490G00004327","towards":"Brentford Or St Margaret's"},{"icsId":"1012599","id":"490012599E","lat":51.47296,"lon":-0.34675,"name":"Star Road","parentId":"490G00012599","stationId":"490G00012599","stopLetter":"J","topMostParentId":"490G00012599","towards":"Brentford Or St Margarets"},{"icsId":"1013620","id":"490013620E","lat":51.47403,"lon":-0.34465,"name":"Thornbury Road","parentId":"490G00013620","stationId":"490G00013620","stopLetter":"K","topMostParentId":"490G00013620","towards":"Brentford Or St Margaret's"},{"icsId":"1008510","id":"490008510E","lat":51.47496,"lon":-0.34216,"name":"West Thames College","parentId":"490G00008510","stationId":"490G00008510","stopLetter":"L","topMostParentId":"490G00008510","towards":"Brentford Or St Margaret's"},{"icsId":"1001158","id":"490001158B","lat":51.47521,"lon":-0.33731,"name":"Isleworth Station","stopLetter":"N","topMostParentId":"490001158B","towards":"Brentford"},{"icsId":"1009185","id":"490009185E","lat":51.47536,"lon":-0.33494,"name":"Linkfield Road","parentId":"490G00009185","stationId":"490G00009185","stopLetter":"P","topMostParentId":"490G00009185","towards":"Brentford"},{"icsId":"1014874","id":"490014874J","lat":51.47596,"lon":-0.33234,"name":"Wood Lane","parentId":"490G00014874","stationId":"490G00014874","stopLetter":"Q","topMostParentId":"490G00014874","towards":"Brentford"},{"icsId":"1007873","id":"490007873E","lat":51.47713,"lon":-0.3284,"name":"Turnpike Way","parentId":"490G00007873","stationId":"490G00007873","stopLetter":"R","topMostParentId":"490G00007873","towards":"Brentford"},{"icsId":"1004635","id":"490015029P","lat":51.47798,"lon":-0.32518,"name":"The Green School","parentId":"490G00004635","stationId":"490G00004635","stopLetter":"P","topMostParentId":"490G00004635","towards":"Brentford"},{"icsId":"1015029","id":"490015029E","lat":51.47921,"lon":-0.32164,"name":"Busch Corner","parentId":"490G00015029","stationId":"490G00015029","stopLetter":"T","topMostParentId":"490G00015029","towards":"Chiswick Or Osterley Tesco"},{"icsId":"1013141","id":"490013141E","lat":51.47999,"lon":-0.3191,"name":"Syon Lane","parentId":"490G00013141","stationId":"490G00013141","stopLetter":"X","topMostParentId":"490G00013141","towards":"Chiswick Or Hanwell"},{"icsId":"1003804","id":"490003804E","lat":51.48102,"lon":-0.31623,"name":"Beech Avenue","parentId":"490G00003804","stationId":"490G00003804","stopLetter":"->E","topMostParentId":"490G00003804","towards":"Chiswick Or Hanwell"},{"icsId":"1004296","id":"490004296E","lat":51.48204,"lon":-0.31357,"name":"Brent Lea","parentId":"490G00004296","stationId":"490G00004296","stopLetter":"->E","topMostParentId":"490G00004296","towards":"Chiswick Or Hanwell"},{"icsId":"1004292","id":"490004292F","lat":51.48339,"lon":-0.30733,"name":"Market Place","parentId":"490G00004292","stationId":"490G00004292","stopLetter":"BN","topMostParentId":"490G00004292","towards":"Chiswick, Hanwell Or Northfields"},{"icsId":"1002372","id":"490004289D","lat":51.48493,"lon":-0.30213,"name":"Brentford County Court","parentId":"490G00002372","stationId":"490G00002372","stopLetter":"BP","topMostParentId":"490G00002372","towards":"Chiswick"},{"icsId":"1006297","id":"490006297W","lat":51.48616,"lon":-0.29851,"name":"Watermans Centre","parentId":"490G00006297","stationId":"490G00006297","stopLetter":"BE","topMostParentId":"490G00006297","towards":"Chiswick Or Kew"},{"icsId":"1004293","id":"490004293E","lat":51.48749,"lon":-0.2939,"name":"The Musical Museum","parentId":"490G00004293","stationId":"490G00004293","stopLetter":"BF","topMostParentId":"490G00004293","towards":"Chiswick Or Richmond"},{"icsId":"1008690","id":"490008690E","lat":51.48855,"lon":-0.29033,"name":"London Museum of Water and Steam","parentId":"490G00008690","stationId":"490G00008690","stopLetter":"Y","topMostParentId":"490G00008690","towards":"Chiswick Or Richmond"},{"icsId":"1001167","id":"490001167X","lat":51.48939,"lon":-0.28713,"name":"Kew Bridge Station","stopLetter":"X","topMostParentId":"490001167X","towards":"Chiswick"},{"icsId":"1004290","id":"490004290Q","lat":51.49077,"lon":-0.28437,"name":"Brentford Fountain Leisure Centre","parentId":"490G00004290","stationId":"490G00004290","stopLetter":"L","topMostParentId":"490G00004290","towards":"Chiswick"},{"icsId":"1002191","id":"490010687K","lat":51.49226,"lon":-0.27796,"name":"Thorney Hedge Road","parentId":"490G000750","stationId":"490G000750","stopLetter":"K","topMostParentId":"490G000750","towards":"Hammersmith Or Shepherd's Bush"},{"icsId":"1000094","id":"490000094B","lat":51.49244,"lon":-0.27578,"name":"Gunnersbury Station","stopLetter":"B","topMostParentId":"490000094B","towards":"Hammersmith Or Shepherd's Bush","zone":"3"},{"icsId":"1005211","id":"490005211E","lat":51.49299,"lon":-0.27083,"name":"Chiswick Road","parentId":"490G00005211","stationId":"490G00005211","stopLetter":"S","topMostParentId":"490G00005211","towards":"Hammersmith Or Shepherd's Bush"},{"icsId":"1013848","id":"490013848DD","lat":51.49264,"lon":-0.26488,"name":"Turnham Green Church","parentId":"490G000807","stationId":"490G000807","stopLetter":"DD","topMostParentId":"490G000807","towards":"Hammersmith Or Shepherd's Bush"},{"icsId":"1005423","id":"490005423GG","lat":51.49251,"lon":-0.26151,"name":"Clifton Gardens","parentId":"490G00005423","stationId":"490G00005423","stopLetter":"GG","topMostParentId":"490G00005423","towards":"Hammersmith Or Shepherd's Bush"},{"icsId":"1000498","id":"490005210HH","lat":51.49264,"lon":-0.25809,"name":"Windmill Road","parentId":"490G00000498","stationId":"490G00000498","stopLetter":"HH","topMostParentId":"490G00000498","towards":"Hammersmith Or Shepherd's Bush"},{"icsId":"1013850","id":"490013850OO","lat":51.49285,"lon":-0.2541,"name":"Chiswick Lane","parentId":"490G00013850","stationId":"490G00013850","stopLetter":"OO","topMostParentId":"490G00013850","towards":"Hammersmith Or Shepherd's Bush"},{"icsId":"1012521","id":"490012521E","lat":51.49315,"lon":-0.24929,"name":"Stamford Brook Bus Garage","parentId":"490G00012521","stationId":"490G00012521","stopLetter":"H","topMostParentId":"490G00012521","towards":"Hammersmith Or Shepherd's Bush"},{"icsId":"1007273","id":"490007273L","lat":51.49342,"lon":-0.24654,"name":"Goldhawk Road / Young's Corner","parentId":"490G000535","stationId":"490G000535","stopLetter":"L","topMostParentId":"490G000535","towards":"Shepherd's Bush"},{"icsId":"1000218","id":"490000218P","lat":51.49531,"lon":-0.24482,"name":"Stamford Brook Station","stopLetter":"P","topMostParentId":"490000218P","towards":"Shepherd's Bush","zone":"2"},{"icsId":"1011296","id":"490011296N","lat":51.49665,"lon":-0.24428,"name":"Ravenscourt Gardens","parentId":"490G00011296","stationId":"490G00011296","stopLetter":"SP","topMostParentId":"490G00011296","towards":"Shepherd's Bush"},{"icsId":"1012522","id":"490012522N","lat":51.49823,"lon":-0.24378,"name":"Stamford Brook Road","parentId":"490G00012522","stationId":"490G00012522","stopLetter":"SQ","topMostParentId":"490G00012522","towards":"Shepherd's Bush"},{"icsId":"1015455","id":"490015455E","lat":51.49956,"lon":-0.24009,"name":"Askew Road","parentId":"490G00015455","stationId":"490G00015455","stopLetter":"SB","topMostParentId":"490G00015455","towards":"Shepherd's Bush"},{"icsId":"1010710","id":"490010710E","lat":51.50026,"lon":-0.23684,"name":"Paddenswick Road","parentId":"490G00010710","stationId":"490G00010710","stopLetter":"SC","topMostParentId":"490G00010710","towards":"Notting Hill Gate Or Shepherd's Bush"},{"icsId":"1004871","id":"490004871E","lat":51.50081,"lon":-0.23407,"name":"Cathnor Road","parentId":"490G00004871","stationId":"490G00004871","stopLetter":"SD","topMostParentId":"490G00004871","towards":"Notting Hill Gate Or Shepherd's Bush"},{"icsId":"1012946","id":"490012946E","lat":51.50173,"lon":-0.23145,"name":"St Stephen's Avenue","parentId":"490G00012946","stationId":"490G00012946","stopLetter":"SE","topMostParentId":"490G00012946","towards":"Notting Hill Gate Or Shepherd's Bush"},{"icsId":"1000088","id":"490000088Y","lat":51.50235,"lon":-0.22734,"name":"Goldhawk Road Station","stopLetter":"L","topMostParentId":"490000088Y","towards":"Notting Hill Gate Or White City Bus Station","zone":"2"},{"icsId":"1010913","id":"490010913W","lat":51.50308,"lon":-0.22414,"name":"Shepherd's Bush Road","parentId":"490G00010913","stationId":"490G00010913","stopLetter":"M","topMostParentId":"490G00010913","towards":"Notting Hill Gate Or White City Bus Station"},{"icsId":"1015059","id":"490015059E","lat":51.50462,"lon":-0.22105,"name":"Shepherd's Bush Green","parentId":"490G000856","stationId":"490G000856","stopLetter":"U","topMostParentId":"490G000856","towards":"Hammersmith"},{"icsId":"1000203","id":"490000203B","lat":51.50541,"lon":-0.21815,"name":"Shepherd's Bush Station","stopLetter":"B","topMostParentId":"490000203B","towards":"White City Bus Station","zone":"2"},{"icsId":"1003375","id":"490003375AP","lat":51.50904,"lon":-0.22402,"name":"White City Bus Station","parentId":"490G00003375","stationId":"490G00003375","stopLetter":"WG","topMostParentId":"490G00003375"}]}]}