{"direction":"outbound","lineId":"245","lineName":"245","mode":"bus","stopPointSequences":[{"stopPoint":[{"icsId":"1003268","id":"490003268E1","lat":51.53802,"lon":-0.30235,"name":"Alperton Sainsbury's","parentId":"490G00003268","stationId":"490G00003268","stopLetter":"K","topMostParentId":"490G00003268","towards":"Sudbury Or Wembley"},{"icsId":"1000005","id":"490003264D","lat":51.54032,"lon":-0.30139,"name":"Alperton Station","stopLetter":"D","topMostParentId":"490003264D","towards":"South Harrow Or Wembley","zone":"4"},{"icsId":"1005414","id":"490005414N","lat":51.54451,"lon":-0.30629,"name":"Clifford Road","parentId":"490G00005414","stationId":"490G00005414","stopLetter":"P","topMostParentId":"490G00005414","towards":"South Harrow Or Wembley"},{"icsId":"1005519","id":"490005519N","lat":51.55089,"lon":-0.31349,"name":"Colyton Close","parentId":"490G000466","stationId":"490G000466","stopLetter":"H","topMostParentId":"490G000466","towards":"Neasden Or Wembley Central"},{"icsId":"1001282","id":"490001282J","lat":51.55474,"lon":-0.31572,"name":"Sudbury & Harrow Road Station","stopLetter":"J","topMostParentId":"490001282J","towards":"Greenford, Harrow Or North Wembley"},{"icsId":"1004658","id":"490004658N","lat":51.5571,"lon":-0.31755,"name":"Butlers Green","parentId":"490G00004658","stationId":"490G00004658","stopLetter":"G","topMostParentId":"490G00004658","towards":"Harrow Or Neasden"},{"icsId":"1012983","id":"490012983N","lat":51.56087,"lon":-0.31996,"name":"Perrin Road","parentId":"490G00012983","stationId":"490G00012983","stopLetter":"H","topMostParentId":"490G00012983","towards":"Harrow Or North Wembley"},{"icsId":"1005669","id":"490005669E","lat":51.56206,"lon":-0.31869,"name":"Pasture Road","parentId":"490G00005669","stationId":"490G00005669","stopLetter":"L","topMostParentId":"490G00005669","towards":"Neasden Or Wembley"},{"icsId":"1012980","id":"490012980E","lat":51.56284,"lon":-0.31226,"name":"Sudbury Court Sports Club","parentId":"490G00012980","stationId":"490G00012980","stopLetter":"M","topMostParentId":"490G00012980","towards":"Neasden Or Wembley"},{"icsId":"1000163","id":"490000163B","lat":51.56262,"lon":-0.30608,"name":"North Wembley Station","stopLetter":"N","topMostParentId":"490000163B","towards":"Neasden Or Wembley","zone":"4"},{"icsId":"1007151","id":"490007151E","lat":51.56284,"lon":-0.3011,"name":"Pembroke Road","parentId":"490G00007151","stationId":"490G00007151","stopLetter":"P","topMostParentId":"490G00007151","towards":"Neasden Or Wembley"},{"icsId":"1011713","id":"490011713E","lat":51.56217,"lon":-0.2971,"name":"Rosslyn Crescent","parentId":"490G00011713","stationId":"490G00011713","stopLetter":"E","topMostParentId":"490G00011713","towards":"Neasden Or Wembley"},{"icsId":"1011178","id":"490011178E","lat":51.5625,"lon":-0.29092,"name":"Preston Road","parentId":"490G00011178","stationId":"490G00011178","stopLetter":"F","topMostParentId":"490G00011178","towards":"Neasden"},{"icsId":"1004795","id":"490004795E","lat":51.56497,"lon":-0.28854,"name":"Carlton Avenue East","parentId":"490G00004795","stationId":"490G00004795","stopLetter":"G","topMostParentId":"490G00004795","towards":"Neasden"},{"icsId":"1004445","id":"490004445E","lat":51.56561,"lon":-0.28478,"name":"Brook Avenue","parentId":"490G00004445","stationId":"490G00004445","stopLetter":"U","topMostParentId":"490G00004445","towards":"Neasden"},{"icsId":"1005621","id":"490005621Q","lat":51.56596,"lon":-0.28109,"name":"Corringham Road","parentId":"490G00005621","stationId":"490G00005621","stopLetter":"Q","topMostParentId":"490G00005621","towards":"Neasden Or Wembley"},{"icsId":"1004329","id":"490004329L","lat":51.56563,"lon":-0.27858,"name":"Bridge Road","parentId":"490G00004329","stationId":"490G00004329","stopLetter":"R","topMostParentId":"490G00004329","towards":"Neasden Or Wembley Central"},{"icsId":"1004301","id":"490004301E","lat":51.56555,"lon":-0.27388,"name":"Lycee International / Kings Drive","parentId":"490G00004301","stationId":"490G00004301","stopLetter":"BA","topMostParentId":"490G00004301","towards":"Kingsbury Green Or Neasden"},{"icsId":"1004051","id":"490004051E","lat":51.56599,"lon":-0.2665,"name":"Blackbird Cross","parentId":"490G00004051","stationId":"490G00004051","stopLetter":"BB","topMostParentId":"490G00004051","towards":"Kingsbury Green Or Neasden"},{"icsId":"1004052","id":"490004052S","lat":51.5652,"lon":-0.26411,"name":"Blackbird Hill","parentId":"490G00004052","stationId":"490G00004052","stopLetter":"BH","topMostParentId":"490G00004052","towards":"Cricklewood Or Willesden"},{"icsId":"1011297","id":"490011297S","lat":51.56326,"lon":-0.2597,"name":"Quainton Street","parentId":"490G00011297","stationId":"490G00011297","stopLetter":"BJ","topMostParentId":"490G00011297","towards":"Cricklewood Or Willesden"},{"icsId":"1011174","id":"490011174S","lat":51.56213,"lon":-0.2568,"name":"Press Road","parentId":"490G00011174","stationId":"490G00011174","stopLetter":"BK","topMostParentId":"490G00011174","towards":"Cricklewood, Finchley Or Willesden"},{"icsId":"1010172","id":"490010162N","lat":51.55968,"lon":-0.25047,"name":"Neasden Shopping Centre / Birse Crescent","parentId":"490G00010172","stationId":"490G00010172","stopLetter":"FF","topMostParentId":"490G00010172","towards":"Cricklewood, Finchley Or Willesden"},{"icsId":"1005412","id":"490005412GG","lat":51.55903,"lon":-0.24839,"name":"Dudden Hill Lane","parentId":"490G00005412","stationId":"490G00005412","stopLetter":"GG","topMostParentId":"490G00005412","towards":"Brent Cross Or Cricklewood"},{"icsId":"1011414","id":"490011414N","lat":51.56327,"lon":-0.24512,"name":"Randall Avenue","parentId":"490G00011414","stationId":"490G00011414","stopLetter":"->N","topMostParentId":"490G00011414","towards":"Brent Cross Or Cricklewood"},{"icsId":"1004470","id":"490004470E1","lat":51.56482,"lon":-0.23887,"name":"Brook Road","parentId":"490G00004470","stationId":"490G00004470","stopLetter":"->E","topMostParentId":"490G00004470","towards":"Brent Cross Or Cricklewood"},{"icsId":"1003271","id":"490005476N","lat":51.5665,"lon":-0.23377,"name":"Alder Grove","parentId":"490G00003271","stationId":"490G00003271","stopLetter":"DE","topMostParentId":"490G00003271","towards":"Brent Cross Or Cricklewood"},{"icsId":"1015034","id":"490015034S","lat":51.56458,"lon":-0.23115,"name":"Humber Road","parentId":"490G00015034","stationId":"490G00015034","stopLetter":"DH","topMostParentId":"490G00015034","towards":"Golders Green Or Kilburn"},{"icsId":"1005475","id":"490005475E","lat":51.56291,"lon":-0.22971,"name":"The Crescent","parentId":"490G00005475","stationId":"490G00005475","stopLetter":"DJ","topMostParentId":"490G00005475","towards":"Cricklewood"},{"icsId":"1010665","id":"490010665E","lat":51.56421,"lon":-0.22503,"name":"Conway Road","parentId":"490G00010665","stationId":"490G00010665","stopLetter":"DK","topMostParentId":"490G00010665","towards":"Cricklewood"},{"icsId":"1000945","id":"490006096S","lat":51.56361,"lon":-0.22262,"name":"Gladstone Park Gardens","parentId":"490G000254","stationId":"490G000254","stopLetter":"SD","topMostParentId":"490G000254","towards":"Golders Green, Kilburn Or Willesden"},{"icsId":"1015033","id":"490015033S","lat":51.56217,"lon":-0.22101,"name":"Cricklewood Bus Garage","parentId":"490G00015033","stationId":"490G00015033","stopLetter":"BA","topMostParentId":"490G00015033","towards":"Golders Green, Kilburn Or Willesden"},{"icsId":"1010015","id":"490010015S2","lat":51.56001,"lon":-0.21904,"name":"Mora Road","parentId":"490G00010015","stationId":"490G00010015","stopLetter":"BB","topMostParentId":"490G00010015","towards":"Golders Green Or Willesden"},{"icsId":"1005776","id":"490005776B","lat":51.55729,"lon":-0.21587,"name":"Cricklewood Lane","parentId":"490G000474","stationId":"490G000474","stopLetter":"BD","topMostParentId":"490G000474","towards":"Golders Green, Kilburn Or Willesden"},{"icsId":"1005773","id":"490005773C","lat":51.55757,"lon":-0.2143,"name":"Cricklewood Broadway","parentId":"490G000473","stationId":"490G000473","stopLetter":"CE","topMostParentId":"490G000473","towards":"Brent Cross and Golders Green"},{"icsId":"1005346","id":"490005346R","lat":51.55893,"lon":-0.21123,"name":"Claremont Road","parentId":"490G000465","stationId":"490G000465","stopLetter":"CM","topMostParentId":"490G000465","towards":"Golders Green"},{"icsId":"1005775","id":"490005775E","lat":51.56065,"lon":-0.20763,"name":"Dersingham Road","parentId":"490G00005775","stationId":"490G00005775","stopLetter":"CF","topMostParentId":"490G00005775","towards":"Golders Green"},{"icsId":"1008058","id":"490008058E","lat":51.56119,"lon":-0.20439,"name":"Hendon Way","parentId":"490G00008058","stationId":"490G00008058","stopLetter":"P","topMostParentId":"490G00008058","towards":"Golders Green"},{"icsId":"1009463","id":"490009463E","lat":51.56225,"lon":-0.20153,"name":"Lyndale Avenue","parentId":"490G00009463","stationId":"490G00009463","stopLetter":"Q","topMostParentId":"490G00009463","towards":"Golders Green"},{"icsId":"1005161","id":"490005161E","lat":51.56308,"lon":-0.19801,"name":"Childs Hill / Finchley Road","parentId":"490G00005161","stationId":"490G00005161","stopLetter":"R","topMostParentId":"490G00005161","towards":"Golders Green"},{"icsId":"1009232","id":"490009232N","lat":51.56514,"lon":-0.19643,"name":"Llanvanor Road","parentId":"490G00009232","stationId":"490G00009232","stopLetter":"M","topMostParentId":"490G00009232","towards":"Golders Green Or Finchley Central"},{"icsId":"1006262","id":"490006262N","lat":51.56755,"lon":-0.19518,"name":"Dunstan Road","parentId":"490G00006262","stationId":"490G00006262","stopLetter":"N","topMostParentId":"490G00006262","towards":"Golders Green Or Finchley"},{"icsId":"1007267","id":"490007267GM","lat":51.57109,"lon":-0.19546,"name":"Golders Green / Finchley Road","parentId":"490G00007267","stationId":"490G00007267","stopLetter":"GM","topMostParentId":"490G00007267","towards":"East Finchley Or Finchley Central"},{"icsId":"1000087","id":"490000087GB","lat":51.57198,"lon":-0.19392,"name":"Golders Green Station","stopLetter":"GB","topMostParentId":"490000087GB","zone":"3"}]}]}