{"direction":"outbound","lineId":"250","lineName":"250","mode":"bus","stopPointSequences":[{"stopPoint":[{"icsId":"1007523","id":"490007523G","lat":51.46539,"lon":-0.11372,"name":"Brixton Road / Brixton Police Station","parentId":"490G000549","stationId":"490G000549","stopLetter":"G","topMostParentId":"490G000549","towards":"Streatham Hill"},{"icsId":"1000031","id":"490000031P","lat":51.46198,"lon":-0.11522,"name":"Brixton Station","stopLetter":"P","topMostParentId":"490000031P","towards":"Streatham Hill","zone":"2"},{"icsId":"1011793","id":"490011793S","lat":51.45879,"lon":-0.11693,"name":"Rush Common","parentId":"490G00011793","stationId":"490G00011793","stopLetter":"BA","topMostParentId":"490G00011793","towards":"Clapham Park Or Streatham"},{"icsId":"1004362","id":"490004362S1","lat":51.45634,"lon":-0.11833,"name":"Brixton Water Lane","parentId":"490G00004362","stationId":"490G00004362","stopLetter":"BB","topMostParentId":"490G00004362","towards":"Clapham Park Or Streatham"},{"icsId":"1004101","id":"490004101S","lat":51.45406,"lon":-0.12,"name":"Blenheim Gardens","parentId":"490G00004101","stationId":"490G00004101","stopLetter":"BC","topMostParentId":"490G00004101","towards":"Streatham"},{"icsId":"1008544","id":"490008544S","lat":51.45221,"lon":-0.1212,"name":"Jebb Avenue / Brixton Prison","parentId":"490G00008544","stationId":"490G00008544","stopLetter":"BD","topMostParentId":"490G00008544","towards":"Clapham Park Or Streatham"},{"icsId":"1015218","id":"490015218S","lat":51.44882,"lon":-0.12366,"name":"New Park Road","parentId":"490G00015218","stationId":"490G00015218","stopLetter":"BE","topMostParentId":"490G00015218","towards":"Clapham Park Or Streatham"},{"icsId":"1008310","id":"490008310S","lat":51.44706,"lon":-0.12421,"name":"Holmewood Road","parentId":"490G00008310","stationId":"490G00008310","stopLetter":"BF","topMostParentId":"490G00008310","towards":"Clapham Park, Streatham Common Or Tooting"},{"icsId":"1019763","id":"490005234S","lat":51.44429,"lon":-0.12442,"name":"Streatham Hill / Christchurch Road","parentId":"490G00019763","stationId":"490G00019763","stopLetter":"BH","topMostParentId":"490G00019763","towards":"Crystal Palace, Norbury Or Tooting"},{"icsId":"1013186","id":"490013186S","lat":51.44202,"lon":-0.12438,"name":"Telford Avenue","parentId":"490G00013186","stationId":"490G00013186","stopLetter":"W","topMostParentId":"490G00013186","towards":"Crystal Palace, Norbury Or Tooting"},{"icsId":"1019944","id":"490001281D","lat":51.4394,"lon":-0.12583,"name":"Streatham Hill Stn  / Streatham Hill","parentId":"490G000969","stationId":"490G000969","stopLetter":"D","topMostParentId":"490G000969","towards":"Crystal Palace, Norbury Or Tooting"},{"icsId":"1009076","id":"490009076F","lat":51.43718,"lon":-0.12717,"name":"Leigham Court Road","parentId":"490G000632","stationId":"490G000632","stopLetter":"F","topMostParentId":"490G000632","towards":"Norbury"},{"icsId":"1010078","id":"490010078J","lat":51.43593,"lon":-0.12774,"name":"Mount Ephraim Road","parentId":"490G00010078","stationId":"490G00010078","stopLetter":"J","topMostParentId":"490G00010078","towards":"Mitcham, Norbury Or Tooting"},{"icsId":"1008765","id":"490008765L","lat":51.43444,"lon":-0.12796,"name":"Kingscourt Road","parentId":"490G00008765","stationId":"490G00008765","stopLetter":"L","topMostParentId":"490G00008765","towards":"Mitcham, Norbury Or Tooting"},{"icsId":"1003758","id":"490003758N","lat":51.43235,"lon":-0.12885,"name":"Becmead Avenue","parentId":"490G00003758","stationId":"490G00003758","stopLetter":"N","topMostParentId":"490G00003758","towards":"Norbury"},{"icsId":"1012761","id":"490012761U","lat":51.42856,"lon":-0.1308,"name":"St Leonard's Church","parentId":"490G00012761","stationId":"490G00012761","stopLetter":"SA","topMostParentId":"490G00012761","towards":"Crystal Palace, Norbury Or Pollards Hill"},{"icsId":"1001279","id":"490001279S2","lat":51.4253,"lon":-0.13064,"name":"Streatham Station","stopLetter":"SC","topMostParentId":"490001279S2","towards":"Norbury"},{"icsId":"1012929","id":"490012929S5","lat":51.42401,"lon":-0.12998,"name":"Streatham United Reformed Church","parentId":"490G00012929","stationId":"490G00012929","stopLetter":"SD","topMostParentId":"490G00012929","towards":"Norbury"},{"icsId":"1012924","id":"490012924S","lat":51.42111,"lon":-0.12849,"name":"Streatham Common / Greyhound Lane","parentId":"490G00012924","stationId":"490G00012924","stopLetter":"CH","topMostParentId":"490G00012924","towards":"Pollards Hill Or Thornton Heath"},{"icsId":"1003389","id":"490003389S","lat":51.41711,"lon":-0.12615,"name":"Arragon Gardens","parentId":"490G00003389","stationId":"490G00003389","stopLetter":"CJ","topMostParentId":"490G00003389","towards":"Pollards Hill Or Thornton Heath"},{"icsId":"1008080","id":"490008080P","lat":51.41507,"lon":-0.12247,"name":"Hermitage Lane","parentId":"490G00008080","stationId":"490G00008080","stopLetter":"P","topMostParentId":"490G00008080","towards":"Thornton Heath"},{"icsId":"1005663","id":"490005663S","lat":51.4151,"lon":-0.11804,"name":"Courtland Avenue","parentId":"490G00005663","stationId":"490G00005663","stopLetter":"R","topMostParentId":"490G00005663","towards":"Thornton Heath"},{"icsId":"1010300","id":"490010300S","lat":51.414,"lon":-0.11434,"name":"Norbury Hill","parentId":"490G00010300","stationId":"490G00010300","stopLetter":"->S","topMostParentId":"490G00010300","towards":"Thornton Heath"},{"icsId":"1008650","id":"490008650S","lat":51.41125,"lon":-0.10875,"name":"Kensington Avenue","parentId":"490G00008650","stationId":"490G00008650","topMostParentId":"490G00008650","towards":"Thornton Heath"},{"icsId":"1007474","id":"490007474S","lat":51.40883,"lon":-0.10617,"name":"Green Lane Post Office","parentId":"490G00007474","stationId":"490G00007474","stopLetter":"->S","topMostParentId":"490G00007474","towards":"Thornton Heath"},{"icsId":"1005647","id":"490005647S","lat":51.40706,"lon":-0.10487,"name":"County Road","parentId":"490G00005647","stationId":"490G00005647","stopLetter":"->S","topMostParentId":"490G00005647","towards":"West Croydon"},{"icsId":"1010790","id":"490010790S","lat":51.40565,"lon":-0.10349,"name":"Park Lawn","parentId":"490G00010790","stationId":"490G00010790","stopLetter":"->S","topMostParentId":"490G00010790","towards":"West Croydon"},{"icsId":"1011901","id":"490011901S2","lat":51.40397,"lon":-0.1016,"name":"Sandfield Road","parentId":"490G00011901","stationId":"490G00011901","stopLetter":"->S","topMostParentId":"490G00011901","towards":"West Croydon"},{"icsId":"1020368","id":"490010744S","lat":51.40134,"lon":-0.10007,"name":"Parchmore Methodist Church","parentId":"490G00020368","stationId":"490G00020368","stopLetter":"->S","topMostParentId":"490G00020368","towards":"West Croydon"},{"icsId":"1015449","id":"490015449F","lat":51.39963,"lon":-0.09893,"name":"Thornton Heath Clock Tower","parentId":"490G000896","stationId":"490G000896","stopLetter":"F","topMostParentId":"490G000896","towards":"West Croydon"},{"icsId":"1001294","id":"490001294C","lat":51.39846,"lon":-0.09946,"name":"Thornton Heath Station","stopLetter":"C","topMostParentId":"490001294C","towards":"West Croydon"},{"icsId":"1004471","id":"490004471A","lat":51.39755,"lon":-0.10277,"name":"Brook Road","parentId":"490G00004471","stationId":"490G00004471","stopLetter":"A","topMostParentId":"490G00004471","towards":"West Croydon"},{"icsId":"1003905","id":"490003905S1","lat":51.3963,"lon":-0.10616,"name":"Bensham Lane","parentId":"490G00003905","stationId":"490G00003905","stopLetter":"X","topMostParentId":"490G00003905","towards":"West Croydon"},{"icsId":"1004342","id":"490004342W","lat":51.39539,"lon":-0.10911,"name":"Whitehorse Manor Brigstock Site","parentId":"490G00004342","stationId":"490G00004342","stopLetter":"N","topMostParentId":"490G00004342","towards":"West Croydon"},{"icsId":"1004343","id":"490004343M","lat":51.39349,"lon":-0.11342,"name":"Brigstock Road / London Road","parentId":"490G00004343","stationId":"490G00004343","stopLetter":"M","topMostParentId":"490G00004343","towards":"West Croydon"},{"icsId":"1013632","id":"490013632G","lat":51.39236,"lon":-0.11334,"name":"Thornton Heath Pond","parentId":"490G00013632","stationId":"490G00013632","stopLetter":"G","topMostParentId":"490G00013632","towards":"Croydon"},{"icsId":"1006250","id":"490006250E","lat":51.39128,"lon":-0.11252,"name":"Dunheved Road North","parentId":"490G00006250","stationId":"490G00006250","stopLetter":"E","topMostParentId":"490G00006250","towards":"Croydon Town Centre"},{"icsId":"1009732","id":"490009732C","lat":51.38877,"lon":-0.11137,"name":"Croydon University Hospital","parentId":"490G00009732","stationId":"490G00009732","stopLetter":"C","topMostParentId":"490G00009732","towards":"Croydon Town Centre"},{"icsId":"1004368","id":"490004368S","lat":51.38545,"lon":-0.1098,"name":"Broad Green Avenue","parentId":"490G00004368","stationId":"490G00004368","stopLetter":"LA","topMostParentId":"490G00004368","towards":"Croydon Town Centre"},{"icsId":"1004367","id":"490004367S","lat":51.3827,"lon":-0.10696,"name":"Sumner Road","parentId":"490G00004367","stationId":"490G00004367","stopLetter":"LB","topMostParentId":"490G00004367","towards":"Croydon Town Centre"},{"icsId":"1005856","id":"490005856W4","lat":51.38127,"lon":-0.10554,"name":"Montague Road","parentId":"490G00005856","stationId":"490G00005856","stopLetter":"LC","topMostParentId":"490G00005856","towards":"Croydon Town Centre"},{"icsId":"1001324","id":"490001324W6","lat":51.37875,"lon":-0.10313,"name":"West Croydon Station","stopLetter":"WB","topMostParentId":"490001324W6","towards":"Addiscombe Or South Croydon"},{"icsId":"1011116","id":"490011116W7","lat":51.37804,"lon":-0.10144,"name":"Poplar Walk","parentId":"490G000709","stationId":"490G000709","stopLetter":"WD","topMostParentId":"490G000709","towards":"East Croydon"},{"icsId":"1014420","id":"490014420Z","lat":51.37932,"lon":-0.10131,"name":"West Croydon Bus Station","parentId":"490G000824","stationId":"490G000824","stopLetter":"B5","topMostParentId":"HUBWCY"}]}]}