{"direction":"outbound","lineId":"251","lineName":"251","mode":"bus","stopPointSequences":[{"stopPoint":[{"icsId":"1000009","id":"490000009W1","lat":51.61599,"lon":-0.13376,"name":"Arnos Grove Station","stopLetter":"B","topMostParentId":"490000009W1","towards":"Southgate Or Whetstone","zone":"4"},{"icsId":"1011439","id":"490011439W","lat":51.61623,"lon":-0.13596,"name":"Ravenscraig Road","parentId":"490G00011439","stationId":"490G00011439","stopLetter":"C","topMostParentId":"490G00011439","towards":"Barnet, Brent Cross Or Whetstone"},{"icsId":"1003953","id":"490003953D","lat":51.6163,"lon":-0.13987,"name":"Betstyle Circus","parentId":"490G00003953","stationId":"490G00003953","stopLetter":"D","topMostParentId":"490G00003953","towards":"Brent Cross, East Barnet Or Whetstone"},{"icsId":"1004790","id":"490004790H","lat":51.61765,"lon":-0.14337,"name":"Carlisle Place","parentId":"490G00004790","stationId":"490G00004790","stopLetter":"H","topMostParentId":"490G00004790","towards":"Whetstone"},{"icsId":"1012381","id":"490012381W","lat":51.61907,"lon":-0.14538,"name":"Spencer Road","parentId":"490G00012381","stationId":"490G00012381","stopLetter":"BH","topMostParentId":"490G00012381","towards":"Whetstone"},{"icsId":"1003707","id":"490003707N","lat":51.62272,"lon":-0.15187,"name":"Beaconsfield Road","parentId":"490G00003707","stationId":"490G00003707","stopLetter":"BJ","topMostParentId":"490G00003707","towards":"Whetstone"},{"icsId":"1003697","id":"490003697W","lat":51.62468,"lon":-0.15652,"name":"Bawtry Road","parentId":"490G00003697","stationId":"490G00003697","stopLetter":"BK","topMostParentId":"490G00003697","towards":"Whetstone"},{"icsId":"1011400","id":"490011400W","lat":51.6259,"lon":-0.15985,"name":"Raleigh Drive","parentId":"490G00011400","stationId":"490G00011400","stopLetter":"BL","topMostParentId":"490G00011400","towards":"High Barnet Or Totteridge"},{"icsId":"1011085","id":"490011085W","lat":51.6272,"lon":-0.16131,"name":"Pollard Road","stopLetter":"BM","topMostParentId":"490011085W","towards":"High Barnet Or Totteridge"},{"icsId":"1010140","id":"490010140W","lat":51.62908,"lon":-0.16524,"name":"Myddelton Park","parentId":"490G00010140","stationId":"490G00010140","stopLetter":"BQ","topMostParentId":"490G00010140","towards":"High Barnet, North Finchley Or Totteridge"},{"icsId":"1010496","id":"490010496W","lat":51.63002,"lon":-0.1702,"name":"Oakleigh Park North","parentId":"490G00010496","stationId":"490G00010496","stopLetter":"->W","topMostParentId":"490G00010496","towards":"High Barnet, North Finchley Or Totteridge"},{"icsId":"1014563","id":"490014563D","lat":51.6299,"lon":-0.17398,"name":"Whetstone / the Griffin","parentId":"490G00014563","stationId":"490G00014563","stopLetter":"D","topMostParentId":"490G00014563","towards":"Barnet, North Finchley Or Totteridge"},{"icsId":"1000237","id":"490000237B","lat":51.63008,"lon":-0.17676,"name":"Totteridge & Whetstone Stn","stopLetter":"B","topMostParentId":"490000237B","towards":"Mill Hill Or Finchley","zone":"4"},{"icsId":"1009313","id":"490009313W","lat":51.63048,"lon":-0.18313,"name":"Longland Drive","parentId":"490G00009313","stationId":"490G00009313","stopLetter":"->W","topMostParentId":"490G00009313","towards":"Mill Hill"},{"icsId":"1009188","id":"490009188W","lat":51.63094,"lon":-0.18785,"name":"Links Drive","parentId":"490G00009188","stationId":"490G00009188","stopLetter":"->W","topMostParentId":"490G00009188","towards":"Mill Hill"},{"icsId":"1013741","id":"490013741W","lat":51.63016,"lon":-0.19518,"name":"Totteridge Green","parentId":"490G00013741","stationId":"490G00013741","stopLetter":"->W","topMostParentId":"490G00013741","towards":"Mill Hill"},{"icsId":"1010609","id":"490010609W","lat":51.63042,"lon":-0.19734,"name":"The Orange Tree","parentId":"490G00010609","stationId":"490G00010609","stopLetter":"->W","topMostParentId":"490G00010609","towards":"Mill Hill"},{"icsId":"1013742","id":"490013742W","lat":51.63345,"lon":-0.20122,"name":"Totteridge War Memorial","parentId":"490G00013742","stationId":"490G00013742","stopLetter":"->W","topMostParentId":"490G00013742","towards":"Mill Hill"},{"icsId":"1007343","id":"490007343W","lat":51.63448,"lon":-0.20544,"name":"Grange Avenue","parentId":"490G00007343","stationId":"490G00007343","stopLetter":"->W","topMostParentId":"490G00007343","towards":"Mill Hill"},{"icsId":"1009997","id":"490009997W","lat":51.63374,"lon":-0.21213,"name":"Horseshoe Lane","parentId":"490G00009997","stationId":"490G00009997","stopLetter":"->W","topMostParentId":"490G00009997","towards":"Mill Hill"},{"icsId":"1006486","id":"490006486W","lat":51.63207,"lon":-0.22038,"name":"Ellern Mede and Denham Farms","parentId":"490G00006486","stationId":"490G00006486","stopLetter":"->W","topMostParentId":"490G00006486","towards":"Mill Hill"},{"icsId":"1012661","id":"490012661W","lat":51.63084,"lon":-0.22717,"name":"Totteridge Common / Mill Hill","parentId":"490G00012661","stationId":"490G00012661","stopLetter":"->W","topMostParentId":"490G00012661","towards":"Mill Hill Broadway"},{"icsId":"1014432","id":"490014432W","lat":51.63054,"lon":-0.22939,"name":"West End House","parentId":"490G00014432","stationId":"490G00014432","stopLetter":"->W","topMostParentId":"490G00014432","towards":"Mill Hill"},{"icsId":"1008062","id":"490008062W","lat":51.63045,"lon":-0.23541,"name":"Hendon Wood Lane","parentId":"490G00008062","stationId":"490G00008062","stopLetter":"->W","topMostParentId":"490G00008062","towards":"Burnt Oak"},{"icsId":"1009901","id":"490009901S","lat":51.62717,"lon":-0.24085,"name":"Mill Hill / the Rising Sun","parentId":"490G00009901","stationId":"490G00009901","stopLetter":"->S","topMostParentId":"490G00009901","towards":"Burnt Oak"},{"icsId":"1008201","id":"490008201W2","lat":51.62505,"lon":-0.23702,"name":"Holcombe Hill","parentId":"490G00008201","stationId":"490G00008201","topMostParentId":"490G00008201","towards":"Burnt Oak"},{"icsId":"1012752","id":"490012752S","lat":51.62108,"lon":-0.24268,"name":"Sunnyfield","parentId":"490G00012752","stationId":"490G00012752","topMostParentId":"490G00012752","towards":"Burnt Oak"},{"icsId":"1013917","id":"490013917U","lat":51.61833,"lon":-0.24489,"name":"Uphill Road","parentId":"490G00013917","stationId":"490G00013917","stopLetter":"U","topMostParentId":"490G00013917","towards":"Burnt Oak"},{"icsId":"1006881","id":"490006881H","lat":51.61506,"lon":-0.24589,"name":"Flower Lane / Sacred Heart Church","parentId":"490G00006881","stationId":"490G00006881","stopLetter":"H","topMostParentId":"490G00006881","towards":"Edgware Or Brent Cross"},{"icsId":"1001193","id":"490001193A","lat":51.61341,"lon":-0.24895,"name":"Mill Hill Broadway Station","stopLetter":"A","topMostParentId":"490001193A","towards":"Burnt Oak"},{"icsId":"1009466","id":"490009466W","lat":51.61062,"lon":-0.24936,"name":"Lyndhurst Avenue","parentId":"490G00009466","stationId":"490G00009466","stopLetter":"->W","topMostParentId":"490G00009466","towards":"Burnt Oak Or Edgware"},{"icsId":"1006664","id":"490006664S","lat":51.60909,"lon":-0.25085,"name":"Eversfield Gardens","parentId":"490G00006664","stationId":"490G00006664","stopLetter":"->S","topMostParentId":"490G00006664","towards":"Brent Cross, Edgware Or Queensbury"},{"icsId":"1007265","id":"490007265W","lat":51.60745,"lon":-0.25294,"name":"Goldbeaters Grove","parentId":"490G00007265","stationId":"490G00007265","stopLetter":"->W","topMostParentId":"490G00007265","towards":"Brent Cross, Edgware Or Queensbury"},{"icsId":"1005753","id":"490005753W","lat":51.60501,"lon":-0.25725,"name":"Burnt Oak Leisure Centre","parentId":"490G00005753","stationId":"490G00005753","stopLetter":"QW","topMostParentId":"490G00005753","towards":"Edgware Or Queensbury"},{"icsId":"1006942","id":"490006942W","lat":51.60414,"lon":-0.26034,"name":"Gunter Grove","parentId":"490G00006942","stationId":"490G00006942","stopLetter":"T","topMostParentId":"490G00006942","towards":"Edgware Or Queensbury"},{"icsId":"1000034","id":"490000034R","lat":51.60197,"lon":-0.26486,"name":"Burnt Oak Station","stopLetter":"R","topMostParentId":"490000034R","towards":"Edgware","zone":"4"},{"icsId":"1004618","id":"490004618C","lat":51.6018,"lon":-0.26884,"name":"Burnt Oak Broadway","parentId":"490G000434","stationId":"490G000434","stopLetter":"C","topMostParentId":"490G000434","towards":"Edgware"},{"icsId":"1004617","id":"490004617B","lat":51.6032,"lon":-0.27078,"name":"North Road","parentId":"490G000433","stationId":"490G000433","stopLetter":"B","topMostParentId":"490G000433","towards":"Edgware"},{"icsId":"1006425","id":"490006425HB","lat":51.60602,"lon":-0.27422,"name":"Edgware Community Hospital","parentId":"490G00006425","stationId":"490G00006425","stopLetter":"HB","topMostParentId":"490G00006425","towards":"Edgware"},{"icsId":"1006004","id":"490006004HC","lat":51.60734,"lon":-0.27543,"name":"Deansbrook Road","parentId":"490G00006004","stationId":"490G00006004","stopLetter":"HC","topMostParentId":"490G00006004","towards":"Edgware"},{"icsId":"1012411","id":"490012411P","lat":51.60982,"lon":-0.27851,"name":"Spring Villa Road","parentId":"490G00012411","stationId":"490G00012411","stopLetter":"P","topMostParentId":"490G00012411","towards":"Edgware"},{"icsId":"1012618","id":"490011171H","lat":51.61242,"lon":-0.27739,"name":"Manor Park Crescent","parentId":"490G00012618","stationId":"490G00012618","stopLetter":"H","topMostParentId":"490G00012618","towards":"Borehamwood Or Edgware"},{"icsId":"1000070","id":"490000070G","lat":51.6134,"lon":-0.27552,"name":"Edgware Station","stopLetter":"G","topMostParentId":"490000070G","zone":"5"}]}]}