{"direction":"outbound","lineId":"273","lineName":"273","mode":"bus","stopPointSequences":[{"stopPoint":[{"icsId":"1009116","id":"490009116N","lat":51.4662,"lon":-0.01215,"name":"Conington Road","parentId":"490G00009116","stationId":"490G00009116","stopLetter":"->N","topMostParentId":"490G00009116"},{"icsId":"1001177","id":"490001177X","lat":51.46382,"lon":-0.01242,"name":"Lewisham Station","stopLetter":"D","topMostParentId":"490001177X","towards":"Blackheath Or Lee Green","zone":"2+3"},{"icsId":"1003864","id":"490003864N","lat":51.46181,"lon":-0.00699,"name":"Belmont Hill","parentId":"490G00003864","stationId":"490G00003864","stopLetter":"N","topMostParentId":"490G00003864","towards":"Eltham, Grove Park Or Kidbrooke"},{"icsId":"1003868","id":"490003868E","lat":51.45988,"lon":-0.00403,"name":"Belmont Park","parentId":"490G00003868","stationId":"490G00003868","stopLetter":"P","topMostParentId":"490G00003868","towards":"Eltham, Grove Park Or Kidbrooke"},{"icsId":"1018705","id":"490018705S","lat":51.45816,"lon":-0.00187,"name":"Manor Park / Lee High Road","parentId":"490G00018705","stationId":"490G00018705","stopLetter":"L","topMostParentId":"490G00018705","towards":"Hither Green"},{"icsId":"1018706","id":"490018706S","lat":51.4562,"lon":-0.00158,"name":"Northbrook Road","parentId":"490G00018706","stationId":"490G00018706","stopLetter":"->S","topMostParentId":"490G00018706","towards":"Hither Green"},{"icsId":"1018707","id":"490018707S","lat":51.45489,"lon":-0.00042,"name":"Kellerton Road","parentId":"490G00018707","stationId":"490G00018707","stopLetter":"->S","topMostParentId":"490G00018707","towards":"Lee"},{"icsId":"1001152","id":"490018708S","lat":51.45269,"lon":-0.00071,"name":"Hither Green Station","stopLetter":"U","topMostParentId":"490018708S","towards":"Lee"},{"icsId":"1018709","id":"490018709E","lat":51.45163,"lon":0.00189,"name":"Fernbrook Crescent","parentId":"490G00018709","stationId":"490G00018709","stopLetter":"V","topMostParentId":"490G00018709","towards":"Lee"},{"icsId":"1018710","id":"490018710E","lat":51.45123,"lon":0.00548,"name":"Manor Lane","parentId":"490G00018710","stationId":"490G00018710","stopLetter":"W","topMostParentId":"490G00018710","towards":"Lee"},{"icsId":"1001176","id":"490001176B","lat":51.44951,"lon":0.01285,"name":"Lee Station","stopLetter":"B","topMostParentId":"490001176B","towards":"Catford Or Grove Park"},{"icsId":"1014480","id":"490014480S","lat":51.44688,"lon":0.01427,"name":"Westhorne Avenue","parentId":"490G00014480","stationId":"490G00014480","stopLetter":"D","topMostParentId":"490G00014480","towards":"Catford Or Grove Park"},{"icsId":"1011428","id":"490011428S","lat":51.44551,"lon":0.01552,"name":"Kingshurst Road","parentId":"490G00011428","stationId":"490G00011428","stopLetter":"->S","topMostParentId":"490G00011428"},{"icsId":"1015292","id":"490015292S","lat":51.43575,"lon":0.01967,"name":"Baring Road / Coopers Lane","parentId":"490G00015292","stationId":"490G00015292","stopLetter":"T","topMostParentId":"490G00015292","towards":"Bromley, Catford Or Chislehurst"},{"icsId":"1007565","id":"490007565A","lat":51.43233,"lon":0.02137,"name":"Grove Park Bus Station","parentId":"490G000553","stationId":"490G000553","stopLetter":"A","topMostParentId":"490G000553","towards":"Catford Or Chislehurst"},{"icsId":"1015553","id":"490015553G","lat":51.4316,"lon":0.02295,"name":"Chinbrook Road / Baring Road","parentId":"490G000909","stationId":"490G000909","stopLetter":"G","topMostParentId":"490G000909","towards":"Chislehurst Or Mottingham"},{"icsId":"1013403","id":"490013403E","lat":51.43159,"lon":0.03055,"name":"Marvels Lane / Chinbrook Road","parentId":"490G00013403","stationId":"490G00013403","stopLetter":"A","topMostParentId":"490G00013403","towards":"Chislehurst Or Mottingham"},{"icsId":"1008922","id":"490008922S","lat":51.43047,"lon":0.03266,"name":"Lambscroft Avenue","parentId":"490G00008922","stationId":"490G00008922","stopLetter":"C","topMostParentId":"490G00008922","towards":"Chislehurst Or Mottingham"},{"icsId":"1008073","id":"490008073E","lat":51.42832,"lon":0.03535,"name":"Henry Cooper Way","parentId":"490G00008073","stationId":"490G00008073","stopLetter":"D","topMostParentId":"490G00008073","towards":"Eltham Or Chislehurst"},{"icsId":"1006215","id":"490006215E","lat":51.42916,"lon":0.03848,"name":"Duddington Close","parentId":"490G00006215","stationId":"490G00006215","stopLetter":"E","topMostParentId":"490G00006215","towards":"Chislehurst Or Eltham"},{"icsId":"1005655","id":"490005655E","lat":51.42997,"lon":0.04306,"name":"Court Farm Road","parentId":"490G00005655","stationId":"490G00005655","stopLetter":"F","topMostParentId":"490G00005655","towards":"Eltham Or Chislehurst"},{"icsId":"1003709","id":"490003709E","lat":51.42972,"lon":0.04605,"name":"Beaconsfield Road","parentId":"490G00003709","stationId":"490G00003709","stopLetter":"A","topMostParentId":"490G00003709","towards":"Eltham Or Chislehurst"},{"icsId":"1015403","id":"490015403E","lat":51.42878,"lon":0.05029,"name":"Dunkery Road / Ravensworth Road","parentId":"490G00015403","stationId":"490G00015403","stopLetter":"B","topMostParentId":"490G00015403","towards":"Chislehurst Or Eltham"},{"icsId":"1006254","id":"490006254E","lat":51.42908,"lon":0.05279,"name":"Dunkery Road / Mottingham Road","parentId":"490G00006254","stationId":"490G00006254","stopLetter":"C","topMostParentId":"490G00006254","towards":"Chislehurst Or Eltham"},{"icsId":"1006521","id":"490006521S","lat":51.42715,"lon":0.05541,"name":"Elmstead Lane","parentId":"490G00006521","stationId":"490G00006521","stopLetter":"D","topMostParentId":"490G00006521","towards":"Chislehurst"},{"icsId":"1010478","id":"490010478E","lat":51.42455,"lon":0.05873,"name":"Oakdene Avenue","parentId":"490G00010478","stationId":"490G00010478","stopLetter":"E","topMostParentId":"490G00010478","towards":"Chislehurst"},{"icsId":"1013496","id":"490013496S","lat":51.42147,"lon":0.06291,"name":"Ingleby Way","parentId":"490G00013496","stationId":"490G00013496","stopLetter":"C","topMostParentId":"490G00013496","towards":"Petts Wood"},{"icsId":"1003139","id":"490003139H","lat":51.41969,"lon":0.06598,"name":"Albany Road","parentId":"490G00003139","stationId":"490G00003139","stopLetter":"D","topMostParentId":"490G00003139","towards":"Petts Wood"},{"icsId":"1010817","id":"490010817K","lat":51.41737,"lon":0.06846,"name":"Chislehurst / Ashfield Lane","parentId":"490G00010817","stationId":"490G00010817","stopLetter":"K","topMostParentId":"490G00010817","towards":"Petts Wood"},{"icsId":"1005205","id":"490005205P","lat":51.41302,"lon":0.07351,"name":"Centre Common Road / War Memorial","parentId":"490G00005205","stationId":"490G00005205","stopLetter":"P","topMostParentId":"490G00005205","towards":"Bromley, Petts Wood Or Sidcup"},{"icsId":"1005197","id":"490005197S","lat":51.412,"lon":0.07515,"name":"Royal Parade","parentId":"490G00005197","stationId":"490G00005197","stopLetter":"Q","topMostParentId":"490G00005197","towards":"Orpington Or Petts Wood"},{"icsId":"1009572","id":"490009572S","lat":51.4085,"lon":0.08118,"name":"Manor Park Road","parentId":"490G00009572","stationId":"490G00009572","stopLetter":"->S","topMostParentId":"490G00009572","towards":"Orpington Or Petts Wood"},{"icsId":"1009067","id":"490009067S","lat":51.4018,"lon":0.08704,"name":"St Pauls Cray Road / Leesons Hill","parentId":"490G00009067","stationId":"490G00009067","stopLetter":"DB","topMostParentId":"490G00009067","towards":"Orpington Or Petts Wood"},{"icsId":"1004333","id":"490004333E","lat":51.40084,"lon":0.08882,"name":"Bridgewater Close","parentId":"490G00004333","stationId":"490G00004333","stopLetter":"DH","topMostParentId":"490G00004333","towards":"Petts Wood Or Orpington"},{"icsId":"1009679","id":"490009679E","lat":51.39979,"lon":0.09319,"name":"Marlings Park Avenue","parentId":"490G00009679","stationId":"490G00009679","stopLetter":"DJ","topMostParentId":"490G00009679","towards":"Petts Wood Or Orpington"},{"icsId":"1005361","id":"490005361E","lat":51.39732,"lon":0.10246,"name":"Clarendon Way","parentId":"490G00005361","stationId":"490G00005361","stopLetter":"W","topMostParentId":"490G00005361","towards":"Petts Wood Or Orpington"},{"icsId":"1009068","id":"490009068E","lat":51.39748,"lon":0.10388,"name":"Leesons Primary School","parentId":"490G00009068","stationId":"490G00009068","stopLetter":"X","topMostParentId":"490G00009068","towards":"Petts Wood Or Orpington"},{"icsId":"1001271","id":"490001271SB","lat":51.39571,"lon":0.10741,"name":"St Mary Cray Station","stopLetter":"SB","topMostParentId":"490001271SB","towards":"Orpington Or Petts Wood"},{"icsId":"1010455","id":"490010455SG","lat":51.39304,"lon":0.11154,"name":"Nugent Retail Park","parentId":"490G00010455","stationId":"490G00010455","stopLetter":"SG","topMostParentId":"490G00010455","towards":"Petts Wood Or Orpington"},{"icsId":"1012563","id":"490012563SH","lat":51.39041,"lon":0.11041,"name":"Stanley Way","parentId":"490G00012563","stationId":"490G00012563","stopLetter":"SH","topMostParentId":"490G00012563","towards":"Petts Wood Or Orpington"},{"icsId":"1008673","id":"490011155ST","lat":51.38878,"lon":0.10975,"name":"Kent Road","parentId":"490G00008673","stationId":"490G00008673","stopLetter":"ST","topMostParentId":"490G00008673","towards":"Petts Wood Or Orpington"},{"icsId":"1009653","id":"490009653W","lat":51.3892,"lon":0.10458,"name":"Marion Crescent","parentId":"490G00009653","stationId":"490G00009653","stopLetter":"SX","topMostParentId":"490G00009653","towards":"Petts Wood"},{"icsId":"1003486","id":"490003486W","lat":51.38944,"lon":0.10308,"name":"Austin Road","parentId":"490G00003486","stationId":"490G00003486","stopLetter":"->W","topMostParentId":"490G00003486","towards":"Petts Wood"},{"icsId":"1005729","id":"490005729W","lat":51.38995,"lon":0.10053,"name":"Cray Valley Road","parentId":"490G00005729","stationId":"490G00005729","stopLetter":"->W","topMostParentId":"490G00005729","towards":"Petts Wood"},{"icsId":"1005268","id":"490005268W","lat":51.3907,"lon":0.09529,"name":"Poverest Road / Church Hill Wood","parentId":"490G00005268","stationId":"490G00005268","stopLetter":"W","topMostParentId":"490G00005268","towards":"Petts Wood"},{"icsId":"1005202","id":"490005202W","lat":51.39088,"lon":0.09249,"name":"Poverest Road / Chislehurst Road","parentId":"490G00005202","stationId":"490G00005202","stopLetter":"X","topMostParentId":"490G00005202","towards":"Petts Wood"},{"icsId":"1008906","id":"490008906W","lat":51.39091,"lon":0.08955,"name":"Ladywood Avenue","parentId":"490G00008906","stationId":"490G00008906","stopLetter":"Y","topMostParentId":"490G00008906","towards":"Petts Wood Station"},{"icsId":"1010978","id":"490010978W","lat":51.39074,"lon":0.08468,"name":"Petts Wood Road","parentId":"490G00010978","stationId":"490G00010978","stopLetter":"Z","topMostParentId":"490G00010978","towards":"Petts Wood Station"},{"icsId":"1005819","id":"490005819W","lat":51.39047,"lon":0.07947,"name":"Cross Way","parentId":"490G00005819","stationId":"490G00005819","stopLetter":"->W","topMostParentId":"490G00005819","towards":"Petts Wood Station"},{"icsId":"1014868","id":"490014868G","lat":51.39027,"lon":0.0753,"name":"Woodland Way","parentId":"490G00014868","stationId":"490G00014868","stopLetter":"G","topMostParentId":"490G00014868","towards":"Petts Wood Station"},{"icsId":"1015388","id":"490015388D","lat":51.38923,"lon":0.07424,"name":"Station Square / Petts Wood Station","parentId":"490G000891","stationId":"490G000891","stopLetter":"D","topMostParentId":"490G000891","towards":"Chislehurst Or Orpington"}]}]}