{"direction":"outbound","lineId":"278","lineName":"278","mode":"bus","stopPointSequences":[{"stopPoint":[{"icsId":"1008016","id":"4900801619","lat":51.47137,"lon":-0.45346,"name":"Heathrow Central Bus Station","parentId":"910GHTRWCBS","stationId":"910GHTRWCBS","stopLetter":"19","topMostParentId":"HUBH13"},{"icsId":"1010245","id":"490010245N","lat":51.48033,"lon":-0.45958,"name":"Newport Road","parentId":"490G00010245","stationId":"490G00010245","stopLetter":"BS","topMostParentId":"490G00010245","towards":"Cranford, Hayes Or West Drayton"},{"icsId":"1012177","id":"490012177E","lat":51.4814,"lon":-0.45502,"name":"Sipson Way / Blunts Avenue","parentId":"490G00012177","stationId":"490G00012177","stopLetter":"BC","topMostParentId":"490G00012177","towards":"Cranford, Hayes Or Hatton Cross"},{"icsId":"1012176","id":"490012176E","lat":51.48132,"lon":-0.44824,"name":"Nene Road","parentId":"490G00012176","stationId":"490G00012176","stopLetter":"BJ","topMostParentId":"490G00012176","towards":"Cranford, Hayes Or Hatton Cross"},{"icsId":"1004139","id":"490004139E","lat":51.48117,"lon":-0.44484,"name":"Bolton's Lane","parentId":"490G00004139","stationId":"490G00004139","stopLetter":"BK","topMostParentId":"490G00004139","towards":"Cranford, Hayes Or Hatton Cross"},{"icsId":"1010251","id":"490010251G","lat":51.48097,"lon":-0.43919,"name":"New Road","parentId":"490G00010251","stationId":"490G00010251","stopLetter":"D","topMostParentId":"490G00010251","towards":"Cranford, Hayes Or Hatton Cross"},{"icsId":"1007811","id":"490007811B","lat":51.4813,"lon":-0.43448,"name":"Harlington Corner","parentId":"490G00007811","stationId":"490G00007811","stopLetter":"N","topMostParentId":"490G00007811","towards":"Hayes Town"},{"icsId":"1014434","id":"490014434N","lat":51.48517,"lon":-0.43461,"name":"West End Lane","parentId":"490G00014434","stationId":"490G00014434","stopLetter":"P","topMostParentId":"490G00014434","towards":"Hayes Town"},{"icsId":"1009564","id":"490009564N","lat":51.48755,"lon":-0.43593,"name":"Harlington High Street / Sipson Lane","parentId":"490G00009564","stationId":"490G00009564","stopLetter":"R","topMostParentId":"490G00009564","towards":"Hayes & Harlington Station"},{"icsId":"1007808","id":"490007808N","lat":51.48958,"lon":-0.43515,"name":"Brickfield Lane","parentId":"490G00007808","stationId":"490G00007808","stopLetter":"S","topMostParentId":"490G00007808","towards":"Hayes Town"},{"icsId":"1007812","id":"490012608N","lat":51.49641,"lon":-0.42761,"name":"Croyde Avenue","parentId":"490G00007812","stationId":"490G00007812","stopLetter":"T","topMostParentId":"490G00007812","towards":"Hayes Town"},{"icsId":"1011489","id":"490011489N","lat":51.49909,"lon":-0.42571,"name":"Redmead Road","parentId":"490G00011489","stationId":"490G00011489","stopLetter":"U","topMostParentId":"490G00011489","towards":"Hayes Town"},{"icsId":"1020310","id":"490020310N","lat":51.50041,"lon":-0.42478,"name":"Millington Road","parentId":"490G00020310","stationId":"490G00020310","stopLetter":"P","topMostParentId":"490G00020310","towards":"Hayes Town Or Yeading"},{"icsId":"1006702","id":"490006702N","lat":51.5019,"lon":-0.42335,"name":"Fairey Corner","parentId":"490G00006702","stationId":"490G00006702","stopLetter":"K","topMostParentId":"490G00006702","towards":"Hillingdon Hospital, Hayes End Or Yeading"},{"icsId":"1001144","id":"490001144N","lat":51.50333,"lon":-0.42076,"name":"Hayes & Harlington Station","stopLetter":"L","topMostParentId":"490001144N","towards":"Hillingdon Hospital, Hayes End Or Yeading"},{"icsId":"1007942","id":"490007942K","lat":51.50441,"lon":-0.41983,"name":"Clayton Road","parentId":"490G000581","stationId":"490G000581","stopLetter":"M","topMostParentId":"490G000581","towards":"Hillingdon Hospital, Hayes End Or Yeading"},{"icsId":"1000828","id":"490000828Z","lat":51.50681,"lon":-0.41909,"name":"Hayes Town Centre","parentId":"490G000162","stationId":"490G000162","stopLetter":"P","topMostParentId":"490G000162","towards":"Hayes End, Yeading Or Hillingdon Hospital"},{"icsId":"1004178","id":"490004178N","lat":51.51006,"lon":-0.42082,"name":"Botwell Lane","parentId":"490G00004178","stationId":"490G00004178","stopLetter":"N","topMostParentId":"490G00004178","towards":"Charville Lane Or Hayes End"},{"icsId":"1013751","id":"490013751N","lat":51.51264,"lon":-0.42015,"name":"Townfield Road","parentId":"490G00013751","stationId":"490G00013751","stopLetter":"M","topMostParentId":"490G00013751","towards":"Charville Lane Or Hayes End"},{"icsId":"1007009","id":"490007009N","lat":51.51597,"lon":-0.41989,"name":"Freemans Lane","parentId":"490G00007009","stationId":"490G00007009","stopLetter":"L","topMostParentId":"490G00007009","towards":"Charville Lane Or Hayes End"},{"icsId":"1005262","id":"490005262N","lat":51.51849,"lon":-0.41897,"name":"Church Green","parentId":"490G00005262","stationId":"490G00005262","stopLetter":"K","topMostParentId":"490G00005262","towards":"Charville Lane Or Hayes End"},{"icsId":"1013977","id":"490013977G","lat":51.52088,"lon":-0.41753,"name":"Church Road / Swift Close","parentId":"490G00013977","stationId":"490G00013977","stopLetter":"G","topMostParentId":"490G00013977","towards":"Charville Lane Or Hayes End"},{"icsId":"1008962","id":"490008962F","lat":51.5224,"lon":-0.42079,"name":"Uxbridge County Court","parentId":"490G00008962","stationId":"490G00008962","stopLetter":"F","topMostParentId":"490G00008962","towards":"Hillingdon Or Uxbridge"},{"icsId":"1011690","id":"490011690B","lat":51.52332,"lon":-0.4248,"name":"Rosedale Park","parentId":"490G00011690","stationId":"490G00011690","stopLetter":"B","topMostParentId":"490G00011690","towards":"Hillingdon Or Uxbridge"},{"icsId":"1010802","id":"490010802W","lat":51.52374,"lon":-0.427,"name":"Park Road","parentId":"490G00010802","stationId":"490G00010802","stopLetter":"XE","topMostParentId":"490G00010802","towards":"Hillingdon Or Uxbridge"},{"icsId":"1007946","id":"490015348W","lat":51.52472,"lon":-0.43184,"name":"Hayes End","parentId":"490G00007946","stationId":"490G00007946","stopLetter":"XF","topMostParentId":"490G00007946","towards":"Hillingdon Or Uxbridge"},{"icsId":"1010032","id":"490010032W","lat":51.52555,"lon":-0.43617,"name":"Morgans Lane","parentId":"490G00010032","stationId":"490G00010032","stopLetter":"XH","topMostParentId":"490G00010032","towards":"Hillingdon Or Uxbridge"},{"icsId":"1014426","id":"490014426W","lat":51.52688,"lon":-0.43973,"name":"West Drayton Road","parentId":"490G00014426","stationId":"490G00014426","stopLetter":"XJ","topMostParentId":"490G00014426","towards":"Hillingdon Or Uxbridge"},{"icsId":"1008013","id":"490008006W","lat":51.52822,"lon":-0.44353,"name":"New Road","parentId":"490G00008013","stationId":"490G00008013","stopLetter":"UH","topMostParentId":"490G00008013","towards":"Hillingdon Or Uxbridge"},{"icsId":"1009069","id":"490009069W","lat":51.53011,"lon":-0.44775,"name":"Hillingdon Heath / Lees Road","parentId":"490G00009069","stationId":"490G00009069","stopLetter":"UJ","topMostParentId":"490G00009069","towards":"Hillingdon Or Uxbridge"},{"icsId":"1008227","id":"490008227W","lat":51.53158,"lon":-0.45046,"name":"Hillingdon Primary School","parentId":"490G00008227","stationId":"490G00008227","stopLetter":"UK","topMostParentId":"490G00008227","towards":"Hillingdon Or Uxbridge"},{"icsId":"1013974","id":"490013974N","lat":51.53387,"lon":-0.45268,"name":"Crescent Parade","parentId":"490G00013974","stationId":"490G00013974","stopLetter":"US","topMostParentId":"490G00013974","towards":"Ickenham Or Uxbridge"},{"icsId":"1005422","id":"490005422N","lat":51.53872,"lon":-0.45226,"name":"Clifton Gardens","parentId":"490G00005422","stationId":"490G00005422","stopLetter":"UT","topMostParentId":"490G00005422","towards":"Ickenham Or Uxbridge"},{"icsId":"1010483","id":"490010483N","lat":51.54235,"lon":-0.45023,"name":"Oak Farm Library","parentId":"490G00010483","stationId":"490G00010483","stopLetter":"->N","topMostParentId":"490G00010483","towards":"Ickenham Or Uxbridge"},{"icsId":"1007540","id":"490007540N","lat":51.54603,"lon":-0.44981,"name":"Grosvenor Crescent","parentId":"490G00007540","stationId":"490G00007540","stopLetter":"->N","topMostParentId":"490G00007540","towards":"Ickenham Or Uxbridge"},{"icsId":"1003928","id":"490008222N","lat":51.55141,"lon":-0.44906,"name":"Hillingdon Circus","parentId":"490G000413","stationId":"490G000413","stopLetter":"E","topMostParentId":"490G000413","towards":"Ickenham Or Uxbridge"},{"icsId":"1000111","id":"490000111N","lat":51.55367,"lon":-0.44831,"name":"Hillingdon Station","stopLetter":"A","topMostParentId":"490000111N","towards":"Ickenham Or Uxbridge","zone":"6"},{"icsId":"1013089","id":"490013089N","lat":51.55674,"lon":-0.44727,"name":"Swakeleys Drive","parentId":"490G00013089","stationId":"490G00013089","stopLetter":"->N","topMostParentId":"490G00013089","towards":"Ickenham"},{"icsId":"1006136","id":"490006136N","lat":51.56092,"lon":-0.44612,"name":"Douay Martyrs School","parentId":"490G00006136","stationId":"490G00006136","stopLetter":"->N","topMostParentId":"490G00006136","towards":"Ruislip"},{"icsId":"1000120","id":"490000120D","lat":51.56291,"lon":-0.44451,"name":"Ickenham Station","stopLetter":"D","topMostParentId":"490000120D","towards":"Ruislip","zone":"6"},{"icsId":"1013091","id":"490013091A","lat":51.56523,"lon":-0.44322,"name":"Austins Lane","parentId":"490G000778","stationId":"490G000778","stopLetter":"A","topMostParentId":"490G000778","towards":"Ruislip"},{"icsId":"1010472","id":"490010472N","lat":51.56762,"lon":-0.44149,"name":"Oak Avenue","parentId":"490G00010472","stationId":"490G00010472","stopLetter":"L","topMostParentId":"490G00010472","towards":"Ruislip"},{"icsId":"1000267","id":"490000267B","lat":51.57008,"lon":-0.43763,"name":"West Ruislip Station","stopLetter":"M","topMostParentId":"490000267B","towards":"Ruislip","zone":"6"},{"icsId":"1012038","id":"490012038E","lat":51.57183,"lon":-0.43304,"name":"Sharps Lane","parentId":"490G00012038","stationId":"490G00012038","stopLetter":"N","topMostParentId":"490G00012038","towards":"Ruislip"},{"icsId":"1013488","id":"490013488E","lat":51.5727,"lon":-0.43088,"name":"Church Avenue","parentId":"490G00013488","stationId":"490G00013488","stopLetter":"P","topMostParentId":"490G00013488","towards":"Ruislip"},{"icsId":"1008454","id":"490011782E","lat":51.57392,"lon":-0.42397,"name":"Midcroft","parentId":"490G00008454","stationId":"490G00008454","stopLetter":"E","topMostParentId":"490G00008454","towards":"Pinner Or Ruislip Station"},{"icsId":"1011781","id":"490011781D","lat":51.57292,"lon":-0.42282,"name":"Brickwall Lane","parentId":"490G00011781","stationId":"490G00011781","stopLetter":"D","topMostParentId":"490G00011781","towards":"Pinner Or Ruislip Station"},{"icsId":"1000197","id":"490000197Z1","lat":51.57205,"lon":-0.42133,"name":"Ruislip Station","stopLetter":"Z1","topMostParentId":"490000197Z1","zone":"6"}]}]}