{"direction":"outbound","lineId":"28","lineName":"28","mode":"bus","stopPointSequences":[{"stopPoint":[{"icsId":"1012622","id":"490012622S","lat":51.53321,"lon":-0.21834,"name":"Station Terrace","parentId":"490G00012622","stationId":"490G00012622","stopLetter":"KJ","topMostParentId":"490G00012622","towards":"Ladbroke Grove, Maida Vale Or Westbourne Park"},{"icsId":"1003583","id":"490003583S","lat":51.53047,"lon":-0.2163,"name":"Banister Road","parentId":"490G00003583","stationId":"490G00003583","stopLetter":"KM","topMostParentId":"490G00003583","towards":"Ladbroke Grove or Westbourne Park"},{"icsId":"1007860","id":"490007860S","lat":51.52848,"lon":-0.21597,"name":"Harrow Road / Kilburn Lane","parentId":"490G00007860","stationId":"490G00007860","stopLetter":"KN","topMostParentId":"490G00007860","towards":"Ladbroke Grove Or Westbourne Park"},{"icsId":"1006839","id":"490006832E","lat":51.52717,"lon":-0.21289,"name":"Fifth Avenue","parentId":"490G00006839","stationId":"490G00006839","stopLetter":"Z","topMostParentId":"490G00006839","towards":"Paddington Green Or Notting Hill Gate"},{"icsId":"1013613","id":"490013613E","lat":51.52678,"lon":-0.20904,"name":"Third Avenue","parentId":"490G00013613","stationId":"490G00013613","stopLetter":"P","topMostParentId":"490G00013613","towards":"Paddington Green Or Notting Hill Gate"},{"icsId":"1011135","id":"490011135E","lat":51.52576,"lon":-0.20437,"name":"Portnall Road","parentId":"490G00011135","stationId":"490G00011135","stopLetter":"R","topMostParentId":"490G00011135","towards":"Paddington Green Or Notting Hill Gate"},{"icsId":"1018988","id":"490003444E","lat":51.52471,"lon":-0.20249,"name":"Great Western Road / Elgin Avenue","parentId":"490G00018988","stationId":"490G00018988","stopLetter":"D","topMostParentId":"490G00018988","towards":"Paddington Green Or Notting Hill Gate"},{"icsId":"1018986","id":"490007861K","lat":51.52312,"lon":-0.20159,"name":"Great Western Road / Harrow Road","parentId":"490G00018986","stationId":"490G00018986","stopLetter":"K","topMostParentId":"490G00018986","towards":"Notting Hill Gate"},{"icsId":"1000259","id":"490000259B","lat":51.52028,"lon":-0.19994,"name":"Westbourne Park Station","stopLetter":"B","topMostParentId":"490000259B","towards":"Notting Hill Gate","zone":"2"},{"icsId":"1007420","id":"490008697N","lat":51.51892,"lon":-0.19753,"name":"Shrewsbury Road / Brunel Estate","parentId":"490G00007420","stationId":"490G00007420","stopLetter":"N","topMostParentId":"490G00007420","towards":"Notting Hill Gate Or Paddington"},{"icsId":"1012948","id":"490012948S","lat":51.51798,"lon":-0.19594,"name":"St Stephens Gardens","parentId":"490G00012948","stationId":"490G00012948","stopLetter":"->S","topMostParentId":"490G00012948","towards":"Notting Hill Gate Or Paddington"},{"icsId":"1014402","id":"490014402Z","lat":51.5155,"lon":-0.19516,"name":"Westbourne Grove","parentId":"490G00014402","stationId":"490G00014402","stopLetter":"Z","topMostParentId":"490G00014402","towards":"Notting Hill Gate"},{"icsId":"1005089","id":"490005089D","lat":51.51458,"lon":-0.19551,"name":"Pembridge Villas","parentId":"490G00005089","stationId":"490G00005089","stopLetter":"PW","topMostParentId":"490G00005089","towards":"Holland Park Or Kensington High Street"},{"icsId":"1005085","id":"490005085S","lat":51.51283,"lon":-0.19743,"name":"Chepstow Crescent","parentId":"490G00005085","stationId":"490G00005085","stopLetter":"PX","topMostParentId":"490G00005085","towards":"Shepherd's Bush Or Kensington High Street"},{"icsId":"1000167","id":"490015039C","lat":51.50926,"lon":-0.19708,"name":"Notting Hill Gate Station","stopLetter":"C","topMostParentId":"490015039C","towards":"Kensington High Street","zone":"1+2"},{"icsId":"1019161","id":"490000167K","lat":51.50909,"lon":-0.19397,"name":"Palace Gardens Terr / Notting Hill Gte","parentId":"490G00019161","stationId":"490G00019161","stopLetter":"K","topMostParentId":"490G00019161","towards":"Kensington High Street"},{"icsId":"1012055","id":"490012055S","lat":51.50687,"lon":-0.19452,"name":"Sheffield Terrace","parentId":"490G00012055","stationId":"490G00012055","stopLetter":"P","topMostParentId":"490G00012055","towards":"Knightsbridge, Earls Court Or Olympia"},{"icsId":"1010536","id":"490010536K","lat":51.50367,"lon":-0.19187,"name":"York House Place / Kensington High St","parentId":"490G00010536","stationId":"490G00010536","stopLetter":"K","topMostParentId":"490G00010536","towards":"Knightsbridge, Earls Court Or Olympia"},{"icsId":"1000110","id":"490000110E","lat":51.50132,"lon":-0.19223,"name":"High Street Kensington Station","stopLetter":"E","topMostParentId":"490000110E","towards":"Chelsea, Fulham Or Shepherd's Bush","zone":"1"},{"icsId":"1010984","id":"490010984T","lat":51.49981,"lon":-0.19649,"name":"Phillimore Gardens","parentId":"490G00010984","stationId":"490G00010984","stopLetter":"T","topMostParentId":"490G00010984","towards":"Hammersmith, Earls Court Or Fulham"},{"icsId":"1005528","id":"490005528X","lat":51.49877,"lon":-0.19928,"name":"The Design Museum","parentId":"490G00005528","stationId":"490G00005528","stopLetter":"X","topMostParentId":"490G00005528","towards":"Fulham Broadway Or Hammersmith"},{"icsId":"1003106","id":"490003106W","lat":51.49753,"lon":-0.20318,"name":"Warwick Gardens","parentId":"490G00003106","stationId":"490G00003106","stopLetter":"Z","topMostParentId":"490G00003106","towards":"Fulham Broadway Or Hammersmith"},{"icsId":"1000170","id":"490008652C","lat":51.49624,"lon":-0.20641,"name":"Kensington Olympia Station","stopLetter":"C","topMostParentId":"490008652C","towards":"Fulham Broadway Or Hammersmith","zone":"2"},{"icsId":"1007709","id":"490007709S","lat":51.49443,"lon":-0.21047,"name":"Kensington Olympia","parentId":"490G00007709","stationId":"490G00007709","stopLetter":"P","topMostParentId":"HUBKPA","towards":"Fulham Broadway"},{"icsId":"1009492","id":"490009492S","lat":51.49267,"lon":-0.20772,"name":"Lytton Estate","parentId":"490G00009492","stationId":"490G00009492","stopLetter":"R","topMostParentId":"490G00009492","towards":"Fulham Broadway"},{"icsId":"1000265","id":"490000265A","lat":51.49057,"lon":-0.20663,"name":"West Kensington Station","stopLetter":"S","topMostParentId":"490000265A","towards":"Fulham Broadway","zone":"2"},{"icsId":"1014485","id":"490014485S","lat":51.48803,"lon":-0.20381,"name":"West Kensington Estate","parentId":"490G00014485","stationId":"490G00014485","stopLetter":"BS","topMostParentId":"490G00014485","towards":"Fulham Broadway"},{"icsId":"1009156","id":"490009156X","lat":51.48614,"lon":-0.20277,"name":"Lillie Road","parentId":"490G00009156","stationId":"490G00009156","stopLetter":"BR","topMostParentId":"490G00009156","towards":"Fulham Broadway"},{"icsId":"1011382","id":"490011382Z","lat":51.48399,"lon":-0.20136,"name":"North End Road Market","parentId":"490G00011382","stationId":"490G00011382","stopLetter":"BH","topMostParentId":"490G00011382","towards":"Sands End Or Wandsworth"},{"icsId":"1000352","id":"490008547E","lat":51.48022,"lon":-0.19844,"name":"Fulham Broadway","parentId":"490G00000352","stationId":"490G00000352","stopLetter":"E","topMostParentId":"490G00000352","towards":"South Kensington, Sands End Or Wandsworth"},{"icsId":"1007057","id":"490007057S","lat":51.47925,"lon":-0.19453,"name":"Fulham Town Hall","parentId":"490G000526","stationId":"490G000526","stopLetter":"S","topMostParentId":"490G000526","towards":"Sands End Or Wandsworth Bridge"},{"icsId":"1013888","id":"490013888S","lat":51.4778,"lon":-0.19233,"name":"Tyrawley Road","parentId":"490G00013888","stationId":"490G00013888","stopLetter":"GE","topMostParentId":"490G00013888","towards":"Chelsea Or Wandsworth Bridge"},{"icsId":"1010225","id":"490010225S","lat":51.47554,"lon":-0.19252,"name":"New King's Road","parentId":"490G00010225","stationId":"490G00010225","stopLetter":"GQ","topMostParentId":"490G00010225","towards":"Clapham Junction Or Wandsworth"},{"icsId":"1018012","id":"490018012S","lat":51.47392,"lon":-0.19195,"name":"Bovingdon Road","parentId":"490G00018012","stationId":"490G00018012","stopLetter":"->S","topMostParentId":"490G00018012","towards":"Wandsworth Or Clapham Junction"},{"icsId":"1011916","id":"490011916S","lat":51.47177,"lon":-0.19137,"name":"Sands End / Hazlebury Road","parentId":"490G00011916","stationId":"490G00011916","stopLetter":"->S","topMostParentId":"490G00011916","towards":"Clapham Junction Or Wandsworth"},{"icsId":"1010474","id":"490010474S","lat":51.46995,"lon":-0.19098,"name":"Oakbury Road","parentId":"490G00010474","stationId":"490G00010474","stopLetter":"TK","topMostParentId":"490G00010474","towards":"Clapham Junction Or Wandsworth"},{"icsId":"1008434","id":"490008434S","lat":51.46709,"lon":-0.18973,"name":"Townmead Road","parentId":"490G00008434","stationId":"490G00008434","stopLetter":"TL","topMostParentId":"490G00008434","towards":"Clapham Junction Or Wandsworth"},{"icsId":"1004326","id":"490004326S","lat":51.46335,"lon":-0.18618,"name":"Bridgend Road","parentId":"490G00004326","stationId":"490G00004326","stopLetter":"TM","topMostParentId":"490G00004326","towards":"Clapham Junction Or Wandsworth Town Centre"},{"icsId":"1012212","id":"490012212W","lat":51.46179,"lon":-0.18674,"name":"Swandon Way","parentId":"490G00012212","stationId":"490G00012212","stopLetter":"TB","topMostParentId":"490G00012212","towards":"Earlsfield"},{"icsId":"1014195","id":"490014195M","lat":51.45787,"lon":-0.19002,"name":"Wandsworth Town Hall","parentId":"490G00014195","stationId":"490G00014195","stopLetter":"M","topMostParentId":"490G00014195","towards":"Earlsfield"},{"icsId":"1019847","id":"490014184S","lat":51.45576,"lon":-0.19257,"name":"Southside Shopping Centre","parentId":"490G00019847","stationId":"490G00019847","stopLetter":"S","topMostParentId":"490G00019847","towards":"Earlsfield"},{"icsId":"1015371","id":"490015371W","lat":51.45395,"lon":-0.19301,"name":"Mapleton Crescent","parentId":"490G00015371","stationId":"490G00015371","stopLetter":"->W","topMostParentId":"490G00015371"}]}]}