{"direction":"outbound","lineId":"282","lineName":"282","mode":"bus","stopPointSequences":[{"stopPoint":[{"icsId":"1006292","id":"490006292R","lat":51.50793,"lon":-0.34717,"name":"Ealing Hospital","parentId":"490G00006292","stationId":"490G00006292","stopLetter":"T","topMostParentId":"490G00006292","towards":"Greenford"},{"icsId":"1012638","id":"490012638W","lat":51.50886,"lon":-0.3498,"name":"St Bernard's Gatehouse / Windmill Park","parentId":"490G00012638","stationId":"490G00012638","stopLetter":"UJ","topMostParentId":"490G00012638","towards":"Greenford, Southall Or Windmill Lane"},{"icsId":"1008498","id":"490008498E2","lat":51.50987,"lon":-0.35768,"name":"Iron Bridge","parentId":"490G00008498","stationId":"490G00008498","stopLetter":"UD","topMostParentId":"490G00008498","towards":"Boston Manor Or Ealing"},{"icsId":"1014492","id":"490014492N","lat":51.5124,"lon":-0.35515,"name":"West Middlesex Golf Course","parentId":"490G00014492","stationId":"490G00014492","stopLetter":"UP","topMostParentId":"490G00014492","towards":"Greenford Station Or Yeading"},{"icsId":"1007278","id":"490007278N","lat":51.517,"lon":-0.35504,"name":"Golf Links Estate","parentId":"490G00007278","stationId":"490G00007278","stopLetter":"D","topMostParentId":"490G00007278","towards":"Greenford Station Or Yeading"},{"icsId":"1014766","id":"490014766N","lat":51.51997,"lon":-0.35476,"name":"Windmill Lane","parentId":"490G00014766","stationId":"490G00014766","stopLetter":"E","topMostParentId":"490G00014766","towards":"Greenford Station Or Yeading"},{"icsId":"1007447","id":"490007447N","lat":51.52452,"lon":-0.35346,"name":"Greenford Depot","parentId":"490G00007447","stationId":"490G00007447","stopLetter":"U","topMostParentId":"490G00007447","towards":"Greenford Station Or Yeading"},{"icsId":"1007450","id":"490007446A","lat":51.52808,"lon":-0.3547,"name":"Oldfield Lane South","parentId":"490G00007450","stationId":"490G00007450","stopLetter":"P","topMostParentId":"490G00007450","towards":"Southall Or Northolt"},{"icsId":"1010897","id":"490010897E2","lat":51.5287,"lon":-0.35983,"name":"Pembroke Road","parentId":"490G00010897","stationId":"490G00010897","stopLetter":"R","topMostParentId":"490G00010897","towards":"Hayes, Southall Or Yeading"},{"icsId":"1006370","id":"490006370W","lat":51.5308,"lon":-0.36456,"name":"Beechwood Avenue","parentId":"490G00006370","stationId":"490G00006370","stopLetter":"EL","topMostParentId":"490G00006370","towards":"Hayes, Southall Or Yeading"},{"icsId":"1007782","id":"490007457W","lat":51.53244,"lon":-0.36998,"name":"Greenford High School","parentId":"490G00007782","stationId":"490G00007782","stopLetter":"EM","topMostParentId":"490G00007782","towards":"Hayes Or Yeading"},{"icsId":"1003116","id":"490003116S","lat":51.53265,"lon":-0.37277,"name":"Adrienne Avenue","parentId":"490G00003116","stationId":"490G00003116","stopLetter":"WS","topMostParentId":"490G00003116","towards":"Hayes, Northolt Or Ruislip"},{"icsId":"1004373","id":"490004373W","lat":51.53268,"lon":-0.37981,"name":"Broadmead Road","parentId":"490G00004373","stationId":"490G00004373","stopLetter":"WT","topMostParentId":"490G00004373","towards":"Northolt Or Ruislip"},{"icsId":"1008596","id":"490008596W","lat":51.53353,"lon":-0.3865,"name":"Wayfarer Road","parentId":"490G00008596","stationId":"490G00008596","stopLetter":"->W","topMostParentId":"490G00008596","towards":"Northolt Or Ruislip"},{"icsId":"1014992","id":"490014992N1","lat":51.53729,"lon":-0.38916,"name":"Yeading / White Hart Roundabout","parentId":"490G00014992","stationId":"490G00014992","stopLetter":"V","topMostParentId":"490G00014992","towards":"Northolt Station"},{"icsId":"1003891","id":"490003891N","lat":51.53919,"lon":-0.38598,"name":"Bengarth Road / Northolt Library","parentId":"490G00003891","stationId":"490G00003891","stopLetter":"TD","topMostParentId":"490G00003891","towards":"Northolt Station"},{"icsId":"1013120","id":"490013120N","lat":51.5409,"lon":-0.382,"name":"Sycamore Close","parentId":"490G00013120","stationId":"490G00013120","stopLetter":"TE","topMostParentId":"490G00013120","towards":"Northolt Station"},{"icsId":"1013155","id":"490013155N","lat":51.54252,"lon":-0.37894,"name":"Target Roundabout","parentId":"490G00013155","stationId":"490G00013155","stopLetter":"TF","topMostParentId":"490G00013155","towards":"Northolt Station"},{"icsId":"1006638","id":"490006638N","lat":51.54395,"lon":-0.37539,"name":"Kingston Close","parentId":"490G00006638","stationId":"490G00006638","stopLetter":"TH","topMostParentId":"490G00006638","towards":"Eastcote Or Harrow"},{"icsId":"1003178","id":"490003178W","lat":51.54492,"lon":-0.3729,"name":"Alderney Gardens","parentId":"490G00003178","stationId":"490G00003178","stopLetter":"TJ","topMostParentId":"490G00003178","towards":"Eastcote Or Harrow"},{"icsId":"1009959","id":"490009959C","lat":51.54645,"lon":-0.37048,"name":"Moat Farm Road","parentId":"490G00009959","stationId":"490G00009959","stopLetter":"C","topMostParentId":"490G00009959","towards":"Eastcote, Harrow Or Smiths Farm"},{"icsId":"1000162","id":"490000162A","lat":51.54767,"lon":-0.36878,"name":"Northolt Station","stopLetter":"A","topMostParentId":"490000162A","towards":"Eastcote Or Harrow","zone":"5"},{"icsId":"1010392","id":"490010392F","lat":51.54921,"lon":-0.3697,"name":"Northolt Leisure Centre","parentId":"490G00010392","stationId":"490G00010392","stopLetter":"F","topMostParentId":"490G00010392","towards":"Eastcote"},{"icsId":"1013343","id":"490013343N","lat":51.55112,"lon":-0.37353,"name":"Northolt High School","parentId":"490G00013343","stationId":"490G00013343","stopLetter":"G","topMostParentId":"490G00013343","towards":"Eastcote"},{"icsId":"1011909","id":"490011909N","lat":51.55343,"lon":-0.37671,"name":"Sandown Way","parentId":"490G00011909","stationId":"490G00011909","stopLetter":"L","topMostParentId":"490G00011909","towards":"Eastcote"},{"icsId":"1012231","id":"490012231N","lat":51.55662,"lon":-0.37906,"name":"Somervell Road","parentId":"490G00012231","stationId":"490G00012231","stopLetter":"->N","topMostParentId":"490G00012231","towards":"Eastcote"},{"icsId":"1006328","id":"490006327N","lat":51.55874,"lon":-0.38027,"name":"Eastcote Lane","parentId":"490G00006328","stationId":"490G00006328","stopLetter":"->N","topMostParentId":"490G00006328","towards":"Eastcote"},{"icsId":"1014064","id":"490014064N","lat":51.5601,"lon":-0.38067,"name":"Victoria Road","parentId":"490G00014064","stationId":"490G00014064","stopLetter":"->N","topMostParentId":"490G00014064","towards":"Northwood Hills"},{"icsId":"1009300","id":"490009300N","lat":51.56321,"lon":-0.38298,"name":"Long Drive","parentId":"490G00009300","stationId":"490G00009300","stopLetter":"->N","topMostParentId":"490G00009300","towards":"Northwood Hills"},{"icsId":"1013350","id":"490013350N","lat":51.56578,"lon":-0.38592,"name":"The Fairway","parentId":"490G00013350","stationId":"490G00013350","stopLetter":"->N","topMostParentId":"490G00013350","towards":"Northwood Hills"},{"icsId":"1013301","id":"490013301N","lat":51.56948,"lon":-0.39009,"name":"Whitby Road","parentId":"490G00013301","stationId":"490G00013301","stopLetter":"->N","topMostParentId":"490G00013301","towards":"Northwood Hills"},{"icsId":"1006801","id":"490006801N","lat":51.57225,"lon":-0.39353,"name":"Ferncroft Avenue","parentId":"490G00006801","stationId":"490G00006801","stopLetter":"M","topMostParentId":"490G00006801","towards":"Northwood Hills"},{"icsId":"1000066","id":"490000066B","lat":51.57622,"lon":-0.39733,"name":"Eastcote Station","stopLetter":"Q","topMostParentId":"490000066B","towards":"Northwood Hills Or South Harrow","zone":"5"},{"icsId":"1010030","id":"490010030N","lat":51.57757,"lon":-0.39879,"name":"Morford Way","parentId":"490G00010030","stationId":"490G00010030","stopLetter":"R","topMostParentId":"490G00010030","towards":"Northwood"},{"icsId":"1009768","id":"490009768N","lat":51.58026,"lon":-0.40011,"name":"Meadow Way","parentId":"490G00009768","stationId":"490G00009768","stopLetter":"S","topMostParentId":"490G00009768","towards":"Northwood"},{"icsId":"1004337","id":"490004337W","lat":51.5839,"lon":-0.40115,"name":"Bridle Road","parentId":"490G00004337","stationId":"490G00004337","stopLetter":"T","topMostParentId":"490G00004337","towards":"Northwood"},{"icsId":"1008557","id":"490008557N","lat":51.5863,"lon":-0.40503,"name":"Eastcote Road","parentId":"490G00008557","stationId":"490G00008557","stopLetter":"X","topMostParentId":"490G00008557","towards":"Northwood Hills"},{"icsId":"1013606","id":"490013606N","lat":51.58925,"lon":-0.40788,"name":"The Woodman","parentId":"490G00013606","stationId":"490G00013606","stopLetter":"Y","topMostParentId":"490G00013606","towards":"Northwood Hills"},{"icsId":"1007935","id":"490007935N","lat":51.592,"lon":-0.40757,"name":"Haydon Drive","parentId":"490G00007935","stationId":"490G00007935","stopLetter":"->N","topMostParentId":"490G00007935","towards":"Mount Vernon Hospital"},{"icsId":"1009858","id":"490009858N","lat":51.59418,"lon":-0.40937,"name":"Middleton Drive","parentId":"490G00009858","stationId":"490G00009858","stopLetter":"->N","topMostParentId":"490G00009858","towards":"Mount Vernon Hospital"},{"icsId":"1019773","id":"490010441N","lat":51.59761,"lon":-0.41032,"name":"Colchester Road","parentId":"490G00019773","stationId":"490G00019773","stopLetter":"->N","topMostParentId":"490G00019773","towards":"Mount Vernon Hospital"},{"icsId":"1000166","id":"490000166B","lat":51.60117,"lon":-0.40969,"name":"Northwood Hills Station","stopLetter":"B","topMostParentId":"490000166B","towards":"Northwood Or Pinner","zone":"6"},{"icsId":"1008558","id":"490011022D","lat":51.60293,"lon":-0.41061,"name":"Northwood Hills Circus","parentId":"490G000613","stationId":"490G000613","stopLetter":"E","topMostParentId":"490G000613","towards":"Mount Vernon Hospital"},{"icsId":"1010429","id":"490010429W","lat":51.60345,"lon":-0.41266,"name":"Northwood Health Centre","parentId":"490G00010429","stationId":"490G00010429","stopLetter":"G","topMostParentId":"490G00010429","towards":"Mount Vernon Hospital"},{"icsId":"1019880","id":"490010431W","lat":51.60448,"lon":-0.41655,"name":"Northwood Iron Bridge","parentId":"490G00019880","stationId":"490G00019880","stopLetter":"->W","topMostParentId":"490G00019880","towards":"Mount Vernon Hospital"},{"icsId":"1010431","id":"490010431N","lat":51.60551,"lon":-0.41742,"name":"Hallowell Road","parentId":"490G00010431","stationId":"490G00010431","stopLetter":"->N","topMostParentId":"490G00010431","towards":"Mount Vernon Hospital"},{"icsId":"1006563","id":"490006563N","lat":51.60803,"lon":-0.41582,"name":"Emmanuel Church","parentId":"490G00006563","stationId":"490G00006563","stopLetter":"->N","topMostParentId":"490G00006563","towards":"Mount Vernon Hospital"},{"icsId":"1005292","id":"490005292W","lat":51.6103,"lon":-0.41558,"name":"Church Road","parentId":"490G00005292","stationId":"490G00005292","stopLetter":"->W","topMostParentId":"490G00005292","towards":"Mount Vernon Hospital"},{"icsId":"1000165","id":"490015504C","lat":51.61127,"lon":-0.42269,"name":"Northwood Station","stopLetter":"C","topMostParentId":"490015504C","towards":"Mount Vernon Hospital","zone":"6"},{"icsId":"1006032","id":"490006032H","lat":51.61197,"lon":-0.42657,"name":"Dene Road","parentId":"490G00006032","stationId":"490G00006032","stopLetter":"H","topMostParentId":"490G00006032","towards":"Mount Vernon Hospital"},{"icsId":"1013374","id":"490013374E","lat":51.61188,"lon":-0.43091,"name":"The Glen","parentId":"490G00013374","stationId":"490G00013374","stopLetter":"P","topMostParentId":"490G00013374","towards":"Mount Vernon Hospital Or Harefield"},{"icsId":"1011565","id":"490011565W","lat":51.61165,"lon":-0.43247,"name":"Myrtleside Close","parentId":"490G00011565","stationId":"490G00011565","stopLetter":"R","topMostParentId":"490G00011565","towards":"Harefield"},{"icsId":"1008322","id":"490008322N","lat":51.61404,"lon":-0.43768,"name":"Holy Trinity School","parentId":"490G00008322","stationId":"490G00008322","stopLetter":"S","topMostParentId":"490G00008322","towards":"Harefield"},{"icsId":"1010101","id":"490010101Z","lat":51.61562,"lon":-0.44093,"name":"Thirlmere Gardens","parentId":"490G00010101","stationId":"490G00010101","stopLetter":"->W","topMostParentId":"490G00010101","towards":"Mount Vernon Hospital Or Harefield"},{"icsId":"1010100","id":"490010100W","lat":51.61636,"lon":-0.44489,"name":"Mount Vernon Hospital","parentId":"490G00010100","stationId":"490G00010100","stopLetter":"D","topMostParentId":"490G00010100"}]}]}