{"direction":"outbound","lineId":"288","lineName":"288","mode":"bus","stopPointSequences":[{"stopPoint":[{"icsId":"1011328","id":"490011328S","lat":51.59172,"lon":-0.28539,"name":"Queensbury Morrisons","parentId":"490G00011328","stationId":"490G00011328","stopLetter":"->S","topMostParentId":"490G00011328","towards":"Wembley Or Hendon"},{"icsId":"1000185","id":"490000185AA","lat":51.59445,"lon":-0.28544,"name":"Queensbury Station","stopLetter":"AA","topMostParentId":"490000185AA","towards":"Burnt Oak, Edgware Or Stanmore","zone":"4"},{"icsId":"1009966","id":"490009966N","lat":51.59663,"lon":-0.28917,"name":"Mollison Way","parentId":"490G00009966","stationId":"490G00009966","stopLetter":"H","topMostParentId":"490G00009966","towards":"Edgware"},{"icsId":"1004334","id":"490004334N","lat":51.59929,"lon":-0.29094,"name":"Bridgewater Gardens","parentId":"490G00004334","stationId":"490G00004334","stopLetter":"J","topMostParentId":"490G00004334","towards":"Edgware"},{"icsId":"1012639","id":"490012639E","lat":51.60169,"lon":-0.28804,"name":"St Bride's Avenue","parentId":"490G00012639","stationId":"490G00012639","stopLetter":"K","topMostParentId":"490G00012639","towards":"Edgware"},{"icsId":"1009815","id":"490009815E2","lat":51.60361,"lon":-0.28277,"name":"Merlin Crescent","parentId":"490G00009815","stationId":"490G00009815","stopLetter":"->E","topMostParentId":"490G00009815","towards":"Edgware"},{"icsId":"1003537","id":"490003537E","lat":51.60452,"lon":-0.28066,"name":"Bacon Lane","parentId":"490G00003537","stationId":"490G00003537","stopLetter":"->E","topMostParentId":"490G00003537","towards":"Edgware"},{"icsId":"1006004","id":"490006004HC","lat":51.60734,"lon":-0.27543,"name":"Deansbrook Road","parentId":"490G00006004","stationId":"490G00006004","stopLetter":"HC","topMostParentId":"490G00006004","towards":"Edgware"},{"icsId":"1012411","id":"490012411P","lat":51.60982,"lon":-0.27851,"name":"Spring Villa Road","parentId":"490G00012411","stationId":"490G00012411","stopLetter":"P","topMostParentId":"490G00012411","towards":"Edgware"},{"icsId":"1012618","id":"490011171H","lat":51.61242,"lon":-0.27739,"name":"Manor Park Crescent","parentId":"490G00012618","stationId":"490G00012618","stopLetter":"H","topMostParentId":"490G00012618","towards":"Borehamwood Or Edgware"},{"icsId":"1000070","id":"490000070G","lat":51.6134,"lon":-0.27552,"name":"Edgware Station","stopLetter":"G","topMostParentId":"490000070G","zone":"5"},{"icsId":"1000070","id":"490000070F","lat":51.61267,"lon":-0.27424,"name":"Edgware Bus Station","stopLetter":"F","topMostParentId":"490000070F","towards":"Borehamwood, Broadfields Or Bushey Heath","zone":"5"},{"icsId":"1011173","id":"490000070B","lat":51.61456,"lon":-0.27576,"name":"Edgware Station  / Station Road","parentId":"490G00011173","stationId":"490G00011173","stopLetter":"B","topMostParentId":"490G00011173","towards":"Barnet, Borehamwood Or Mill Hill"},{"icsId":"1011254","id":"490011254N","lat":51.6179,"lon":-0.27745,"name":"Purcells Avenue","parentId":"490G00011254","stationId":"490G00011254","stopLetter":"P","topMostParentId":"490G00011254","towards":"Borehamwood Or Mill Hill"},{"icsId":"1006423","id":"490006423N","lat":51.62082,"lon":-0.27765,"name":"Edgwarebury Lane / Edgware Way","parentId":"490G00006423","stationId":"490G00006423","stopLetter":"Q","topMostParentId":"490G00006423","towards":"Borehamwood Or Mill Hill"},{"icsId":"1014801","id":"490014801N","lat":51.62253,"lon":-0.2744,"name":"Wolmer Close","parentId":"490G00014801","stationId":"490G00014801","stopLetter":"S","topMostParentId":"490G00014801","towards":"Broadfields Estate"},{"icsId":"1018702","id":"490018702N","lat":51.6258,"lon":-0.2734,"name":"Bullescroft Road","parentId":"490G00018702","stationId":"490G00018702","stopLetter":"->N","topMostParentId":"490G00018702","towards":"Broadfields Estate"},{"icsId":"1007230","id":"490007230N","lat":51.6273,"lon":-0.27288,"name":"Glengall Road","parentId":"490G00007230","stationId":"490G00007230","stopLetter":"->N","topMostParentId":"490G00007230","towards":"Broadfields Estate"},{"icsId":"1009762","id":"490009762E","lat":51.62947,"lon":-0.27232,"name":"Meadfield","parentId":"490G00009762","stationId":"490G00009762","topMostParentId":"490G00009762","towards":"Edgware"}]}]}