{"direction":"outbound","lineId":"29","lineName":"29","mode":"bus","stopPointSequences":[{"stopPoint":[{"icsId":"1019962","id":"490015567G2","lat":51.59663,"lon":-0.10924,"name":"Lordship Lane","parentId":"490G000971","stationId":"490G000971","stopLetter":"G","topMostParentId":"490G000971","towards":"Turnpike Lane"},{"icsId":"1009461","id":"490009461KA","lat":51.59314,"lon":-0.10669,"name":"Brampton Park Road","parentId":"490G00009461","stationId":"490G00009461","stopLetter":"KA","topMostParentId":"490G00009461","towards":"Manor House Or Tottenham"},{"icsId":"1000241","id":"490000241M","lat":51.59084,"lon":-0.10367,"name":"Turnpike Lane Station","stopLetter":"M","topMostParentId":"490000241M","towards":"Manor House Or Hornsey","zone":"3"},{"icsId":"1014465","id":"490014465Z","lat":51.58793,"lon":-0.10123,"name":"West Green Road","parentId":"490G00014465","stationId":"490G00014465","stopLetter":"Z","topMostParentId":"490G00014465","towards":"Manor House"},{"icsId":"1006728","id":"490006728S","lat":51.58621,"lon":-0.10064,"name":"Falkland Road","parentId":"490G00006728","stationId":"490G00006728","stopLetter":"H","topMostParentId":"490G00006728","towards":"Manor House"},{"icsId":"1003916","id":"490003916S","lat":51.58471,"lon":-0.09985,"name":"Beresford Road","parentId":"490G00003916","stationId":"490G00003916","stopLetter":"HZ","topMostParentId":"490G00003916","towards":"Manor House"},{"icsId":"1012434","id":"490012434HK","lat":51.58298,"lon":-0.09976,"name":"St Ann's Road","parentId":"490G00012434","stationId":"490G00012434","stopLetter":"HK","topMostParentId":"490G00012434","towards":"Manor House"},{"icsId":"1009719","id":"490011676HN","lat":51.58101,"lon":-0.09938,"name":"Mattison Road","parentId":"490G00009719","stationId":"490G00009719","stopLetter":"HN","topMostParentId":"490G00009719","towards":"Manor House"},{"icsId":"1001139","id":"490001139HO","lat":51.5778,"lon":-0.09857,"name":"Harringay Green Lanes Station","stopLetter":"HM","topMostParentId":"490001139HO","towards":"Finsbury Park Or Newington Green"},{"icsId":"1006574","id":"490006574HB","lat":51.57597,"lon":-0.09845,"name":"Endymion Road","parentId":"490G00006574","stationId":"490G00006574","stopLetter":"HB","topMostParentId":"490G00006574","towards":"Finsbury Park Or Newington Green"},{"icsId":"1011743","id":"490011743HC","lat":51.573,"lon":-0.09724,"name":"Rowley Gardens","parentId":"490G00011743","stationId":"490G00011743","stopLetter":"HC","topMostParentId":"490G00011743","towards":"Finsbury Park Or Newington Green"},{"icsId":"1000142","id":"490000142B","lat":51.57216,"lon":-0.09679,"name":"Manor House Station","stopLetter":"B","topMostParentId":"490000142B","towards":"Finsbury Park","zone":"2+3"},{"icsId":"1020010","id":"490015076L","lat":51.56983,"lon":-0.09712,"name":"Portland Rise","parentId":"490G00020010","stationId":"490G00020010","stopLetter":"R","topMostParentId":"490G00020010","towards":"Holloway Nags Head"},{"icsId":"1003208","id":"490003208S","lat":51.56738,"lon":-0.10026,"name":"Alexandra Grove","parentId":"490G00003208","stationId":"490G00003208","stopLetter":"P","topMostParentId":"490G00003208","towards":"Holloway Nags Head"},{"icsId":"1015078","id":"490015078M","lat":51.56525,"lon":-0.10324,"name":"Finsbury Park / Blackstock Road","parentId":"490G000858","stationId":"490G000858","stopLetter":"M","topMostParentId":"HUBFPK","towards":"Holloway Nags Head"},{"icsId":"1000083","id":"490000083S","lat":51.56374,"lon":-0.10638,"name":"Finsbury Park Station","stopLetter":"S","topMostParentId":"490000083S","towards":"Holloway Nags Head","zone":"2"},{"icsId":"1006889","id":"490006889Z","lat":51.56266,"lon":-0.10771,"name":"Isledon Road","parentId":"490G000519","stationId":"490G000519","stopLetter":"T","topMostParentId":"490G000519","towards":"Holloway, Nags Head"},{"icsId":"1003929","id":"490003929S","lat":51.55966,"lon":-0.11042,"name":"Berriman Road","parentId":"490G00003929","stationId":"490G00003929","stopLetter":"NM","topMostParentId":"490G00003929","towards":"Camden Town, Kings Cross Or Tufnell Park"},{"icsId":"1013695","id":"490008368S","lat":51.55799,"lon":-0.11191,"name":"Sobell Centre","parentId":"490G00013695","stationId":"490G00013695","stopLetter":"NN","topMostParentId":"490G00013695","towards":"Camden Town, Kings Cross Or Tufnell Park"},{"icsId":"1008298","id":"490008298R","lat":51.55652,"lon":-0.11575,"name":"Holloway Road","parentId":"490G00008298","stationId":"490G00008298","stopLetter":"R","topMostParentId":"490G00008298","towards":"Kings Cross Or Camden Town"},{"icsId":"1004679","id":"490004679X","lat":51.55541,"lon":-0.11867,"name":"Caledonian Road","parentId":"490G00004679","stationId":"490G00004679","stopLetter":"X","topMostParentId":"490G00004679","towards":"Camden Town"},{"icsId":"1007614","id":"490008230S","lat":51.55366,"lon":-0.12257,"name":"Hillmarton Road","parentId":"490G00007614","stationId":"490G00007614","stopLetter":"M","topMostParentId":"490G00007614","towards":"Camden Town"},{"icsId":"1015052","id":"490015052S","lat":51.55095,"lon":-0.12654,"name":"Hilldrop Road","parentId":"490G00015052","stationId":"490G00015052","stopLetter":"A","topMostParentId":"490G00015052","towards":"Camden Town"},{"icsId":"1004278","id":"490004278S","lat":51.54935,"lon":-0.12841,"name":"Brecknock Road","parentId":"490G00004278","stationId":"490G00004278","stopLetter":"B","topMostParentId":"490G00004278","towards":"Camden Town"},{"icsId":"1004715","id":"490004715W","lat":51.54706,"lon":-0.13148,"name":"Camden Park Road","parentId":"490G00004715","stationId":"490G00004715","stopLetter":"C","topMostParentId":"490G00004715","towards":"Euston Or Warren Street"},{"icsId":"1011887","id":"490011887W","lat":51.54599,"lon":-0.13302,"name":"Sandall Road","parentId":"490G00011887","stationId":"490G00011887","stopLetter":"D","topMostParentId":"490G00011887","towards":"Camden Town"},{"icsId":"1011616","id":"490011616W","lat":51.54413,"lon":-0.13559,"name":"Murray Street","parentId":"490G00011616","stationId":"490G00011616","stopLetter":"->W","topMostParentId":"490G00011616","towards":"Euston Or Warren Street Station"},{"icsId":"1001045","id":"490001045F","lat":51.54232,"lon":-0.13783,"name":"Camden Road Station","stopLetter":"F","topMostParentId":"490001045F","towards":"Euston Or Tottenham Court Road"},{"icsId":"1000036","id":"490000036S","lat":51.5398,"lon":-0.14135,"name":"Camden Town Station","stopLetter":"S","topMostParentId":"490000036S","towards":"Great Portland St Or Tottenham Court Road","zone":"2"},{"icsId":"1011168","id":"490011168S2","lat":51.53716,"lon":-0.13952,"name":"Pratt Street","parentId":"490G00011168","stationId":"490G00011168","stopLetter":"V","topMostParentId":"490G00011168","towards":"Warren Street Station"},{"icsId":"1000152","id":"490000152C","lat":51.53344,"lon":-0.13862,"name":"Mornington Crescent Station","stopLetter":"C","topMostParentId":"490000152C","towards":"Warren Street Station","zone":"2"},{"icsId":"1012158","id":"490012158S","lat":51.53074,"lon":-0.1386,"name":"Silverdale","parentId":"490G00012158","stationId":"490G00012158","stopLetter":"W","topMostParentId":"490G00012158","towards":"Great Portland Street Or Tottenham Court Road"},{"icsId":"1002319","id":"490010158S","lat":51.52707,"lon":-0.13852,"name":"William Road","parentId":"490G00002319","stationId":"490G00002319","stopLetter":"K","topMostParentId":"490G00002319","towards":"Great Portland Street Or Tottenham Court Road"},{"icsId":"1015047","id":"490015042U","lat":51.52581,"lon":-0.13847,"name":"Warren Street Station  / Euston Road","parentId":"490G00015047","stationId":"490G00015047","stopLetter":"U","topMostParentId":"490G00015047","towards":"Baker Street Or Tottenham Court Road"},{"icsId":"1002121","id":"490002121ZT","lat":51.52257,"lon":-0.13608,"name":"Capper Street","parentId":"490G000343","stationId":"490G000343","stopLetter":"N","topMostParentId":"490G000343","towards":"Leicester Square Or Oxford Circus"},{"icsId":"1000089","id":"490005084Z","lat":51.52059,"lon":-0.13423,"name":"Goodge Street Station","stopLetter":"D","topMostParentId":"490005084Z","towards":"Leicester Square Or Oxford Circus","zone":"1"},{"icsId":"1002124","id":"490002124ZZ","lat":51.51807,"lon":-0.13158,"name":"Stephen Street","parentId":"490G000346","stationId":"490G000346","stopLetter":"B","topMostParentId":"490G000346","towards":"Leicester Square Or Oxford Circus"},{"icsId":"1004695","id":"490004695D","lat":51.51341,"lon":-0.12921,"name":"Cambridge Circus","parentId":"490G00004695","stationId":"490G00004695","stopLetter":"D","topMostParentId":"490G00004695","towards":"Piccadilly Circus, Parliament Sq. Or Waterloo"},{"icsId":"1000135","id":"490000135B","lat":51.51159,"lon":-0.12833,"name":"Leicester Square Station","stopLetter":"J","topMostParentId":"490000135B","towards":"Waterloo Or Westminster","zone":"1"},{"icsId":"1016161","id":"490016161S","lat":51.50985,"lon":-0.12787,"name":"St Martin's Place","parentId":"490G00016161","stationId":"490G00016161","stopLetter":"K","topMostParentId":"490G00016161","towards":"Waterloo Or Westminster"},{"icsId":"1013767","id":"490013767D","lat":51.50819,"lon":-0.12706,"name":"Trafalgar Square / Charing Cross Stn","parentId":"490G000804","stationId":"490G000804","stopLetter":"D","topMostParentId":"490G000804","towards":"Westminster"}]}]}