{"direction":"outbound","lineId":"290","lineName":"290","mode":"bus","stopPointSequences":[{"stopPoint":[{"icsId":"1012479","id":"40004402126J","lat":51.432241,"lon":-0.509602,"name":"Staines Bus Station","parentId":"400G4402126A","stationId":"400G4402126A","stopLetter":"5","topMostParentId":"400G4402126A"},{"icsId":"1012482","id":"40004402125A","lat":51.435139,"lon":-0.50768,"name":"High Street","stopLetter":"J","topMostParentId":"40004402125A","towards":"Ashford Or Stanwell"},{"icsId":"1012481","id":"40004402124C","lat":51.434888,"lon":-0.505646,"name":"Staines Police Station","parentId":"400G4402124A","stationId":"400G4402124A","stopLetter":"U","topMostParentId":"400G4402124A","towards":"Ashford Or Laleham"},{"icsId":"1012476","id":"40004402122B","lat":51.433096,"lon":-0.501921,"name":"Staines Station","parentId":"400G4402122B","stationId":"400G4402122B","stopLetter":"D","topMostParentId":"910GSTAINES","towards":"Ashford Or Laleham"},{"icsId":"1008886","id":"40004402120B","lat":51.43043,"lon":-0.497361,"name":"Knowle Green","parentId":"400G4402120B","stationId":"400G4402120B","topMostParentId":"400G4402120B","towards":"Ashford Or Laleham"},{"icsId":"1014947","id":"40004402119C","lat":51.428314,"lon":-0.492986,"name":"Worple Road","parentId":"400G4402119D","stationId":"400G4402119D","topMostParentId":"400G4402119D","towards":"Ashford Or Laleham"},{"icsId":"1006797","id":"40004402118A","lat":51.427759,"lon":-0.489653,"name":"Fenton Avenue","parentId":"400G4402118A","stationId":"400G4402118A","topMostParentId":"400G4402118A","towards":"Ashford Or Laleham"},{"icsId":"1010965","id":"40004402117A","lat":51.427238,"lon":-0.485527,"name":"Petersfield Avenue","parentId":"400G4402117A","stationId":"400G4402117A","topMostParentId":"400G4402117A","towards":"Ashford Or Laleham"},{"icsId":"1019819","id":"40004402116A","lat":51.426594,"lon":-0.480198,"name":"Woodthorpe Road","parentId":"400G4402116A","stationId":"400G4402116A","topMostParentId":"400G4402116A","towards":"Sunbury"},{"icsId":"1003432","id":"40004402111A","lat":51.426083,"lon":-0.476158,"name":"Ashford Road","parentId":"400G4402111B","stationId":"400G4402111B","topMostParentId":"400G4402111B","towards":"Sunbury"},{"icsId":"1006895","id":"40004402110A","lat":51.427597,"lon":-0.471562,"name":"Fordbridge Roundabout","parentId":"400G4402110B","stationId":"400G4402110B","topMostParentId":"400G4402110B","towards":"Sunbury"},{"icsId":"1007077","id":"40004402109A","lat":51.429576,"lon":-0.466145,"name":"Gables Avenue","parentId":"400G4402109B","stationId":"400G4402109B","topMostParentId":"400G4402109B","towards":"Sunbury"},{"icsId":"1003434","id":"40004402106A","lat":51.432505,"lon":-0.460436,"name":"Ashford War Memorial","parentId":"400G4402106A","stationId":"400G4402106A","topMostParentId":"400G4402106A","towards":"Feltham, Shepperton Or Sunbury"},{"icsId":"1005293","id":"40004402169B","lat":51.431985,"lon":-0.455102,"name":"Feltham Road","topMostParentId":"40004402169B","towards":"Shepperton Or Sunbury"},{"icsId":"1009840","id":"40004402100A","lat":51.429201,"lon":-0.453369,"name":"Metcalf Road / the Ash Tree","topMostParentId":"40004402100A","towards":"Shepperton Or Sunbury"},{"icsId":"1013306","id":"40004402099B","lat":51.42675,"lon":-0.451596,"name":"The Coppice","parentId":"400G4402099A","stationId":"400G4402099A","topMostParentId":"400G4402099A","towards":"Sunbury"},{"icsId":"1003433","id":"40004402098A","lat":51.422993,"lon":-0.447667,"name":"Ashford Road","parentId":"400G4402098B","stationId":"400G4402098B","topMostParentId":"400G4402098B","towards":"Twickenham"},{"icsId":"1003430","id":"40004402091A","lat":51.422201,"lon":-0.441538,"name":"Chertsey Road","parentId":"400G4402091D","stationId":"400G4402091D","topMostParentId":"400G4402091D","towards":"Twickenham"},{"icsId":"1010150","id":"40004402067A","lat":51.421541,"lon":-0.436498,"name":"Napier Road","parentId":"400G4402067A","stationId":"400G4402067A","topMostParentId":"400G4402067A","towards":"Hampton, Sunbury Village Or Upper Halliford"},{"icsId":"1014770","id":"40004402066B","lat":51.420558,"lon":-0.428909,"name":"Windmill Road","parentId":"400G4402066B","stationId":"400G4402066B","topMostParentId":"400G4402066B","towards":"Hampton, Sunbury Village Or Upper Halliford"},{"icsId":"1012374","id":"40004402065A","lat":51.419986,"lon":-0.424456,"name":"Spelthorne Grove","parentId":"400G4402065A","stationId":"400G4402065A","topMostParentId":"400G4402065A","towards":"Hampton, Sunbury Village Or Upper Halliford"},{"icsId":"1013006","id":"40004402064C","lat":51.419526,"lon":-0.421006,"name":"Sunbury Cross","parentId":"400G4402064D","stationId":"400G4402064D","topMostParentId":"910GSUNBURY","towards":"Hampton, Sunbury Village Or Upper Halliford"},{"icsId":"1010814","id":"40004402059B","lat":51.422264,"lon":-0.410742,"name":"Park Road","parentId":"400G4402059A","stationId":"400G4402059A","topMostParentId":"910GKMPTNPK","towards":"Twickenham"},{"icsId":"1010148","id":"490010148E","lat":51.43093,"lon":-0.4007,"name":"Nallhead Road","parentId":"490G00010148","stationId":"490G00010148","stopLetter":"W","topMostParentId":"490G00010148","towards":"Twickenham"},{"icsId":"1004851","id":"490004851E","lat":51.4317,"lon":-0.39786,"name":"Castle Way","parentId":"490G00004851","stationId":"490G00004851","stopLetter":"X","topMostParentId":"490G00004851","towards":"Twickenham"},{"icsId":"1003718","id":"490003718E","lat":51.43349,"lon":-0.39228,"name":"Bear Road Flyover","parentId":"490G00003718","stationId":"490G00003718","stopLetter":"AA","topMostParentId":"490G00003718","towards":"Twickenham"},{"icsId":"1013115","id":"490013115E","lat":51.43527,"lon":-0.38509,"name":"Swift Road","parentId":"490G00013115","stationId":"490G00013115","stopLetter":"A","topMostParentId":"490G00013115","towards":"Twickenham"},{"icsId":"1015344","id":"490015344E","lat":51.43627,"lon":-0.38045,"name":"Apex Corner / Country Way","parentId":"490G00015344","stationId":"490G00015344","stopLetter":"B","topMostParentId":"490G00015344","towards":"Twickenham"},{"icsId":"1015343","id":"490015343S2","lat":51.4358,"lon":-0.37687,"name":"Hampton Road East","parentId":"490G00015343","stationId":"490G00015343","stopLetter":"E","topMostParentId":"490G00015343","towards":"Teddington Or Twickenham"},{"icsId":"1007770","id":"490007770N","lat":51.43472,"lon":-0.37518,"name":"Uxbridge Road / Hampton Sainsbury's","parentId":"490G00007770","stationId":"490G00007770","stopLetter":"S","topMostParentId":"490G00007770","towards":"Feltham, Fulwell Or Teddington"},{"icsId":"1015343","id":"490015343N","lat":51.43571,"lon":-0.37733,"name":"Hampton Road East","parentId":"490G00015343","stationId":"490G00015343","stopLetter":"T","topMostParentId":"490G00015343","towards":"Feltham,. Sunbury Or Twickenham"},{"icsId":"1007764","id":"490007764E1","lat":51.43671,"lon":-0.37662,"name":"Twickenham Road","parentId":"490G00007764","stationId":"490G00007764","stopLetter":"H","topMostParentId":"490G00007764","towards":"Twickenham"},{"icsId":"1013868","id":"490013868E","lat":51.43747,"lon":-0.37147,"name":"Twickenham Golf Centre","parentId":"490G00013868","stationId":"490G00013868","stopLetter":"J","topMostParentId":"490G00013868","towards":"Twickenham"},{"icsId":"1005651","id":"490005651E","lat":51.43824,"lon":-0.36734,"name":"Court Close Avenue","parentId":"490G00005651","stationId":"490G00005651","stopLetter":"A","topMostParentId":"490G00005651","towards":"Twickenham"},{"icsId":"1014251","id":"490014251E","lat":51.43904,"lon":-0.3632,"name":"Warwick Lodge / Staines Road","parentId":"490G00014251","stationId":"490G00014251","stopLetter":"B","topMostParentId":"490G00014251","towards":"Twickenham"},{"icsId":"1012487","id":"490012487E","lat":51.43874,"lon":-0.36019,"name":"Staines Road","parentId":"490G00012487","stationId":"490G00012487","stopLetter":"G","topMostParentId":"490G00012487","towards":"Teddington Or Twickenham"},{"icsId":"1006828","id":"490006828E","lat":51.43647,"lon":-0.35414,"name":"Fielding Avenue","parentId":"490G00006828","stationId":"490G00006828","stopLetter":"K","topMostParentId":"490G00006828","towards":"Teddington Or Twickenham"},{"icsId":"1007064","id":"490007064E","lat":51.43664,"lon":-0.35045,"name":"Fulwell / Sixth Cross Road","parentId":"490G00007064","stationId":"490G00007064","stopLetter":"J","topMostParentId":"490G00007064","towards":"Isleworth, Richmond Or Whitton"},{"icsId":"1013765","id":"490013765N","lat":51.44026,"lon":-0.34697,"name":"Trafalgar Road / Prince of Wales","parentId":"490G00013765","stationId":"490G00013765","stopLetter":"SD","topMostParentId":"490G00013765","towards":"Isleworth, Richmond Or Whitton"},{"icsId":"1013865","id":"490013865N","lat":51.44203,"lon":-0.34423,"name":"The Prince Albert / Twickenham","parentId":"490G00013865","stationId":"490G00013865","stopLetter":"GA","topMostParentId":"490G00013865","towards":"Isleworth, Richmond Or Whitton"},{"icsId":"1013869","id":"490013869N","lat":51.44393,"lon":-0.34092,"name":"Twickenham Green","parentId":"490G00013869","stationId":"490G00013869","stopLetter":"GM","topMostParentId":"490G00013869","towards":"Isleworth, Richmond Or Whitton"},{"icsId":"1008009","id":"490008009E","lat":51.44541,"lon":-0.33593,"name":"Heath Road / Grove Avenue","parentId":"490G00008009","stationId":"490G00008009","stopLetter":"GP","topMostParentId":"490G00008009","towards":"Isleworth Or Richmond"},{"icsId":"1020202","id":"490008007T","lat":51.44551,"lon":-0.33062,"name":"Heath Road / Twickenham","parentId":"490G00020202","stationId":"490G00020202","stopLetter":"T","topMostParentId":"490G00020202","towards":"Isleworth Or Richmond"},{"icsId":"1015022","id":"490015022H","lat":51.44754,"lon":-0.32716,"name":"York Street / Twickenham","parentId":"490G00015022","stationId":"490G00015022","stopLetter":"H","topMostParentId":"490G00015022","towards":"Richmond"},{"icsId":"1013862","id":"490013862G","lat":51.44902,"lon":-0.32906,"name":"Arragon Road","parentId":"490G000809","stationId":"490G000809","stopLetter":"D","topMostParentId":"490G000809","towards":"Hanworth"}]}]}