{"direction":"outbound","lineId":"294","lineName":"294","mode":"bus","stopPointSequences":[{"stopPoint":[{"icsId":"1007917","id":"490007917E","lat":51.60913,"lon":0.16508,"name":"Havering Park","parentId":"490G00007917","stationId":"490G00007917","stopLetter":"->E","topMostParentId":"490G00007917","towards":"Romford"},{"icsId":"1007917","id":"490007917W","lat":51.60897,"lon":0.16444,"name":"Havering Park","parentId":"490G00007917","stationId":"490G00007917","stopLetter":"->W","topMostParentId":"490G00007917","towards":"Romford"},{"icsId":"1005004","id":"490005004E1","lat":51.60877,"lon":0.16106,"name":"Charlotte Gardens","parentId":"490G00005004","stationId":"490G00005004","stopLetter":"->W","topMostParentId":"490G00005004","towards":"Romford"},{"icsId":"1011134","id":"490011134S","lat":51.60744,"lon":0.15638,"name":"Portmore Gardens","parentId":"490G00011134","stationId":"490G00011134","stopLetter":"->S","topMostParentId":"490G00011134","towards":"Romford"},{"icsId":"1012587","id":"490012587S","lat":51.60534,"lon":0.15566,"name":"Stapleford Gardens","parentId":"490G00012587","stationId":"490G00012587","stopLetter":"WA","topMostParentId":"490G00012587","towards":"Romford"},{"icsId":"1007035","id":"490007035S","lat":51.60041,"lon":0.15303,"name":"Frinton Road","parentId":"490G00007035","stationId":"490G00007035","stopLetter":"WB","topMostParentId":"490G00007035","towards":"Romford"},{"icsId":"1007260","id":"490007260E","lat":51.59779,"lon":0.15391,"name":"Gobions Farm","parentId":"490G00007260","stationId":"490G00007260","stopLetter":"WD","topMostParentId":"490G00007260","towards":"Romford"},{"icsId":"1014594","id":"490014594E","lat":51.59806,"lon":0.15674,"name":"White Hart Lane","parentId":"490G00014594","stationId":"490G00014594","stopLetter":"WE","topMostParentId":"490G00014594","towards":"Romford"},{"icsId":"1005499","id":"490005499E","lat":51.59894,"lon":0.16188,"name":"Collier Row / Clockhouse Lane","parentId":"490G00005499","stationId":"490G00005499","stopLetter":"WF","topMostParentId":"490G00005499","towards":"Romford"},{"icsId":"1005438","id":"490005438J","lat":51.59886,"lon":0.16338,"name":"Collier Row Roundabout / Rex Close","parentId":"490G00005438","stationId":"490G00005438","stopLetter":"ED","topMostParentId":"490G00005438","towards":"Romford"},{"icsId":"1008420","id":"490008420S","lat":51.59606,"lon":0.1641,"name":"Hulse Avenue","parentId":"490G00008420","stationId":"490G00008420","stopLetter":"EH","topMostParentId":"490G00008420","towards":"Romford"},{"icsId":"1010106","id":"490010106S","lat":51.59282,"lon":0.16589,"name":"Mowbrays Road","parentId":"490G00010106","stationId":"490G00010106","stopLetter":"EJ","topMostParentId":"490G00010106","towards":"Romford"},{"icsId":"1007655","id":"490007655S","lat":51.59039,"lon":0.16675,"name":"Hainault Road","parentId":"490G00007655","stationId":"490G00007655","stopLetter":"NP","topMostParentId":"490G00007655","towards":"Romford"},{"icsId":"1010782","id":"490010782S","lat":51.58768,"lon":0.17215,"name":"Parklands School","parentId":"490G00010782","stationId":"490G00010782","stopLetter":"NQ","topMostParentId":"490G00010782","towards":"Romford"},{"icsId":"1011658","id":"490011658S","lat":51.58372,"lon":0.17483,"name":"Romford Bus Garage","parentId":"490G00011658","stationId":"490G00011658","stopLetter":"NS","topMostParentId":"490G00011658","towards":"Romford Town Centre"},{"icsId":"1004467","id":"490013240S","lat":51.58186,"lon":0.17678,"name":"The Avenue","parentId":"490G00004467","stationId":"490G00004467","stopLetter":"J","topMostParentId":"490G00004467","towards":"Romford Town Centre"},{"icsId":"1011659","id":"490011659G","lat":51.58059,"lon":0.1831,"name":"Romford Market","parentId":"490G00011659","stationId":"490G00011659","stopLetter":"G","topMostParentId":"490G00011659","towards":"Queen's Hospital, Hornchurch Or Gidea Park"},{"icsId":"1009810","id":"490009810M","lat":51.57935,"lon":0.18496,"name":"Mercury Gardens","parentId":"490G00009810","stationId":"490G00009810","stopLetter":"M","topMostParentId":"490G00009810","towards":"Gidea Park Or Hornchurch"},{"icsId":"1014452","id":"490014448S","lat":51.5775,"lon":0.1851,"name":"Western Road","parentId":"490G00014452","stationId":"490G00014452","stopLetter":"QQ","topMostParentId":"490G00014452","towards":"Elm Park, Gidea Park Or Hornchurch"},{"icsId":"1001243","id":"490001243Y","lat":51.5736,"lon":0.18393,"name":"Romford Station","stopLetter":"Y","topMostParentId":"490001243Y","towards":"Elm Park, Gidea Park Or Hornchurch"},{"icsId":"1013654","id":"490013654S","lat":51.57142,"lon":0.18476,"name":"Thurloe Gardens","parentId":"490G00013654","stationId":"490G00013654","stopLetter":"C","topMostParentId":"490G00013654","towards":"Elm Park Or Hornchurch"},{"icsId":"1013482","id":"490013482E","lat":51.57106,"lon":0.18703,"name":"South Street","parentId":"490G00013482","stationId":"490G00013482","stopLetter":"E","topMostParentId":"490G00013482","towards":"Gidea Park"},{"icsId":"1015118","id":"490015118E","lat":51.57237,"lon":0.19231,"name":"Albert Road","parentId":"490G00015118","stationId":"490G00015118","stopLetter":"F","topMostParentId":"490G00015118","towards":"Gidea Park Or Hornchurch"},{"icsId":"1011214","id":"490011214E","lat":51.57361,"lon":0.19598,"name":"Princes Road","parentId":"490G00011214","stationId":"490G00011214","stopLetter":"->E","topMostParentId":"490G00011214","towards":"Gidea Park Or Hornchurch"},{"icsId":"1006980","id":"490006980E","lat":51.57432,"lon":0.19994,"name":"Frances Bardsley Academy","parentId":"490G00006980","stationId":"490G00006980","stopLetter":"->E","topMostParentId":"490G00006980","towards":"Gidea Park Or Hornchurch"},{"icsId":"1005709","id":"490009496E","lat":51.57472,"lon":0.20412,"name":"Cranham Road","parentId":"490G00005709","stationId":"490G00005709","stopLetter":"AL","topMostParentId":"490G00005709","towards":"Squirrels Heath Or Hornchurch"},{"icsId":"1011870","id":"490011870N","lat":51.57587,"lon":0.20611,"name":"Salisbury Road","parentId":"490G00011870","stationId":"490G00011870","stopLetter":"AM","topMostParentId":"490G00011870","towards":"Squirrels Heath Or Hornchurch"},{"icsId":"1013327","id":"490003559N","lat":51.57887,"lon":0.2072,"name":"The Drill Roundabout","parentId":"490G00013327","stationId":"490G00013327","stopLetter":"AV","topMostParentId":"490G00013327","towards":"Gallows Corner Or Harold Wood"},{"icsId":"1001115","id":"490001115B","lat":51.58156,"lon":0.20634,"name":"Gidea Park Station","stopLetter":"PB","topMostParentId":"490001115B","towards":"Harold Wood Or Gallows Corner"},{"icsId":"1012422","id":"490012422E","lat":51.58158,"lon":0.20933,"name":"Upper Brentwood Road","parentId":"490G000757","stationId":"490G000757","stopLetter":"PL","topMostParentId":"490G000757","towards":"Harold Wood"},{"icsId":"1010411","id":"490010411E","lat":51.58253,"lon":0.21359,"name":"Northumberland Avenue","parentId":"490G00010411","stationId":"490G00010411","stopLetter":"PM","topMostParentId":"490G00010411","towards":"Harold Wood"},{"icsId":"1007779","id":"490007779E","lat":51.58285,"lon":0.21591,"name":"Hardley Crescent","parentId":"490G00007779","stationId":"490G00007779","stopLetter":"->E","topMostParentId":"490G00007779","towards":"Harold Wood"},{"icsId":"1013557","id":"490013557N","lat":51.58505,"lon":0.22061,"name":"Ardleigh Green School","parentId":"490G00013557","stationId":"490G00013557","stopLetter":"->N","topMostParentId":"490G00013557","towards":"Harold Wood"},{"icsId":"1012278","id":"490012278N","lat":51.58673,"lon":0.22312,"name":"Southend Arterial Road","parentId":"490G00012278","stationId":"490G00012278","stopLetter":"->N","topMostParentId":"490G00012278","towards":"Harold Wood"},{"icsId":"1011712","id":"490011712E","lat":51.58845,"lon":0.22968,"name":"Rosslyn Avenue","parentId":"490G00011712","stationId":"490G00011712","stopLetter":"->E","topMostParentId":"490G00011712","towards":"Harold Hill"},{"icsId":"1007831","id":"490012887N","lat":51.58993,"lon":0.23328,"name":"St Peter's Church","parentId":"490G00007831","stationId":"490G00007831","stopLetter":"J","topMostParentId":"490G00007831","towards":"Harold Hill Or Gallows Corner"},{"icsId":"1001137","id":"490001137A","lat":51.59386,"lon":0.23247,"name":"Harold Wood Station","stopLetter":"A","topMostParentId":"490001137A","towards":"Harold Hill Or Gallows Corner"},{"icsId":"1003401","id":"490003401N","lat":51.59736,"lon":0.23233,"name":"Arundel Road","parentId":"490G00003401","stationId":"490G00003401","stopLetter":"L","topMostParentId":"490G00003401","towards":"Harold Hill Or Gallows Corner"},{"icsId":"1018846","id":"490018846N","lat":51.59962,"lon":0.23084,"name":"St Neot's Road","parentId":"490G00018846","stationId":"490G00018846","stopLetter":"U","topMostParentId":"490G00018846","towards":"Noak Hill"},{"icsId":"1004691","id":"490004691N","lat":51.60091,"lon":0.22989,"name":"Camborne Avenue","parentId":"490G00004691","stationId":"490G00004691","stopLetter":"T","topMostParentId":"490G00004691","towards":"Noak Hill"},{"icsId":"1008759","id":"490008759N","lat":51.60348,"lon":0.22805,"name":"Kingsbridge Road","parentId":"490G00008759","stationId":"490G00008759","stopLetter":"GT","topMostParentId":"490G00008759","towards":"Noak Hill"},{"icsId":"1007827","id":"490007827N","lat":51.60538,"lon":0.22559,"name":"Harold Hill Community Centre","parentId":"490G00007827","stationId":"490G00007827","stopLetter":"GU","topMostParentId":"490G00007827","towards":"Noak Hill"},{"icsId":"1007828","id":"490007828N","lat":51.60766,"lon":0.22298,"name":"Central Park Leisure Centre","parentId":"490G00007828","stationId":"490G00007828","stopLetter":"GV","topMostParentId":"490G00007828","towards":"Noak Hill"},{"icsId":"1004473","id":"490004473E","lat":51.60886,"lon":0.22436,"name":"Brookside School","parentId":"490G00004473","stationId":"490G00004473","stopLetter":"DA","topMostParentId":"490G00004473","towards":"Noak Hill Or Dagnam Park Square"},{"icsId":"1009178","id":"490009178N","lat":51.60978,"lon":0.2298,"name":"Lindfield Road","parentId":"490G00009178","stationId":"490G00009178","stopLetter":"WB","topMostParentId":"490G00009178","towards":"Noak Hill"},{"icsId":"1014677","id":"490014677W","lat":51.61216,"lon":0.22797,"name":"Wigton Way","parentId":"490G00014677","stationId":"490G00014677","stopLetter":"->W","topMostParentId":"490G00014677","towards":"Noak Hill"},{"icsId":"1014575","id":"490014575N","lat":51.61326,"lon":0.22324,"name":"Whitchurch Road","parentId":"490G00014575","stationId":"490G00014575","stopLetter":"->N","topMostParentId":"490G00014575","towards":"Noak Hill"},{"icsId":"1011240","id":"490011240N","lat":51.61563,"lon":0.22232,"name":"Priory Road","parentId":"490G00011240","stationId":"490G00011240","stopLetter":"->N","topMostParentId":"490G00011240","towards":"Noak Hill"},{"icsId":"1010288","id":"490010288N","lat":51.61702,"lon":0.22099,"name":"Wincanton Road","parentId":"490G00010288","stationId":"490G00010288","stopLetter":"->N","topMostParentId":"490G00010288","towards":"Harold Wood"}]}]}