{"direction":"outbound","lineId":"299","lineName":"299","mode":"bus","stopPointSequences":[{"stopPoint":[{"icsId":"1015186","id":"490015186A","lat":51.59185,"lon":-0.14309,"name":"Queens Avenue","parentId":"490G00015186","stationId":"490G00015186","stopLetter":"A","topMostParentId":"490G00015186","towards":"Bounds Green Or Friern Barnet"},{"icsId":"1009765","id":"490009765N","lat":51.59419,"lon":-0.14464,"name":"Meadow Drive","parentId":"490G00009765","stationId":"490G00009765","stopLetter":"CA","topMostParentId":"490G00009765","towards":"Bounds Green Or Friern Barnet"},{"icsId":"1005509","id":"490005509N","lat":51.59619,"lon":-0.14401,"name":"Colney Hatch Lane","parentId":"490G00005509","stationId":"490G00005509","stopLetter":"CP","topMostParentId":"490G00005509","towards":"Edmonton Or Southgate"},{"icsId":"1014757","id":"490014757N","lat":51.59751,"lon":-0.14217,"name":"St Andrew's Church","parentId":"490G00014757","stationId":"490G00014757","stopLetter":"CR","topMostParentId":"490G00014757","towards":"Edmonton Or Southgate"},{"icsId":"1011684","id":"490011684N","lat":51.59872,"lon":-0.13815,"name":"Rosebery Road","parentId":"490G00011684","stationId":"490G00011684","topMostParentId":"490G00011684","towards":"Edmonton Or Southgate"},{"icsId":"1014061","id":"490014061N","lat":51.60063,"lon":-0.13427,"name":"Victoria Road","parentId":"490G00014061","stationId":"490G00014061","topMostParentId":"490G00014061","towards":"Arnos Grove, Edmonton Or Southgate"},{"icsId":"1003158","id":"490003158N","lat":51.60239,"lon":-0.13098,"name":"Albert Road","parentId":"490G00003158","stationId":"490G00003158","stopLetter":"->N","topMostParentId":"490G00003158","towards":"Arnos Grove, Edmonton Or Southgate"},{"icsId":"1014844","id":"490014844N","lat":51.6056,"lon":-0.12642,"name":"Woodfield Way","parentId":"490G00014844","stationId":"490G00014844","stopLetter":"GD","topMostParentId":"490G00014844","towards":"Arnos Grove, Edmonton Or Southgate"},{"icsId":"1000028","id":"490000028C","lat":51.60806,"lon":-0.12359,"name":"Bounds Green Station","stopLetter":"BN","topMostParentId":"490000028C","towards":"Arnos Grove, Edmonton Or Southgate","zone":"3+4"},{"icsId":"1015014","id":"490015014N","lat":51.61028,"lon":-0.12267,"name":"York Road","parentId":"490G00015014","stationId":"490G00015014","stopLetter":"GN","topMostParentId":"490G00015014","towards":"Arnos Grove, Edmonton Or Southgate"},{"icsId":"1004214","id":"490004490N","lat":51.61218,"lon":-0.12187,"name":"Bowes Road","parentId":"490G00004214","stationId":"490G00004214","stopLetter":"GJ","topMostParentId":"490G00004214","towards":"Arnos Grove, Edmonton Or Southgate"},{"icsId":"1019109","id":"490004214N","lat":51.61363,"lon":-0.12136,"name":"Westminster Drive","parentId":"490G00019109","stationId":"490G00019109","stopLetter":"GS","topMostParentId":"490G00019109","towards":"Southgate"},{"icsId":"1004487","id":"490004487N","lat":51.61593,"lon":-0.11962,"name":"Broomfield Lane","parentId":"490G00004487","stationId":"490G00004487","stopLetter":"->N","topMostParentId":"490G00004487","towards":"Southgate"},{"icsId":"1014717","id":"490014717N","lat":51.61783,"lon":-0.12284,"name":"Wilmer Way","parentId":"490G00014717","stationId":"490G00014717","stopLetter":"R","topMostParentId":"490G00014717","towards":"Cockfosters"},{"icsId":"1006908","id":"490006908N2","lat":51.62006,"lon":-0.1224,"name":"Forestdale","parentId":"490G00006908","stationId":"490G00006908","stopLetter":"S","topMostParentId":"490G00006908","towards":"Cockfosters"},{"icsId":"1011978","id":"490011978N","lat":51.62291,"lon":-0.12232,"name":"Selborne Road","parentId":"490G00011978","stationId":"490G00011978","stopLetter":"T","topMostParentId":"490G00011978","towards":"Cockfosters Or Oakwood"},{"icsId":"1014999","id":"490014999N","lat":51.62531,"lon":-0.12468,"name":"Ye Olde Cherry Tree","parentId":"490G00014999","stationId":"490G00014999","stopLetter":"U","topMostParentId":"490G00014999","towards":"Cockfosters Or Oakwood"},{"icsId":"1009773","id":"490009773N","lat":51.62728,"lon":-0.126,"name":"Meadway","parentId":"490G00009773","stationId":"490G00009773","stopLetter":"V","topMostParentId":"490G00009773","towards":"Cockfosters Or Oakwood"},{"icsId":"1012299","id":"490012299A","lat":51.63058,"lon":-0.12795,"name":"Southgate College","parentId":"490G00012299","stationId":"490G00012299","stopLetter":"A","topMostParentId":"490G00012299","towards":"Cockfosters Or Oakwood"},{"icsId":"1000210","id":"490000210G","lat":51.63239,"lon":-0.12819,"name":"Southgate Station","stopLetter":"G","topMostParentId":"490000210G","towards":"Arnos Grove, Cockfosters Or Whetstone","zone":"4"},{"icsId":"1012300","id":"490012300M","lat":51.63332,"lon":-0.13146,"name":"Chase Side / Southgate High Street","parentId":"490G00012300","stationId":"490G00012300","stopLetter":"M","topMostParentId":"490G00012300","towards":"Arnos Grove, Cockfosters Or Whetstone"},{"icsId":"1012298","id":"490012298N","lat":51.6341,"lon":-0.13352,"name":"Southgate Asda","parentId":"490G00012298","stationId":"490G00012298","stopLetter":"N","topMostParentId":"490G00012298","towards":"Arnos Grove, Cockfosters Or Whetstone"},{"icsId":"1005040","id":"490005040N","lat":51.63618,"lon":-0.13771,"name":"Avenue Road","parentId":"490G00005040","stationId":"490G00005040","stopLetter":"S","topMostParentId":"490G00005040","towards":"Arnos Grove, Cockfosters Or Whetstone"},{"icsId":"1003501","id":"490003501E","lat":51.6394,"lon":-0.13398,"name":"Avenue Road / Grosvenor Court","parentId":"490G00003501","stationId":"490G00003501","stopLetter":"->E","topMostParentId":"490G00003501"},{"icsId":"1013352","id":"490013352N","lat":51.64421,"lon":-0.13412,"name":"Reservoir Road / Green Road","parentId":"490G00013352","stationId":"490G00013352","stopLetter":"->N","topMostParentId":"490G00013352"},{"icsId":"1000877","id":"490000877Z","lat":51.64649,"lon":-0.13525,"name":"Reservoir Road / Oakwood","parentId":"490G000199","stationId":"490G000199","stopLetter":"->N","topMostParentId":"490G000199"},{"icsId":"1010869","id":"490010869W","lat":51.64561,"lon":-0.13976,"name":"Peace Close","parentId":"490G00010869","stationId":"490G00010869","stopLetter":"D","topMostParentId":"490G00010869","towards":"Cockfosters Or East Barnet"},{"icsId":"1005455","id":"490005455W","lat":51.64521,"lon":-0.1449,"name":"Cockfosters Road","parentId":"490G00005455","stationId":"490G00005455","stopLetter":"H","topMostParentId":"490G00005455","towards":"Cockfosters Or East Barnet"},{"icsId":"1013790","id":"490013790N","lat":51.64823,"lon":-0.1477,"name":"Freston Gardens","parentId":"490G00013790","stationId":"490G00013790","stopLetter":"C","topMostParentId":"490G00013790","towards":"Potters Bar"},{"icsId":"1000053","id":"490000053N2","lat":51.65148,"lon":-0.14994,"name":"Cockfosters Station","stopLetter":"->N","topMostParentId":"490000053N2","zone":"5"}]}]}