{"direction":"outbound","lineId":"3","lineName":"3","mode":"bus","stopPointSequences":[{"stopPoint":[{"icsId":"1014050","id":"490014050B","lat":51.49601,"lon":-0.14382,"name":"Victoria Bus Station","parentId":"490G000812","stationId":"490G000812","stopLetter":"B","topMostParentId":"HUBVIC"},{"icsId":"1014496","id":"490014496N","lat":51.49683,"lon":-0.14026,"name":"Westminster Cathedral","parentId":"490G00014496","stationId":"490G00014496","stopLetter":"N","topMostParentId":"490G00014496","towards":"Trafalgar Square, Waterloo Or Lambeth North"},{"icsId":"1003384","id":"490003384SA","lat":51.49742,"lon":-0.13663,"name":"Westminster City Hall","parentId":"490G000394","stationId":"490G000394","stopLetter":"SA","topMostParentId":"490G000394","towards":"Trafalgar Square, Waterloo Or Lambeth North"},{"icsId":"1012941","id":"490012941S","lat":51.49619,"lon":-0.13346,"name":"Strutton Ground","parentId":"490G00012941","stationId":"490G00012941","stopLetter":"SH","topMostParentId":"490G00012941","towards":"Waterloo"},{"icsId":"1009694","id":"490009694E","lat":51.49492,"lon":-0.13032,"name":"Marsham Street","parentId":"490G00009694","stationId":"490G00009694","stopLetter":"NS","topMostParentId":"490G00009694","towards":"Waterloo"},{"icsId":"1008374","id":"490008374N","lat":51.49564,"lon":-0.12932,"name":"Horseferry Road","parentId":"490G00008374","stationId":"490G00008374","stopLetter":"NT","topMostParentId":"490G00008374","towards":"Trafalgar Square"},{"icsId":"1014498","id":"490014498S","lat":51.50103,"lon":-0.12525,"name":"Westminster Stn  / Westminster Pier","parentId":"490G000829","stationId":"490G000829","stopLetter":"H","topMostParentId":"490G000829","towards":"Waterloo Or Lambeth North"},{"icsId":"1018956","id":"490005646E","lat":51.50083,"lon":-0.11802,"name":"St Thomas' Hospital / County Hall","parentId":"490G00018956","stationId":"490G00018956","stopLetter":"E","topMostParentId":"490G00018956","towards":"Elephant & Castle, Kennington Or Waterloo"},{"icsId":"1009420","id":"490009420E","lat":51.50014,"lon":-0.11468,"name":"Lower Marsh","parentId":"490G00009420","stationId":"490G00009420","stopLetter":"K","topMostParentId":"490G00009420","towards":"Aldwych, Elephant & Castle Or Kennington"},{"icsId":"1000132","id":"490000132A","lat":51.49811,"lon":-0.11197,"name":"Lambeth North Station","stopLetter":"A","topMostParentId":"490000132A","towards":"Kennington","zone":"1"},{"icsId":"1008476","id":"490008473S","lat":51.49474,"lon":-0.11077,"name":"Kennington Road / Imperial War Museum","parentId":"490G000608","stationId":"490G000608","stopLetter":"S","topMostParentId":"490G000608","towards":"Brixton Or Pimlico"},{"icsId":"1006864","id":"490006864S1","lat":51.49203,"lon":-0.11091,"name":"Fitzalan Street","parentId":"490G00006864","stationId":"490G00006864","stopLetter":"KF","topMostParentId":"490G00006864","towards":"Brixton Or Pimlico"},{"icsId":"1008643","id":"490008643KE","lat":51.4898,"lon":-0.11091,"name":"Kennington Lane","parentId":"490G00008643","stationId":"490G00008643","stopLetter":"KE","topMostParentId":"490G00008643","towards":"Brixton"},{"icsId":"1014773","id":"490014773KQ","lat":51.48757,"lon":-0.11124,"name":"Windmill Row","parentId":"490G00014773","stationId":"490G00014773","stopLetter":"KQ","topMostParentId":"490G00014773","towards":"Brixton"},{"icsId":"1008645","id":"490008645X","lat":51.48505,"lon":-0.11039,"name":"Kennington Park Post Office","parentId":"490G00008645","stationId":"490G00008645","stopLetter":"X","topMostParentId":"490G00008645","towards":"Brixton"},{"icsId":"1008642","id":"490008642K","lat":51.48021,"lon":-0.11124,"name":"St Mark's Church","parentId":"490G00008642","stationId":"490G00008642","stopLetter":"K","topMostParentId":"490G00008642","towards":"Herne Hill Or Tulse Hill"},{"icsId":"1014013","id":"490014013S","lat":51.47606,"lon":-0.11242,"name":"Vassall Road","parentId":"490G00014013","stationId":"490G00014013","stopLetter":"RH","topMostParentId":"490G00014013","towards":"Herne Hill, Streatham Hill Or Tulse Hill"},{"icsId":"1007587","id":"490007587S","lat":51.47354,"lon":-0.11265,"name":"Groveway","parentId":"490G00007587","stationId":"490G00007587","stopLetter":"RJ","topMostParentId":"490G00007587","towards":"Herne Hill, Streatham Hill Or Tulse Hill"},{"icsId":"1009373","id":"490009373S1","lat":51.46975,"lon":-0.11243,"name":"Loughborough Road","parentId":"490G00009373","stationId":"490G00009373","stopLetter":"RK","topMostParentId":"490G00009373","towards":"Herne Hill, Streatham Hill Or Tulse Hill"},{"icsId":"1014085","id":"490014085S","lat":51.4675,"lon":-0.11271,"name":"Villa Road","parentId":"490G00014085","stationId":"490G00014085","stopLetter":"RL","topMostParentId":"490G00014085","towards":"Herne Hill, Streatham Hill Or Tulse Hill"},{"icsId":"1007523","id":"490007523F","lat":51.46555,"lon":-0.11369,"name":"Brixton Road / Brixton Police Station","parentId":"490G000549","stationId":"490G000549","stopLetter":"F","topMostParentId":"490G000549","towards":"Streatham Hill"},{"icsId":"1000031","id":"490000031Q","lat":51.46168,"lon":-0.11536,"name":"Brixton Station","stopLetter":"Q","topMostParentId":"490000031Q","towards":"Herne Hill Or Tulse Hill","zone":"2"},{"icsId":"1012808","id":"4900019343S","lat":51.46024,"lon":-0.11553,"name":"St Matthew's Church","parentId":"490G00012808","stationId":"490G00012808","stopLetter":"ZA","topMostParentId":"490G00012808","towards":"Herne Hill"},{"icsId":"1012810","id":"490012810S","lat":51.45815,"lon":-0.11478,"name":"St Matthews Estate","parentId":"490G00012810","stationId":"490G00012810","stopLetter":"A","topMostParentId":"490G00012810","towards":"Herne Hill Or Tulse Hill"},{"icsId":"1005847","id":"490010053S","lat":51.4564,"lon":-0.11415,"name":"Morval Road","parentId":"490G00005847","stationId":"490G00005847","stopLetter":"B","topMostParentId":"490G00005847","towards":"Herne Hill Or Tulse Hill"},{"icsId":"1005933","id":"490005933S","lat":51.45595,"lon":-0.11092,"name":"Dalberg Road / Effra Parade","parentId":"490G00005933","stationId":"490G00005933","stopLetter":"Q","topMostParentId":"490G00005933","towards":"Crystal Palace, East Dulwich Or Tulse Hill"},{"icsId":"1009933","id":"490009933W","lat":51.45412,"lon":-0.1077,"name":"Milton Road","parentId":"490G00009933","stationId":"490G00009933","stopLetter":"R","topMostParentId":"490G00009933","towards":"Crystal Palace, East Dulwich Or Tulse Hill"},{"icsId":"1004402","id":"490004402P","lat":51.45334,"lon":-0.1054,"name":"Brockwell Lido","parentId":"490G00004402","stationId":"490G00004402","stopLetter":"Z","topMostParentId":"490G00004402","towards":"Crystal Palace, East Dulwich Or Tulse Hill"},{"icsId":"1001149","id":"490001149N","lat":51.45262,"lon":-0.10265,"name":"Herne Hill Station","stopLetter":"N","topMostParentId":"490001149N","towards":"Crystal Palace, East Dulwich Or Tulse Hill"},{"icsId":"1004403","id":"490004403G","lat":51.45169,"lon":-0.10113,"name":"Brockwell Park","parentId":"490G000428","stationId":"490G000428","stopLetter":"G","topMostParentId":"490G000428","towards":"Crystal Palace Or Tulse Hill"},{"icsId":"1007592","id":"490007592S","lat":51.44963,"lon":-0.09933,"name":"Guernsey Grove","parentId":"490G00007592","stationId":"490G00007592","stopLetter":"K","topMostParentId":"490G00007592","towards":"Crystal Palace Or Tulse Hill"},{"icsId":"1013847","id":"490013847S","lat":51.44621,"lon":-0.09555,"name":"Turney Road","parentId":"490G00013847","stationId":"490G00013847","stopLetter":"WD","topMostParentId":"490G00013847","towards":"Crystal Palace Or Tulse Hill"},{"icsId":"1011293","id":"490011293S","lat":51.44365,"lon":-0.09457,"name":"Pymers Mead","parentId":"490G00011293","stationId":"490G00011293","stopLetter":"WE","topMostParentId":"490G00011293","towards":"Crystal Palace Or Tulse Hill"},{"icsId":"1013657","id":"490013657S","lat":51.44157,"lon":-0.09309,"name":"Croxted Road / Thurlow Park Road","parentId":"490G000799","stationId":"490G000799","stopLetter":"WF","topMostParentId":"490G000799","towards":"Crystal Palace Or Tulse Hill"},{"icsId":"1009183","id":"490009183S","lat":51.43825,"lon":-0.09139,"name":"Lings Coppice","parentId":"490G00009183","stationId":"490G00009183","stopLetter":"WG","topMostParentId":"490G00009183","towards":"Crystal Palace"},{"icsId":"1008459","id":"490008459S","lat":51.43662,"lon":-0.09061,"name":"Ildersly Grove","parentId":"490G00008459","stationId":"490G00008459","stopLetter":"WH","topMostParentId":"490G00008459","towards":"Crystal Palace"},{"icsId":"1010774","id":"490010774S","lat":51.43436,"lon":-0.08995,"name":"Park Hall Road","parentId":"490G00010774","stationId":"490G00010774","stopLetter":"WJ","topMostParentId":"490G00010774","towards":"Crystal Palace"},{"icsId":"1005246","id":"490005246S","lat":51.4323,"lon":-0.08938,"name":"Church Approach","parentId":"490G00005246","stationId":"490G00005246","stopLetter":"WK","topMostParentId":"490G00005246","towards":"Crystal Palace"},{"icsId":"1012270","id":"490003233S","lat":51.43039,"lon":-0.08877,"name":"South Croxted Road","parentId":"490G00012270","stationId":"490G00012270","stopLetter":"WL","topMostParentId":"490G00012270","towards":"Crystal Palace"},{"icsId":"1007190","id":"490016646S","lat":51.42875,"lon":-0.08648,"name":"Gipsy Hill","parentId":"490G00007190","stationId":"490G00007190","stopLetter":"D","topMostParentId":"490G00007190","towards":"Crystal Palace"},{"icsId":"1008839","id":"490008839SE","lat":51.42702,"lon":-0.08166,"name":"Dulwich Wood Park / Kingswood Drive","parentId":"490G00008839","stationId":"490G00008839","stopLetter":"Q","topMostParentId":"490G00008839","towards":"Crystal Palace"},{"icsId":"1015289","id":"490015289E","lat":51.42701,"lon":-0.07726,"name":"Dulwich Wood Park / College Road","parentId":"490G00015289","stationId":"490G00015289","stopLetter":"R","topMostParentId":"490G00015289","towards":"Crystal Palace"},{"icsId":"1005494","id":"490005494S2","lat":51.4232,"lon":-0.07651,"name":"Crystal Palace Parade / College Road","parentId":"490G00005494","stationId":"490G00005494","stopLetter":"S","topMostParentId":"490G00005494","towards":"Upper Norwood"},{"icsId":"1005869","id":"490005869S3","lat":51.4217,"lon":-0.07751,"name":"Crystal Palace","parentId":"490G00005869","stationId":"490G00005869","stopLetter":"->S","topMostParentId":"490G00005869"}]}]}