{"direction":"outbound","lineId":"303","lineName":"303","mode":"bus","stopPointSequences":[{"stopPoint":[{"icsId":"1000070","id":"490000070D","lat":51.61295,"lon":-0.27464,"name":"Edgware Station","stopLetter":"D","topMostParentId":"490000070D","towards":"Burnt Oak","zone":"5"},{"icsId":"1014573","id":"490014573N","lat":51.61018,"lon":-0.27848,"name":"Whitchurch Lane","parentId":"490G00014573","stationId":"490G00014573","stopLetter":"N","topMostParentId":"490G00014573","towards":"Burnt Oak"},{"icsId":"1006004","id":"490006004HD","lat":51.60772,"lon":-0.2756,"name":"Deansbrook Road","parentId":"490G00006004","stationId":"490G00006004","stopLetter":"HD","topMostParentId":"490G00006004","towards":"Colindale, Mill Hill Or Queensbury"},{"icsId":"1004113","id":"490004113E","lat":51.60763,"lon":-0.27363,"name":"Edgware Community Hosp / Deansbrook Rd","parentId":"490G00004113","stationId":"490G00004113","stopLetter":"HE","topMostParentId":"490G00004113","towards":"Mill Hill"},{"icsId":"1006002","id":"490006002E","lat":51.60902,"lon":-0.26738,"name":"Deansbrook Close","parentId":"490G00006002","stationId":"490G00006002","stopLetter":"S","topMostParentId":"490G00006002","towards":"Mill Hill"},{"icsId":"1006012","id":"490006006N","lat":51.60968,"lon":-0.26585,"name":"Deansbrook Road","parentId":"490G00006012","stationId":"490G00006012","stopLetter":"P","topMostParentId":"490G00006012","towards":"Mill Hill Broadway"},{"icsId":"1006009","id":"490006009N","lat":51.61378,"lon":-0.26493,"name":"Deans Way","parentId":"490G00006009","stationId":"490G00006009","stopLetter":"Q","topMostParentId":"490G00006009","towards":"Mill Hill Broadway"},{"icsId":"1007434","id":"490007434N","lat":51.61594,"lon":-0.26073,"name":"Greencroft","parentId":"490G00007434","stationId":"490G00007434","stopLetter":"R","topMostParentId":"490G00007434","towards":"Mill Hill Broadway"},{"icsId":"1003407","id":"490003407E","lat":51.61549,"lon":-0.25549,"name":"Ashbourne Grove","parentId":"490G00003407","stationId":"490G00003407","stopLetter":"C","topMostParentId":"490G00003407","towards":"Mill Hill East Or Colindale"},{"icsId":"1007665","id":"490007665E","lat":51.61437,"lon":-0.25188,"name":"Hale Grove Gardens","parentId":"490G00007665","stationId":"490G00007665","stopLetter":"D","topMostParentId":"490G00007665","towards":"Mill Hill East Or Colindale"},{"icsId":"1001193","id":"490001193B","lat":51.6133,"lon":-0.24901,"name":"Mill Hill Broadway Station","stopLetter":"B","topMostParentId":"490001193B","towards":"Burnt Oak Or Colindale"},{"icsId":"1009468","id":"490009468S","lat":51.61081,"lon":-0.2481,"name":"Woodcroft Avenue","parentId":"490G00009468","stationId":"490G00009468","stopLetter":"->S","topMostParentId":"490G00009468","towards":"Colindale"},{"icsId":"1019832","id":"490014664W","lat":51.6065,"lon":-0.24415,"name":"Field Mead","parentId":"490G00019832","stationId":"490G00019832","stopLetter":"->W","topMostParentId":"490G00019832","towards":"Colindale"},{"icsId":"1014664","id":"490014664S","lat":51.60501,"lon":-0.2437,"name":"Wiggins Mead","parentId":"490G00014664","stationId":"490G00014664","stopLetter":"QN","topMostParentId":"490G00014664","towards":"Colindale"},{"icsId":"1008052","id":"490008052S","lat":51.60327,"lon":-0.24383,"name":"Saracens High School / Long Mead","parentId":"490G00008052","stationId":"490G00008052","stopLetter":"QP","topMostParentId":"490G00008052","towards":"Colindale"},{"icsId":"1012314","id":"490012314E","lat":51.60255,"lon":-0.24198,"name":"Saracens High School South Mead","parentId":"490G00012314","stationId":"490G00012314","stopLetter":"QQ","topMostParentId":"490G00012314","towards":"Colindale"},{"icsId":"1011749","id":"490011749S","lat":51.59781,"lon":-0.24088,"name":"Royal Air Force Museum","parentId":"490G00011749","stationId":"490G00011749","stopLetter":"QR","topMostParentId":"490G00011749","towards":"Colindale"},{"icsId":"1008055","id":"490008055W","lat":51.59669,"lon":-0.24407,"name":"Beaufort Park","parentId":"490G00008055","stationId":"490G00008055","stopLetter":"QS","topMostParentId":"490G00008055","towards":"Colindale"},{"icsId":"1007070","id":"490012236N","lat":51.59843,"lon":-0.24567,"name":"Colindale Library","parentId":"490G00007070","stationId":"490G00007070","stopLetter":"QT","topMostParentId":"490G00007070","towards":"Edgware Or Mill Hill"},{"icsId":"1011298","id":"490011298W1","lat":51.60152,"lon":-0.24599,"name":"Quakers Course","parentId":"490G00011298","stationId":"490G00011298","stopLetter":"QE","topMostParentId":"490G00011298","towards":"Brent Cross Or Colindale"},{"icsId":"1007070","id":"490007070S","lat":51.59731,"lon":-0.24533,"name":"Colindale Library","parentId":"490G00007070","stationId":"490G00007070","stopLetter":"QH","topMostParentId":"490G00007070","towards":"Brent Cross, Colindale Or Mill Hill"},{"icsId":"1000054","id":"490000054CA","lat":51.59565,"lon":-0.24883,"name":"Colindale Station","stopLetter":"CA","topMostParentId":"490000054CA","towards":"Kingsbury Or Colindale Asda","zone":"4"},{"icsId":"1003132","id":"490003132CC","lat":51.5938,"lon":-0.25291,"name":"Ajax Avenue","parentId":"490G00003132","stationId":"490G00003132","stopLetter":"CC","topMostParentId":"490G00003132","towards":"Kingbury Or Colindale Asda"},{"icsId":"1013469","id":"490013469CW","lat":51.59338,"lon":-0.25543,"name":"Cecil Road","parentId":"490G00013469","stationId":"490G00013469","stopLetter":"CW","topMostParentId":"490G00013469","towards":"Colindale Asda"},{"icsId":"1014986","id":"490014986W","lat":51.59321,"lon":-0.25777,"name":"Edgware Road","parentId":"490G00014986","stationId":"490G00014986","stopLetter":"CT","topMostParentId":"490G00014986","towards":"Colindale Asda"},{"icsId":"1014985","id":"490014985N","lat":51.59387,"lon":-0.25961,"name":"The Greenway","parentId":"490G00014985","stationId":"490G00014985","stopLetter":"CN","topMostParentId":"490G00014985","towards":"Edgware"},{"icsId":"1000427","id":"490006431W","lat":51.59423,"lon":-0.26192,"name":"Colindale Superstores","parentId":"490G000076","stationId":"490G000076","stopLetter":"CO","topMostParentId":"490G000076"},{"icsId":"1002126","id":"490015303S","lat":51.59275,"lon":-0.26621,"name":"Kingsbury Health and Wellbeing","parentId":"490G000348","stationId":"490G000348","stopLetter":"RA","topMostParentId":"490G000348","towards":"Neasden Or Kingsbury"},{"icsId":"1003538","id":"490003538W","lat":51.59075,"lon":-0.27191,"name":"Bacon Lane","parentId":"490G00003538","stationId":"490G00003538","stopLetter":"RL","topMostParentId":"490G00003538","towards":"Kingsbury"},{"icsId":"1006653","id":"490006653W","lat":51.58973,"lon":-0.27576,"name":"Eton Grove","parentId":"490G00006653","stationId":"490G00006653","stopLetter":"->W","topMostParentId":"490G00006653","towards":"Kingsbury"},{"icsId":"1002138","id":"490002138Z","lat":51.58899,"lon":-0.27983,"name":"Princes Close","parentId":"490G000358","stationId":"490G000358","stopLetter":"->W","topMostParentId":"490G000358","towards":"Kingsbury Circle"},{"icsId":"1015365","id":"490015365D","lat":51.58611,"lon":-0.28238,"name":"Kingsbury Circle","parentId":"490G000889","stationId":"490G000889","stopLetter":"D","topMostParentId":"490G000889","towards":"Colindale Or Preston Road"}]}]}