{"direction":"outbound","lineId":"306","lineName":"306","mode":"bus","stopPointSequences":[{"stopPoint":[{"icsId":"1011970","id":"490011970E","lat":51.50685,"lon":-0.24856,"name":"Second Avenue","parentId":"490G00011970","stationId":"490G00011970","stopLetter":"VU","topMostParentId":"490G00011970","towards":"East Acton, Hammersmith Or Shepherd's Bush"},{"icsId":"1018990","id":"490003456E","lat":51.50684,"lon":-0.24634,"name":"First Avenue","parentId":"490G00018990","stationId":"490G00018990","stopLetter":"VV","topMostParentId":"490G00018990","towards":"Shepherd's Bush, Hammersmith Or East Acton"},{"icsId":"1018989","id":"490003456S","lat":51.50628,"lon":-0.24484,"name":"Uxbridge Road","parentId":"490G00018989","stationId":"490G00018989","stopLetter":"AC","topMostParentId":"490G00018989","towards":"Hammersmith"},{"icsId":"1007145","id":"490007145S","lat":51.50364,"lon":-0.24338,"name":"Askew Road Library / Gayford Road","parentId":"490G00007145","stationId":"490G00007145","stopLetter":"AD","topMostParentId":"490G00007145","towards":"Hammersmith"},{"icsId":"1003424","id":"490003424S","lat":51.50188,"lon":-0.24183,"name":"Ashchurch Terrace","parentId":"490G00003424","stationId":"490G00003424","stopLetter":"SW","topMostParentId":"490G00003424","towards":"Hammersmith"},{"icsId":"1012595","id":"490012595S","lat":51.50032,"lon":-0.23943,"name":"Kelmscott Gardens","parentId":"490G00012595","stationId":"490G00012595","stopLetter":"SX","topMostParentId":"490G00012595","towards":"Hammersmith"},{"icsId":"1012004","id":"490012004S","lat":51.49924,"lon":-0.23761,"name":"Goldhawk Road","parentId":"490G00012004","stationId":"490G00012004","stopLetter":"SY","topMostParentId":"490G00012004","towards":"Hammersmith"},{"icsId":"1008559","id":"490008559S","lat":51.49674,"lon":-0.23525,"name":"John Betts School","parentId":"490G00008559","stationId":"490G00008559","stopLetter":"SZ","topMostParentId":"490G00008559","towards":"Hammersmith"},{"icsId":"1000188","id":"490000188B","lat":51.49492,"lon":-0.23452,"name":"Ravenscourt Park Station","stopLetter":"B","topMostParentId":"490000188B","towards":"Hammersmith","zone":"2"},{"icsId":"1015588","id":"490015588E","lat":51.49443,"lon":-0.23261,"name":"Lamington Street","parentId":"490G00015588","stationId":"490G00015588","stopLetter":"->E","topMostParentId":"490G00015588","towards":"Hammersmith"},{"icsId":"1007239","id":"490007239E","lat":51.49457,"lon":-0.23012,"name":"Iffley Road","parentId":"490G00007239","stationId":"490G00007239","stopLetter":"->E","topMostParentId":"490G00007239","towards":"Fulham Or Kensington"},{"icsId":"1000097","id":"490000097T","lat":51.49334,"lon":-0.22521,"name":"Hammersmith Stn / H&c and Circle Lines","stopLetter":"W","topMostParentId":"490000097T","towards":"Fulham, Kensington Or West Brompton","zone":"2"},{"icsId":"1007705","id":"490007705G","lat":51.49236,"lon":-0.22398,"name":"Hammersmith Bus Station","parentId":"490G000565","stationId":"490G000565","stopLetter":"F","topMostParentId":"HUBHMS"},{"icsId":"1008997","id":"490008990J","lat":51.49336,"lon":-0.21862,"name":"Latymer Court","parentId":"490G00008997","stationId":"490G00008997","stopLetter":"G","topMostParentId":"490G00008997","towards":"Fulham Or Kensington High Street"},{"icsId":"1004455","id":"490004455BB","lat":51.49371,"lon":-0.21586,"name":"Brook Green","parentId":"490G00004455","stationId":"490G00004455","stopLetter":"H","topMostParentId":"490G00004455","towards":"Fulham Or Kensington High Street"},{"icsId":"1007709","id":"490007709S","lat":51.49443,"lon":-0.21047,"name":"Kensington Olympia","parentId":"490G00007709","stationId":"490G00007709","stopLetter":"P","topMostParentId":"HUBKPA","towards":"Fulham Broadway"},{"icsId":"1009492","id":"490009492S","lat":51.49267,"lon":-0.20772,"name":"Lytton Estate","parentId":"490G00009492","stationId":"490G00009492","stopLetter":"R","topMostParentId":"490G00009492","towards":"Fulham Broadway"},{"icsId":"1000265","id":"490000265A","lat":51.49057,"lon":-0.20663,"name":"West Kensington Station","stopLetter":"S","topMostParentId":"490000265A","towards":"Fulham Broadway","zone":"2"},{"icsId":"1014485","id":"490014485S","lat":51.48803,"lon":-0.20381,"name":"West Kensington Estate","parentId":"490G00014485","stationId":"490G00014485","stopLetter":"BS","topMostParentId":"490G00014485","towards":"Fulham Broadway"},{"icsId":"1009156","id":"490009156X","lat":51.48614,"lon":-0.20277,"name":"Lillie Road","parentId":"490G00009156","stationId":"490G00009156","stopLetter":"BR","topMostParentId":"490G00009156","towards":"Fulham Broadway"},{"icsId":"1011382","id":"490011382Z","lat":51.48399,"lon":-0.20136,"name":"North End Road Market","parentId":"490G00011382","stationId":"490G00011382","stopLetter":"BH","topMostParentId":"490G00011382","towards":"Sands End Or Wandsworth"},{"icsId":"1000352","id":"490008547E","lat":51.48022,"lon":-0.19844,"name":"Fulham Broadway","parentId":"490G00000352","stationId":"490G00000352","stopLetter":"E","topMostParentId":"490G00000352","towards":"South Kensington, Sands End Or Wandsworth"},{"icsId":"1007057","id":"490007057S","lat":51.47925,"lon":-0.19453,"name":"Fulham Town Hall","parentId":"490G000526","stationId":"490G000526","stopLetter":"S","topMostParentId":"490G000526","towards":"Sands End Or Wandsworth Bridge"},{"icsId":"1013888","id":"490013888S","lat":51.4778,"lon":-0.19233,"name":"Tyrawley Road","parentId":"490G00013888","stationId":"490G00013888","stopLetter":"GE","topMostParentId":"490G00013888","towards":"Chelsea Or Wandsworth Bridge"},{"icsId":"1016612","id":"490016612S","lat":51.47566,"lon":-0.1884,"name":"Harwood Terrace","parentId":"490G00016612","stationId":"490G00016612","stopLetter":"P","topMostParentId":"490G00016612","towards":"Sands End Sainsbury's"},{"icsId":"1005071","id":"490016613S","lat":51.47448,"lon":-0.1852,"name":"Imperial Wharf Stn  / Chelsea Harbour","parentId":"490G00005071","stationId":"490G00005071","stopLetter":"R","topMostParentId":"490G00005071","towards":"Sands End Sainsbury's"},{"icsId":"1005070","id":"490005070W","lat":51.47266,"lon":-0.18409,"name":"Bagleys Lane","parentId":"490G000449","stationId":"490G000449","stopLetter":"B","topMostParentId":"490G000449","towards":"Clapham Junction"},{"icsId":"1007237","id":"490007237W","lat":51.47132,"lon":-0.18488,"name":"Glenrosa Street","parentId":"490G00007237","stationId":"490G00007237","stopLetter":"C","topMostParentId":"490G00007237","towards":"Clapham Junction"},{"icsId":"1011917","id":"490011917W","lat":51.46808,"lon":-0.186,"name":"Sands End / Sainsbury's","parentId":"490G00011917","stationId":"490G00011917","stopLetter":"TS","topMostParentId":"490G00011917","towards":"Fulham Broadway"}]}]}