{"direction":"outbound","lineId":"310","lineName":"310","mode":"bus","stopPointSequences":[{"stopPoint":[{"icsId":"1012524","id":"490012524H","lat":51.57308,"lon":-0.07163,"name":"Stamford Hill Broadway","parentId":"490G00012524","stationId":"490G00012524","stopLetter":"CV","topMostParentId":"490G00012524","towards":"Manor House Or Seven Sisters"},{"icsId":"1012529","id":"490012524C","lat":51.57379,"lon":-0.07449,"name":"Amhurst Park / Stamford Lodge","parentId":"490G00012529","stationId":"490G00012529","stopLetter":"CW","topMostParentId":"490G00012529","towards":"Manor House"},{"icsId":"1001265","id":"490001265B","lat":51.57432,"lon":-0.07703,"name":"Stamford Hill Station","stopLetter":"CX","topMostParentId":"490001265B","towards":"Manor House"},{"icsId":"1005718","id":"490005718W","lat":51.57477,"lon":-0.0814,"name":"Cranwich Road","parentId":"490G00005718","stationId":"490G00005718","stopLetter":"CY","topMostParentId":"490G00005718","towards":"Manor House"},{"icsId":"1003304","id":"490003304W","lat":51.5746,"lon":-0.08422,"name":"Bethune Road","parentId":"490G00003304","stationId":"490G00003304","stopLetter":"W","topMostParentId":"490G00003304","towards":"Finsbury Park"},{"icsId":"1003306","id":"490003306W","lat":51.57355,"lon":-0.08741,"name":"Seven Sisters Road / Amhurst Park","parentId":"490G00003306","stationId":"490G00003306","stopLetter":"U","topMostParentId":"490G00003306","towards":"Finsbury Park"},{"icsId":"1014812","id":"490014812W","lat":51.57214,"lon":-0.09149,"name":"Woodberry Grove","parentId":"490G00014812","stationId":"490G00014812","stopLetter":"V","topMostParentId":"490G00014812","towards":"Finsbury Park"},{"icsId":"1000142","id":"490000142H","lat":51.57124,"lon":-0.09419,"name":"Manor House Station","stopLetter":"H","topMostParentId":"490000142H","towards":"Finsbury Park","zone":"2+3"},{"icsId":"1020010","id":"490015076L","lat":51.56983,"lon":-0.09712,"name":"Portland Rise","parentId":"490G00020010","stationId":"490G00020010","stopLetter":"R","topMostParentId":"490G00020010","towards":"Holloway Nags Head"},{"icsId":"1003208","id":"490003208S","lat":51.56738,"lon":-0.10026,"name":"Alexandra Grove","parentId":"490G00003208","stationId":"490G00003208","stopLetter":"P","topMostParentId":"490G00003208","towards":"Holloway Nags Head"},{"icsId":"1015078","id":"490015078M","lat":51.56525,"lon":-0.10324,"name":"Finsbury Park / Blackstock Road","parentId":"490G000858","stationId":"490G000858","stopLetter":"M","topMostParentId":"HUBFPK","towards":"Holloway Nags Head"},{"icsId":"1011623","id":"490011623P","lat":51.56389,"lon":-0.10459,"name":"Rock Street","parentId":"490G00011623","stationId":"490G00011623","stopLetter":"P","topMostParentId":"490G00011623","towards":"Holloway Nags Head"},{"icsId":"1013693","id":"490013693N","lat":51.56896,"lon":-0.11149,"name":"Tollington Park","parentId":"490G00013693","stationId":"490G00013693","stopLetter":"W","topMostParentId":"490G00013693","towards":"Archway, Crouch End Or Wood Green"},{"icsId":"1007752","id":"490007752CS","lat":51.57036,"lon":-0.11468,"name":"Hanley Road / Stapleton Hall Road","parentId":"490G000569","stationId":"490G000569","stopLetter":"CS","topMostParentId":"490G000569","towards":"Archway, Crouch End Or Wood Green"},{"icsId":"1012591","id":"490012591CP","lat":51.5702,"lon":-0.11574,"name":"Crouch Hill Station  / Hanley Road","parentId":"490G000762","stationId":"490G000762","stopLetter":"CP","topMostParentId":"490G000762","towards":"Archway"},{"icsId":"1003261","id":"490003261W","lat":51.56886,"lon":-0.11833,"name":"Almington Street","parentId":"490G00003261","stationId":"490G00003261","stopLetter":"E","topMostParentId":"490G00003261","towards":"Archway"},{"icsId":"1008366","id":"490008366W","lat":51.56726,"lon":-0.12146,"name":"Hornsey Road","parentId":"490G00008366","stationId":"490G00008366","stopLetter":"F","topMostParentId":"490G00008366","towards":"Archway"},{"icsId":"1006698","id":"490006698N","lat":51.56822,"lon":-0.12316,"name":"Fairbridge Road","parentId":"490G00006698","stationId":"490G00006698","stopLetter":"N","topMostParentId":"490G00006698","towards":"Archway Or Crouch End"},{"icsId":"1000516","id":"490008365W","lat":51.571,"lon":-0.12451,"name":"Beaumont Rise","parentId":"490G000122","stationId":"490G000122","stopLetter":"E","topMostParentId":"490G000122","towards":"Archway"},{"icsId":"1010119","id":"490010119S","lat":51.57015,"lon":-0.12839,"name":"Mulkern Road","parentId":"490G00010119","stationId":"490G00010119","stopLetter":"D","topMostParentId":"490G00010119","towards":"Highgate Village"},{"icsId":"1005752","id":"490005752S","lat":51.56882,"lon":-0.13058,"name":"Cressida Road","parentId":"490G00005752","stationId":"490G00005752","stopLetter":"Z","topMostParentId":"490G00005752","towards":"Archway And Highgate Village"},{"icsId":"1019710","id":"490003363N","lat":51.56653,"lon":-0.133,"name":"Archway Road","parentId":"490G00019710","stationId":"490G00019710","stopLetter":"N","topMostParentId":"490G00019710","towards":"Highgate Village"},{"icsId":"1000008","id":"490000008W","lat":51.56483,"lon":-0.13482,"name":"Archway Station","stopLetter":"W","topMostParentId":"490000008W","towards":"Highgate Village Or Tufnell Park","zone":"2+3"},{"icsId":"1019132","id":"490014625A","lat":51.56703,"lon":-0.13779,"name":"Whittington Hospital / Magdala Avenue","parentId":"490G00019132","stationId":"490G00019132","stopLetter":"A","topMostParentId":"490G00019132","towards":"Crouch End Or Highgate Village"},{"icsId":"1014276","id":"490014276S","lat":51.56939,"lon":-0.14288,"name":"Waterlow Park / Lauderdale House","parentId":"490G00014276","stationId":"490G00014276","stopLetter":"HS","topMostParentId":"490G00014276","towards":"East Finchley Or Golders Green"},{"icsId":"1004038","id":"490004038R","lat":51.57032,"lon":-0.14596,"name":"Bisham Gardens","parentId":"490G00004038","stationId":"490G00004038","stopLetter":"K","topMostParentId":"490G00004038","towards":"East Finchley Or Golders Green"},{"icsId":"1012303","id":"490012303W","lat":51.5709,"lon":-0.1488,"name":"South Grove","parentId":"490G00012303","stationId":"490G00012303","stopLetter":"S","topMostParentId":"490G00012303","towards":"East Finchley Or Golders Green"},{"icsId":"1008158","id":"490008158W","lat":51.57174,"lon":-0.15328,"name":"Highgate Close","parentId":"490G00008158","stationId":"490G00008158","stopLetter":"M","topMostParentId":"490G00008158","towards":"Golders Green"},{"icsId":"1003469","id":"490003469W","lat":51.57205,"lon":-0.15709,"name":"Athlone House","parentId":"490G00003469","stationId":"490G00003469","stopLetter":"N","topMostParentId":"490G00003469","towards":"Golders Green"},{"icsId":"1012863","id":"490012863W","lat":51.57259,"lon":-0.16247,"name":"Stormont Road","parentId":"490G00012863","stationId":"490G00012863","stopLetter":"P","topMostParentId":"490G00012863","towards":"Golders Green"},{"icsId":"1005532","id":"490005532W","lat":51.57266,"lon":-0.16518,"name":"Compton Avenue / Kenwood House","parentId":"490G00005532","stationId":"490G00005532","stopLetter":"E","topMostParentId":"490G00005532","towards":"Golders Green"},{"icsId":"1008675","id":"490008675W","lat":51.57162,"lon":-0.17284,"name":"Kenwood House","parentId":"490G00008675","stationId":"490G00008675","stopLetter":"->W","topMostParentId":"490G00008675","towards":"Golders Green"},{"icsId":"1013555","id":"490013555S","lat":51.57002,"lon":-0.17381,"name":"The Spaniards Inn","parentId":"490G00013555","stationId":"490G00013555","stopLetter":"->S","topMostParentId":"490G00013555","towards":"Golders Green"},{"icsId":"1007717","id":"490007717S","lat":51.56575,"lon":-0.17721,"name":"Hampstead Heath","parentId":"490G00007717","stationId":"490G00007717","stopLetter":"->S","topMostParentId":"490G00007717","towards":"Golders Green"},{"icsId":"1008531","id":"490008531S2","lat":51.56315,"lon":-0.17916,"name":"Jack Straw's Castle / Whitestone Pond","parentId":"490G00008531","stationId":"490G00008531","stopLetter":"N","topMostParentId":"490G00008531","towards":"Golders Green"},{"icsId":"1008490","id":"490008490N","lat":51.56365,"lon":-0.18033,"name":"Inverforth House","parentId":"490G00008490","stationId":"490G00008490","stopLetter":"F","topMostParentId":"490G00008490","towards":"Golders Green"},{"icsId":"1020289","id":"490009562W","lat":51.56799,"lon":-0.18369,"name":"North End Road / Golders Hill Park","parentId":"490G00020289","stationId":"490G00020289","stopLetter":"->W","topMostParentId":"490G00020289","towards":"Golders Green"},{"icsId":"1014346","id":"490014346W","lat":51.5702,"lon":-0.1878,"name":"Wellgarth Road","parentId":"490G00014346","stationId":"490G00014346","stopLetter":"->W","topMostParentId":"490G00014346","towards":"Brent Cross"},{"icsId":"1000087","id":"490000087GK","lat":51.5714,"lon":-0.19367,"name":"Golders Green Station","stopLetter":"GK","topMostParentId":"490000087GK","towards":"Hendon Central Or Brent Cross","zone":"3"}]}]}