{"direction":"outbound","lineId":"314","lineName":"314","mode":"bus","stopPointSequences":[{"stopPoint":[{"icsId":"1018704","id":"490001097A","lat":51.45503,"lon":0.05208,"name":"Eltham Bus Station","parentId":"490G000923","stationId":"490G000923","stopLetter":"A","topMostParentId":"490G000923"},{"icsId":"1018654","id":"490006532E","lat":51.45377,"lon":0.0516,"name":"Eltham Station  / Lassa Road","parentId":"490G00018654","stationId":"490G00018654","stopLetter":"E","topMostParentId":"490G00018654","towards":"Bexleyheath, Chislehurst Or Sidcup"},{"icsId":"1018570","id":"490006537G","lat":51.45139,"lon":0.05228,"name":"Eltham Church / Well Hall Road","parentId":"490G00018570","stationId":"490G00018570","stopLetter":"G","topMostParentId":"490G00018570","towards":"Bexleyheath, Chislehurst Or Sidcup"},{"icsId":"1006539","id":"490006537L","lat":51.45074,"lon":0.05525,"name":"Eltham High Street / Passey Place","parentId":"490G00006539","stationId":"490G00006539","stopLetter":"L","topMostParentId":"490G00006539","towards":"Elmstead Woods Or Sidcup"},{"icsId":"1006547","id":"490006533Q","lat":51.45089,"lon":0.05872,"name":"Eltham High Street / Pound Place","parentId":"490G00006547","stationId":"490G00006547","stopLetter":"Q","topMostParentId":"490G00006547","towards":"Elmstead Woods Or Sidcup"},{"icsId":"1023124","id":"490012279S1","lat":51.45004,"lon":0.06414,"name":"Southend Crescent / Wythens Walk","parentId":"490G00023124","stationId":"490G00023124","stopLetter":"B","topMostParentId":"490G00023124","towards":"Elmstead Woods Or Sidcup"},{"icsId":"1008321","id":"490008321S","lat":51.44852,"lon":0.06417,"name":"Holy Trinity Church","parentId":"490G00008321","stationId":"490G00008321","stopLetter":"FA","topMostParentId":"490G00008321","towards":"Elmstead Woods, Grove Park Or Sidcup"},{"icsId":"1007684","id":"490007684S","lat":51.44706,"lon":0.06305,"name":"Halons Road","parentId":"490G00007684","stationId":"490G00007684","stopLetter":"FB","topMostParentId":"490G00007684","towards":"Elmstead Woods Or Sidcup"},{"icsId":"1008477","id":"490008477S","lat":51.44512,"lon":0.0635,"name":"Inca Drive","parentId":"490G00008477","stationId":"490G00008477","stopLetter":"FC","topMostParentId":"490G00008477","towards":"Elmstead Woods Or Sidcup"},{"icsId":"1007463","id":"490007463S","lat":51.44298,"lon":0.06499,"name":"Green Lane","parentId":"490G00007463","stationId":"490G00007463","stopLetter":"FD","topMostParentId":"490G00007463","towards":"Elmstead Woods Or Sidcup"},{"icsId":"1006892","id":"490006892N","lat":51.44171,"lon":0.06812,"name":"Footscray Rugby Club","parentId":"490G00006892","stationId":"490G00006892","stopLetter":"H","topMostParentId":"490G00006892","towards":"Elmstead Woods Or Sidcup"},{"icsId":"1010209","id":"490010209B","lat":51.43836,"lon":0.07141,"name":"New Eltham Station  / Footscray Road","parentId":"490G000674","stationId":"490G000674","stopLetter":"J","topMostParentId":"490G000674","towards":"Elmstead Woods Or Sidcup"},{"icsId":"1001205","id":"490001205E","lat":51.43662,"lon":0.07063,"name":"New Eltham Station  / Southwood Road","stopLetter":"L","topMostParentId":"490001205E","towards":"Chislehurst Or Elmstead Woods"},{"icsId":"1013318","id":"490013318W","lat":51.43509,"lon":0.06496,"name":"Fiveways","parentId":"490G00013318","stationId":"490G00013318","stopLetter":"M","topMostParentId":"490G00013318","towards":"Chislehurst Or Elmstead Woods"},{"icsId":"1005825","id":"490005825W","lat":51.43336,"lon":0.06228,"name":"Crouch Croft","parentId":"490G00005825","stationId":"490G00005825","stopLetter":"N","topMostParentId":"490G00005825","towards":"Bromley"},{"icsId":"1010863","id":"490010863S","lat":51.43127,"lon":0.058,"name":"Partridge Green","parentId":"490G00010863","stationId":"490G00010863","stopLetter":"V","topMostParentId":"490G00010863","towards":"Bromley"},{"icsId":"1005465","id":"490005465S","lat":51.43005,"lon":0.05774,"name":"Coldharbour Library","parentId":"490G00005465","stationId":"490G00005465","stopLetter":"W","topMostParentId":"490G00005465","towards":"Bromley"},{"icsId":"1012506","id":"490012506S","lat":51.42886,"lon":0.05741,"name":"St Alban's Church","parentId":"490G00012506","stationId":"490G00012506","stopLetter":"X","topMostParentId":"490G00012506","towards":"Bromley"},{"icsId":"1019824","id":"490010065S","lat":51.42709,"lon":0.054,"name":"Mottingham Road","parentId":"490G00019824","stationId":"490G00019824","stopLetter":"Y","topMostParentId":"490G00019824","towards":"Bromley"},{"icsId":"1016724","id":"490016724S","lat":51.42375,"lon":0.0504,"name":"St Keverne Road","parentId":"490G00016724","stationId":"490G00016724","stopLetter":"Z","topMostParentId":"490G00016724","towards":"Bromley"},{"icsId":"1000986","id":"490000986Y","lat":51.41958,"lon":0.04739,"name":"Walden Road","parentId":"490G000266","stationId":"490G000266","stopLetter":"->S","topMostParentId":"490G000266","towards":"Bromley"},{"icsId":"1001095","id":"490001095S","lat":51.41683,"lon":0.04603,"name":"Elmstead Woods Station","stopLetter":"B","topMostParentId":"490001095S","towards":"Bromley"},{"icsId":"1009258","id":"490009258W","lat":51.41361,"lon":0.04462,"name":"Logs Hill","parentId":"490G00009258","stationId":"490G00009258","stopLetter":"->W","topMostParentId":"490G00009258","towards":"Bromley"},{"icsId":"1014879","id":"490014879S","lat":51.41299,"lon":0.04048,"name":"Wood Lodge Gardens","parentId":"490G00014879","stationId":"490G00014879","stopLetter":"->S","topMostParentId":"490G00014879","towards":"Bromley"},{"icsId":"1008205","id":"490008205W","lat":51.41028,"lon":0.03875,"name":"Hill Brow","parentId":"490G00008205","stationId":"490G00008205","stopLetter":"M","topMostParentId":"490G00008205","towards":"Bromley"},{"icsId":"1018700","id":"4900018700W","lat":51.40997,"lon":0.03646,"name":"Ripley Arts Centre","parentId":"490G00018700","stationId":"490G00018700","stopLetter":"N","topMostParentId":"490G00018700","towards":"Bromley"},{"icsId":"1003700","id":"490003700W","lat":51.40958,"lon":0.03377,"name":"Baytree Close","parentId":"490G00003700","stationId":"490G00003700","stopLetter":"P","topMostParentId":"490G00003700","towards":"Bromley"},{"icsId":"1011960","id":"490011960W","lat":51.40998,"lon":0.03031,"name":"Scotts Park School","parentId":"490G00011960","stationId":"490G00011960","stopLetter":"Q","topMostParentId":"490G00011960","towards":"Bromley"},{"icsId":"1012750","id":"490012750W","lat":51.41134,"lon":0.02636,"name":"St Joseph's Church","parentId":"490G00012750","stationId":"490G00012750","stopLetter":"R","topMostParentId":"490G00012750","towards":"Bromley"},{"icsId":"1001284","id":"490001284W","lat":51.41404,"lon":0.02231,"name":"Sundridge Park Station","stopLetter":"B","topMostParentId":"490001284W","towards":"Hayes"},{"icsId":"1011044","id":"490011044W","lat":51.41459,"lon":0.01907,"name":"Plaistow Grove","parentId":"490G00011044","stationId":"490G00011044","stopLetter":"E","topMostParentId":"490G00011044","towards":"Hayes"},{"icsId":"1009279","id":"490009279W","lat":51.4141,"lon":0.01728,"name":"Plaistow Green","parentId":"490G00009279","stationId":"490G00009279","stopLetter":"D","topMostParentId":"490G00009279","towards":"Bromley Common Or Hayes"},{"icsId":"1010031","id":"490010031S","lat":51.41248,"lon":0.01523,"name":"Morgan Road","parentId":"490G00010031","stationId":"490G00010031","stopLetter":"->S","topMostParentId":"490G00010031","towards":"Bromley Common Or Hayes"},{"icsId":"1015515","id":"490015515S","lat":51.41038,"lon":0.01435,"name":"Hammelton Road","parentId":"490G00015515","stationId":"490G00015515","stopLetter":"C","topMostParentId":"490G00015515","towards":"Bromley Common Or Hayes"},{"icsId":"1001036","id":"490001036D","lat":51.40825,"lon":0.01637,"name":"Bromley North Station","stopLetter":"D","topMostParentId":"490001036D","towards":"Beckenham Or Hayes"},{"icsId":"1008665","id":"490008665T","lat":51.40531,"lon":0.0188,"name":"Bromley Civic Centre","parentId":"490G00008665","stationId":"490G00008665","stopLetter":"T","topMostParentId":"490G00008665","towards":"Beckenham, Bromley Common Or Hayes"},{"icsId":"1006507","id":"4900006507W","lat":51.40197,"lon":0.01594,"name":"Bromley High Street / the Mall","parentId":"490G00006507","stationId":"490G00006507","stopLetter":"W","topMostParentId":"490G00006507","towards":"Beckenham Or Hayes"},{"icsId":"1001037","id":"490001037X","lat":51.40066,"lon":0.01694,"name":"Bromley South Station","stopLetter":"Y","topMostParentId":"490001037X","towards":"Beckenham Or Hayes"},{"icsId":"1012775","id":"490012775J","lat":51.39879,"lon":0.01672,"name":"St Mark's Church","parentId":"490G00012775","stationId":"490G00012775","stopLetter":"J","topMostParentId":"490G00012775","towards":"Hayes Or Keston"},{"icsId":"1004724","id":"490004724S","lat":51.396,"lon":0.01534,"name":"Cameron Road","parentId":"490G00004724","stationId":"490G00004724","stopLetter":"U","topMostParentId":"490G00004724","towards":"Hayes Or Keston"},{"icsId":"1007953","id":"490007953S","lat":51.39249,"lon":0.01747,"name":"Hayes Road / Hayes Lane","parentId":"490G00007953","stationId":"490G00007953","stopLetter":"V","topMostParentId":"490G00007953","towards":"Hayes Or Keston"},{"icsId":"1019888","id":"490010307W","lat":51.38821,"lon":0.01691,"name":"Mead Way / Norman Park","parentId":"490G00019888","stationId":"490G00019888","stopLetter":"X","topMostParentId":"490G00019888","towards":"Hayes"},{"icsId":"1009639","id":"490009639S","lat":51.38492,"lon":0.01412,"name":"Marden Avenue","parentId":"490G00009639","stationId":"490G00009639","stopLetter":"Y","topMostParentId":"490G00009639","towards":"Hayes"},{"icsId":"1006385","id":"490006385S","lat":51.38366,"lon":0.01288,"name":"Eastway","parentId":"490G00006385","stationId":"490G00006385","stopLetter":"Z","topMostParentId":"490G00006385","towards":"Hayes"},{"icsId":"1010082","id":"490010082W","lat":51.3827,"lon":0.00959,"name":"Boughton Avenue","parentId":"490G00010082","stationId":"490G00010082","stopLetter":"->W","topMostParentId":"490G00010082","towards":"Hayes"},{"icsId":"1011453","id":"490011453W","lat":51.38201,"lon":0.00553,"name":"Pickhurst Mead","parentId":"490G00011453","stationId":"490G00011453","stopLetter":"W","topMostParentId":"490G00011453","towards":"Hayes Station"},{"icsId":"1005758","id":"490005758S","lat":51.3814,"lon":0.00503,"name":"Crest Road","parentId":"490G00005758","stationId":"490G00005758","stopLetter":"N","topMostParentId":"490G00005758","towards":"Coney Hall"},{"icsId":"1007949","id":"490007949S1","lat":51.37946,"lon":0.00598,"name":"Hayes Hill Road","parentId":"490G00007949","stationId":"490G00007949","stopLetter":"G","topMostParentId":"490G00007949","towards":"Coney Hall"},{"icsId":"1007941","id":"490007941A","lat":51.37741,"lon":0.01081,"name":"Hayes / Station Approach","parentId":"490G000580","stationId":"490G000580","stopLetter":"A","topMostParentId":"490G000580","towards":"Addington Village, Keston Or West Wickham"},{"icsId":"1001145","id":"490001145B","lat":51.37605,"lon":0.01103,"name":"Hayes Station","stopLetter":"B","topMostParentId":"490001145B","towards":"Addington Village, Keston Or West Wickham"},{"icsId":"1008289","id":"490008289W2","lat":51.37526,"lon":0.00537,"name":"Holland Way","parentId":"490G00008289","stationId":"490G00008289","stopLetter":"->W","topMostParentId":"490G00008289","towards":"Addington Village, Keston Or West Wickham"},{"icsId":"1005545","id":"490005545S","lat":51.3737,"lon":0.0014,"name":"Tiepigs Lane","parentId":"490G00005545","stationId":"490G00005545","stopLetter":"K","topMostParentId":"490G00005545","towards":"Addington Village, Keston Or West Wickham"},{"icsId":"1003099","id":"490003099W","lat":51.37052,"lon":-0.0022,"name":"Addington Road / Glebe Way","parentId":"490G00003099","stationId":"490G00003099","stopLetter":"L","topMostParentId":"490G00003099","towards":"Addington Village Or Shirley"},{"icsId":"1009032","id":"490009032W","lat":51.36889,"lon":-0.0048,"name":"Layhams Road","parentId":"490G00009032","stationId":"490G00009032","stopLetter":"M","topMostParentId":"490G00009032","towards":"Addington Village Or Shirley"},{"icsId":"1003095","id":"490003095W","lat":51.36391,"lon":-0.01843,"name":"Addington Road / Pumping Station","parentId":"490G00003095","stationId":"490G00003095","stopLetter":"->W","topMostParentId":"490G00003095","towards":"Forestdale Or New Addington"},{"icsId":"1003101","id":"490003101A","lat":51.35647,"lon":-0.03204,"name":"Addington Village Interchange","parentId":"490G000380","stationId":"490G000380","stopLetter":"A","topMostParentId":"490G000380"},{"icsId":"1015533","id":"490015533S1","lat":51.35309,"lon":-0.02601,"name":"Fieldway","parentId":"490G000907","stationId":"490G000907","stopLetter":"FH","topMostParentId":"490G000907","towards":"Parkway"},{"icsId":"1008522","id":"490008522E","lat":51.35081,"lon":-0.02316,"name":"Ivers Way","parentId":"490G000612","stationId":"490G000612","stopLetter":"FC","topMostParentId":"490G000612","towards":"Parkway"},{"icsId":"1010184","id":"490010184E","lat":51.35302,"lon":-0.0161,"name":"Netley Close","parentId":"490G00010184","stationId":"490G00010184","stopLetter":"->E","topMostParentId":"490G00010184","towards":"Parkway"},{"icsId":"1006257","id":"490006257S","lat":51.35212,"lon":-0.01054,"name":"Frimley Close","parentId":"490G00006257","stationId":"490G00006257","stopLetter":"->S","topMostParentId":"490G00006257","towards":"Parkway"},{"icsId":"1007266","id":"490007266S","lat":51.35023,"lon":-0.01019,"name":"Goldcrest Community Centre","parentId":"490G00007266","stationId":"490G00007266","stopLetter":"->S","topMostParentId":"490G00007266","towards":"Parkway"},{"icsId":"1008753","id":"490008753S","lat":51.34837,"lon":-0.01057,"name":"Goldcrest Way / King Henry's Drive","parentId":"490G00008753","stationId":"490G00008753","stopLetter":"->S","topMostParentId":"490G00008753","towards":"Parkway"},{"icsId":"1003187","id":"490003187S","lat":51.34695,"lon":-0.012,"name":"Wolsey Crescent","parentId":"490G00003187","stationId":"490G00003187","stopLetter":"->S","topMostParentId":"490G00003187","towards":"Parkway"},{"icsId":"1007135","id":"490014151S","lat":51.34417,"lon":-0.01367,"name":"Walsingham Road","parentId":"490G00007135","stationId":"490G00007135","stopLetter":"G","topMostParentId":"490G00007135","towards":"Parkway"},{"icsId":"1010848","id":"490010848W","lat":51.34272,"lon":-0.01666,"name":"Salcot Crescent","parentId":"490G000698","stationId":"490G000698","stopLetter":"E","topMostParentId":"490G000698","towards":"Homestead Way Or Vulcan Way"}]}]}