{"direction":"outbound","lineId":"323","lineName":"323","mode":"bus","stopPointSequences":[{"stopPoint":[{"icsId":"1000039","id":"490000039E","lat":51.51431,"lon":0.00866,"name":"Canning Town Bus Station","stopLetter":"E","topMostParentId":"490000039E","zone":"2/3"},{"icsId":"1003005","id":"490009587N","lat":51.52192,"lon":0.00431,"name":"Star Lane Station","parentId":"940GZZDLSTL","stationId":"940GZZDLSTL","stopLetter":"L","topMostParentId":"940GZZDLSTL","towards":"Stratford Or Bromley-By-Bow","zone":"2/3"},{"icsId":"1000943","id":"490016354W","lat":51.52115,"lon":0.00083,"name":"South Crescent Business Centre","parentId":"490G000252","stationId":"490G000252","stopLetter":"H","topMostParentId":"490G000252","towards":"Bromley-By-Bow"},{"icsId":"1013859","id":"490016353W","lat":51.52096,"lon":-0.00529,"name":"Twelvetrees Crescent","parentId":"490G00013859","stationId":"490G00013859","topMostParentId":"490G00013859","towards":"Bromley-By-Bow Or Canning Town"},{"icsId":"1016352","id":"490016352N","lat":51.5232,"lon":-0.00537,"name":"Prologis Park","parentId":"490G00016352","stationId":"490G00016352","stopLetter":"->N","topMostParentId":"490G00016352","towards":"Bromley-By-Bow"},{"icsId":"1000032","id":"490000032MO","lat":51.52331,"lon":-0.01209,"name":"Bromley By Bow Station","stopLetter":"BH","topMostParentId":"490000032MO","towards":"Mile End","zone":"2/3"},{"icsId":"1002030","id":"490002030B","lat":51.52287,"lon":-0.01578,"name":"Devons Road Station","stopLetter":"BJ","topMostParentId":"490002030B","towards":"Mile End","zone":"2"},{"icsId":"1016351","id":"490016351W","lat":51.52002,"lon":-0.02018,"name":"Watts Grove","parentId":"490G00016351","stationId":"490G00016351","stopLetter":"BK","topMostParentId":"490G00016351","towards":"Mile End"},{"icsId":"1016350","id":"490016350W","lat":51.5192,"lon":-0.02378,"name":"St Pauls Way Trust School","parentId":"490G00016350","stationId":"490G00016350","stopLetter":"MJ","topMostParentId":"490G00016350","towards":"Mile End"},{"icsId":"1016349","id":"490016349X","lat":51.5202,"lon":-0.02611,"name":"Ackroyd Drive","parentId":"490G00016349","stationId":"490G00016349","stopLetter":"MK","topMostParentId":"490G00016349","towards":"Mile End"},{"icsId":"1006614","id":"490016348W","lat":51.52146,"lon":-0.03152,"name":"Eric Street","parentId":"490G00006614","stationId":"490G00006614","stopLetter":"ML","topMostParentId":"490G00006614","towards":"Mile End"},{"icsId":"1004210","id":"490004210N","lat":51.52259,"lon":-0.03421,"name":"Bow Common Lane","parentId":"490G00004210","stationId":"490G00004210","stopLetter":"MD","topMostParentId":"490G00004210","towards":"Bethnal Green Or Hackney"},{"icsId":"1000146","id":"490000146B","lat":51.52375,"lon":-0.03451,"name":"Mile End Station","stopLetter":"B","topMostParentId":"490000146B","towards":"Bethnal Green Or Hackney","zone":"2"}]}]}