{"direction":"outbound","lineId":"326","lineName":"326","mode":"bus","stopPointSequences":[{"stopPoint":[{"icsId":"1013559","id":"490013559S","lat":51.65645,"lon":-0.20397,"name":"The Spires","parentId":"490G00013559","stationId":"490G00013559","stopLetter":"S","topMostParentId":"490G00013559","towards":"Barnet Hill Or Quinta Drive"},{"icsId":"1011868","id":"490011868T","lat":51.65495,"lon":-0.20439,"name":"Salisbury Road","parentId":"490G00011868","stationId":"490G00011868","stopLetter":"T","topMostParentId":"490G00011868","towards":"Dollis Valley, New Barnet Or Whetstone"},{"icsId":"1003639","id":"490003639D","lat":51.65466,"lon":-0.20159,"name":"Barnet High Street","parentId":"490G00003639","stationId":"490G00003639","stopLetter":"D","topMostParentId":"490G00003639","towards":"Whetstone Or New Barnet"},{"icsId":"1019009","id":"490003634H","lat":51.65262,"lon":-0.19881,"name":"Barnet High Street / Barnet Church","parentId":"490G00019009","stationId":"490G00019009","stopLetter":"H","topMostParentId":"490G00019009","towards":"New Barnet"},{"icsId":"1009772","id":"490009772N","lat":51.65136,"lon":-0.19691,"name":"High Barnet Station  / Meadway","parentId":"490G000664","stationId":"490G000664","stopLetter":"N","topMostParentId":"490G000664","towards":"Whetstone Or New Barnet"},{"icsId":"1000107","id":"490000107R","lat":51.64934,"lon":-0.19325,"name":"High Barnet Station","stopLetter":"R","topMostParentId":"490000107R","towards":"New Barnet Or Whetstone","zone":"5"},{"icsId":"1013897","id":"490013897Z","lat":51.64779,"lon":-0.19196,"name":"Underhill","parentId":"490G00013897","stationId":"490G00013897","topMostParentId":"490G00013897"},{"icsId":"1002255","id":"490002255Z","lat":51.64697,"lon":-0.19529,"name":"Mays Lane / Brent Place","parentId":"490G00002255","stationId":"490G00002255","stopLetter":"->E","topMostParentId":"490G00002255"},{"icsId":"1006098","id":"490006098W","lat":51.64434,"lon":-0.19914,"name":"Hera Avenue","parentId":"490G00006098","stationId":"490G00006098","stopLetter":"->S","topMostParentId":"490G00006098","towards":"High Barnet Or Brent Cross"},{"icsId":"1002253","id":"490002253Z","lat":51.64693,"lon":-0.19577,"name":"Elton Avenue","parentId":"490G00002253","stationId":"490G00002253","stopLetter":"->E","topMostParentId":"490G00002253"},{"icsId":"1002254","id":"490002254Z","lat":51.64781,"lon":-0.19311,"name":"Vale Avenue","parentId":"490G00002254","stationId":"490G00002254","stopLetter":"->E","topMostParentId":"490G00002254"},{"icsId":"1003640","id":"490003640S","lat":51.64721,"lon":-0.18829,"name":"Potters Lane","parentId":"490G00003640","stationId":"490G00003640","stopLetter":"A","topMostParentId":"490G00003640","towards":"Whetstone Or New Barnet"},{"icsId":"1012613","id":"490015143E","lat":51.64714,"lon":-0.18644,"name":"Barnet Everyman Cinema","parentId":"490G00012613","stationId":"490G00012613","stopLetter":"B","topMostParentId":"490G00012613","towards":"East Barnet"},{"icsId":"1014253","id":"490014253E","lat":51.64853,"lon":-0.18066,"name":"Warwick Road","parentId":"490G00014253","stationId":"490G00014253","stopLetter":"C","topMostParentId":"490G00014253","towards":"Cockfosters, Oakwood Or Whetstone"},{"icsId":"1001203","id":"490001201D","lat":51.64968,"lon":-0.17609,"name":"New Barnet Station  / Station Road","parentId":"490G00001203","stationId":"490G00001203","stopLetter":"D","topMostParentId":"490G00001203","towards":"Arnos Grove, Oakwood Or Whetstone"},{"icsId":"1010193","id":"490010193C","lat":51.64987,"lon":-0.17157,"name":"New Barnet Sainsbury's","parentId":"490G00010193","stationId":"490G00010193","stopLetter":"C","topMostParentId":"490G00010193","towards":"Arnos Grove, Oakwood Or Whetstone"},{"icsId":"1006313","id":"490006313E","lat":51.64755,"lon":-0.16765,"name":"Victoria Road","parentId":"490G00006313","stationId":"490G00006313","stopLetter":"BA","topMostParentId":"490G00006313","towards":"Arnos Grove, Oakwood Or Whetstone"},{"icsId":"1005744","id":"490006284W","lat":51.64324,"lon":-0.16632,"name":"Crescent Road","parentId":"490G00005744","stationId":"490G00005744","stopLetter":"BT","topMostParentId":"490G00005744","towards":"Whetstone"},{"icsId":"1008933","id":"490008933W","lat":51.64345,"lon":-0.17137,"name":"York Road","parentId":"490G00008933","stationId":"490G00008933","stopLetter":"->W","topMostParentId":"490G00008933","towards":"Whetstone"},{"icsId":"1019965","id":"490009975W","lat":51.64344,"lon":-0.17651,"name":"Lyonsdown Avenue","parentId":"490G00019965","stationId":"490G00019965","stopLetter":"->W","topMostParentId":"490G00019965","towards":"Whetstone"},{"icsId":"1007893","id":"490007893S","lat":51.64282,"lon":-0.17956,"name":"Hasluck Gardens","parentId":"490G00007893","stationId":"490G00007893","stopLetter":"H","topMostParentId":"490G00007893","towards":"Whetstone"},{"icsId":"1009489","id":"490009489S","lat":51.64089,"lon":-0.18058,"name":"Lyonsdown Road","parentId":"490G00009489","stationId":"490G00009489","stopLetter":"J","topMostParentId":"490G00009489","towards":"North Finchley, Muswell Hill Or Hendon"},{"icsId":"1014131","id":"490014131S","lat":51.63864,"lon":-0.17964,"name":"Walfield Avenue","parentId":"490G00014131","stationId":"490G00014131","stopLetter":"K","topMostParentId":"490G00014131","towards":"North Finchley, Muswell Hill Or Hendon"},{"icsId":"1007031","id":"490007031S","lat":51.63652,"lon":-0.17743,"name":"Friern Mount Drive","parentId":"490G00007031","stationId":"490G00007031","stopLetter":"->S","topMostParentId":"490G00007031","towards":"Finchley, Muswell Hill Or Hendon"},{"icsId":"1004978","id":"490004978S","lat":51.63389,"lon":-0.17586,"name":"Chandos Avenue","parentId":"490G00004978","stationId":"490G00004978","stopLetter":"L","topMostParentId":"490G00004978","towards":"North Finchley, Hendon Or Muswell Hill"},{"icsId":"1015488","id":"490015488M","lat":51.63101,"lon":-0.17513,"name":"High Road Whetstone / Athenaeum Road","parentId":"490G000901","stationId":"490G000901","stopLetter":"M","topMostParentId":"490G000901","towards":"North Finchley, Muswell Hill Or Hendon"},{"icsId":"1000237","id":"490000237B","lat":51.63008,"lon":-0.17676,"name":"Totteridge & Whetstone Stn","stopLetter":"B","topMostParentId":"490000237B","towards":"Mill Hill Or Finchley","zone":"4"},{"icsId":"1002256","id":"490002256Z","lat":51.62916,"lon":-0.18307,"name":"Greenway / Totteridge","parentId":"490G00002256","stationId":"490G00002256","stopLetter":"->S","topMostParentId":"490G00002256"},{"icsId":"1009313","id":"490009313Z","lat":51.62672,"lon":-0.18438,"name":"Longland Drive","parentId":"490G00009313","stationId":"490G00009313","stopLetter":"->S","topMostParentId":"490G00009313"},{"icsId":"1002257","id":"490002257Z","lat":51.62355,"lon":-0.187,"name":"Laurel Way","parentId":"490G00002257","stationId":"490G00002257","stopLetter":"->S","topMostParentId":"490G00002257"},{"icsId":"1002258","id":"490002258Z","lat":51.62261,"lon":-0.18844,"name":"Chiddingfold","parentId":"490G00002258","stationId":"490G00002258","stopLetter":"->S","topMostParentId":"490G00002258"},{"icsId":"1002259","id":"490002259Z","lat":51.62205,"lon":-0.18977,"name":"Northiam","parentId":"490G00002259","stationId":"490G00002259","stopLetter":"->S","topMostParentId":"490G00002259"},{"icsId":"1002260","id":"490002260Z","lat":51.62014,"lon":-0.19049,"name":"Tillingham Way","parentId":"490G00002260","stationId":"490G00002260","stopLetter":"->S","topMostParentId":"490G00002260"},{"icsId":"1002261","id":"490002261Z","lat":51.61815,"lon":-0.19043,"name":"Southover","parentId":"490G00002261","stationId":"490G00002261","stopLetter":"->S","topMostParentId":"490G00002261"},{"icsId":"1002263","id":"490002263Z","lat":51.6177,"lon":-0.19044,"name":"Chanctonbury Way","parentId":"490G000005","stationId":"490G000005","stopLetter":"->S","topMostParentId":"490G000005"},{"icsId":"1013049","id":"490013049Z","lat":51.61532,"lon":-0.19031,"name":"Sussex Ring","parentId":"490G00013049","stationId":"490G00013049","stopLetter":"->N","topMostParentId":"490G00013049"},{"icsId":"1000375","id":"490000375Z","lat":51.61247,"lon":-0.18804,"name":"Argyle Road / Courthouse Road","parentId":"490G00000375","stationId":"490G00000375","stopLetter":"->S","topMostParentId":"490G00000375"},{"icsId":"1000887","id":"490000887Z","lat":51.61132,"lon":-0.18858,"name":"Courthouse Road","parentId":"490G00000887","stationId":"490G00000887","stopLetter":"->S","topMostParentId":"490G00000887"},{"icsId":"1000261","id":"490000261S","lat":51.60935,"lon":-0.18964,"name":"West Finchley Station","stopLetter":"->S","topMostParentId":"490000261S","zone":"4"},{"icsId":"1000912","id":"490000912Z","lat":51.60798,"lon":-0.19118,"name":"Chilvins Court","parentId":"490G00000912","stationId":"490G00000912","stopLetter":"->S","topMostParentId":"490G00000912"},{"icsId":"1000940","id":"490000940Z","lat":51.60636,"lon":-0.19386,"name":"Nether Street / West Finchley","parentId":"490G00000940","stationId":"490G00000940","stopLetter":"->S","topMostParentId":"490G00000940"},{"icsId":"1000942","id":"490000942Z","lat":51.60422,"lon":-0.19557,"name":"Elm Park Road / West Finchley","parentId":"490G00000942","stationId":"490G00000942","stopLetter":"->S","topMostParentId":"490G00000942"},{"icsId":"1000081","id":"490003156E","lat":51.60227,"lon":-0.19393,"name":"Finchley Central","stopLetter":"K","topMostParentId":"490003156E","towards":"Hendon Or Friern Barnet","zone":"4"},{"icsId":"1008054","id":"490008054H","lat":51.59946,"lon":-0.19585,"name":"Hendon Lane","parentId":"490G00008054","stationId":"490G00008054","stopLetter":"H","topMostParentId":"490G00008054","towards":"Golders Green Or Hendon"},{"icsId":"1006337","id":"490006337S","lat":51.59791,"lon":-0.19734,"name":"East End Road","parentId":"490G00006337","stationId":"490G00006337","stopLetter":"S","topMostParentId":"490G00006337","towards":"Golders Green Or Hendon"},{"icsId":"1007385","id":"490007385N","lat":51.59765,"lon":-0.19871,"name":"Gravel Hill","parentId":"490G00007385","stationId":"490G00007385","stopLetter":"L","topMostParentId":"490G00007385","towards":"Hendon"},{"icsId":"1012787","id":"490012787W","lat":51.59733,"lon":-0.20161,"name":"St Mary's Avenue","parentId":"490G00012787","stationId":"490G00012787","stopLetter":"M","topMostParentId":"490G00012787","towards":"Hendon"},{"icsId":"1003366","id":"490003366S","lat":51.59496,"lon":-0.20517,"name":"Arden Road","parentId":"490G00003366","stationId":"490G00003366","stopLetter":"N","topMostParentId":"490G00003366","towards":"Hendon"},{"icsId":"1005803","id":"490005803S","lat":51.59326,"lon":-0.20815,"name":"Crooked Usage","parentId":"490G00005803","stationId":"490G00005803","stopLetter":"->S","topMostParentId":"490G00005803","towards":"Hendon"},{"icsId":"1007422","id":"490007411W2","lat":51.592,"lon":-0.21022,"name":"Broughton Avenue","parentId":"490G00007422","stationId":"490G00007422","stopLetter":"->W","topMostParentId":"490G00007422","towards":"Hendon Central Or Brent Cross"},{"icsId":"1007411","id":"490007411W1","lat":51.59054,"lon":-0.21332,"name":"Great North Way","parentId":"490G00007411","stationId":"490G00007411","stopLetter":"->W","topMostParentId":"490G00007411","towards":"Colindale Or Hendon Central"},{"icsId":"1003218","id":"490003218W","lat":51.58979,"lon":-0.2164,"name":"Alexandra Road","parentId":"490G00003218","stationId":"490G00003218","stopLetter":"->W","topMostParentId":"490G00003218","towards":"Colindale Or Hendon Central"},{"icsId":"1013512","id":"490013512T","lat":51.58954,"lon":-0.22093,"name":"Hendon / the Quadrant","parentId":"490G00013512","stationId":"490G00013512","stopLetter":"T","topMostParentId":"490G00013512","towards":"Colindale Or Hendon Central"},{"icsId":"1005253","id":"490005253R","lat":51.58994,"lon":-0.22518,"name":"Church End","parentId":"490G00005253","stationId":"490G00005253","stopLetter":"R","topMostParentId":"490G00005253","towards":"Brent Cross, West Hendon Or Colindale"},{"icsId":"1008056","id":"490008056P","lat":51.58819,"lon":-0.22863,"name":"Hendon Town Hall","parentId":"490G00008056","stationId":"490G00008056","stopLetter":"P","topMostParentId":"490G00008056","towards":"Brent Cross Or West Hendon"},{"icsId":"1015519","id":"490015519N","lat":51.58654,"lon":-0.23009,"name":"Watford Way","parentId":"490G00015519","stationId":"490G00015519","stopLetter":"N","topMostParentId":"490G00015519","towards":"Brent Cross Or West Hendon"},{"icsId":"1008057","id":"490008057J","lat":51.58584,"lon":-0.23024,"name":"Hendon War Memorial","parentId":"490G00008057","stationId":"490G00008057","stopLetter":"J","topMostParentId":"490G00008057","towards":"Brent Cross"},{"icsId":"1000106","id":"490000106G","lat":51.58386,"lon":-0.22808,"name":"Hendon Central Station","stopLetter":"G","topMostParentId":"490000106G","towards":"Brent Cross Or Swiss Cottage","zone":"3+4"},{"icsId":"1003724","id":"490003724S","lat":51.57989,"lon":-0.22527,"name":"Beaufort Gardens","parentId":"490G00003724","stationId":"490G00003724","stopLetter":"->S","topMostParentId":"490G00003724","towards":"Brent Cross Or Swiss Cottage"},{"icsId":"1003096","id":"490010329H","lat":51.57748,"lon":-0.21952,"name":"North Circular Road","parentId":"490G00003096","stationId":"490G00003096","stopLetter":"H","topMostParentId":"490G00003096","towards":"Brent Cross Or Swiss Cottage"},{"icsId":"1011191","id":"490011191F","lat":51.57689,"lon":-0.21993,"name":"Prince Charles Drive","parentId":"490G00011191","stationId":"490G00011191","stopLetter":"F","topMostParentId":"490G00011191","towards":"Cricklewood, Neasden Or Brent Cross Shopping Ctr"},{"icsId":"1004282","id":"490004282A","lat":51.57565,"lon":-0.22352,"name":"Brent Cross Shopping Centre","parentId":"490G00004282","stationId":"490G00004282","stopLetter":"A","topMostParentId":"490G00004282"}]}]}