{"direction":"outbound","lineId":"336","lineName":"336","mode":"bus","stopPointSequences":[{"stopPoint":[{"icsId":"1013615","id":"490013615Q","lat":51.44636,"lon":-0.02268,"name":"Thomas Lane","parentId":"490G00013615","stationId":"490G00013615","stopLetter":"Q","topMostParentId":"490G00013615","towards":"Downham Or Eltham"},{"icsId":"1009122","id":"490009117U","lat":51.44394,"lon":-0.02226,"name":"Canadian Avenue / Lewisham Town Hall","parentId":"490G00009122","stationId":"490G00009122","stopLetter":"U","topMostParentId":"490G00009122","towards":"Downham"},{"icsId":"1008431","id":"490008431ZZ","lat":51.44252,"lon":-0.0223,"name":"Canadian Avenue","parentId":"490G00008431","stationId":"490G00008431","stopLetter":"->S","topMostParentId":"490G00008431","towards":"Bellingham"},{"id":"490001983XY","lat":51.44015,"lon":-0.02251,"name":"Canadian Avenue","stopLetter":"->S","topMostParentId":"490001983XY","towards":"Bellingham"},{"id":"490001984ZY","lat":51.43705,"lon":-0.02468,"name":"Knapmill Road","stopLetter":"->S","topMostParentId":"490001984ZY","towards":"Bellingham"},{"id":"490002381ZW","lat":51.43397,"lon":-0.02249,"name":"Athelney Street","parentId":"490G00092381","stationId":"490G00092381","stopLetter":"->S","topMostParentId":"490G00092381","towards":"Southend"},{"id":"490002382ZZ","lat":51.43274,"lon":-0.02196,"name":"Broadmead","parentId":"490G00092382","stationId":"490G00092382","stopLetter":"->S","topMostParentId":"490G00092382","towards":"Southend"},{"id":"490002384LC","lat":51.43149,"lon":-0.02148,"name":"Bellingham Leisure Centre","parentId":"490G00092384","stationId":"490G00092384","stopLetter":"->S","topMostParentId":"490G00092384","towards":"Southend"},{"icsId":"1006249","id":"490006249E","lat":51.42681,"lon":-0.01703,"name":"Dunfield Road","parentId":"490G00006249","stationId":"490G00006249","stopLetter":"SK","topMostParentId":"490G00006249","towards":"Bromley Or Grove Park"},{"icsId":"1004432","id":"490004432E","lat":51.42828,"lon":-0.01373,"name":"Southend Lane / Bromley Road","parentId":"490G00004432","stationId":"490G00004432","stopLetter":"SL","topMostParentId":"490G00004432","towards":"Bromley Or Grove Park"},{"icsId":"1014582","id":"490014582E","lat":51.4294,"lon":-0.01169,"name":"Whitefoot Lane / Bromley Road","parentId":"490G00014582","stationId":"490G00014582","stopLetter":"SM","topMostParentId":"490G00014582","towards":"Bromley"},{"icsId":"1014583","id":"490014583E","lat":51.43041,"lon":-0.00636,"name":"Whitefoot Lane / Forster House","parentId":"490G00014583","stationId":"490G00014583","stopLetter":"SN","topMostParentId":"490G00014583","towards":"Bromley"},{"icsId":"1007630","id":"490007630E","lat":51.43084,"lon":-0.00404,"name":"Haddington Road","parentId":"490G00007630","stationId":"490G00007630","stopLetter":"SO","topMostParentId":"490G00007630","towards":"Bromley"},{"id":"490002387ZY","lat":51.42864,"lon":-0.00319,"name":"Haddington Road","parentId":"490G00092387","stationId":"490G00092387","stopLetter":"->S","topMostParentId":"490G00092387","towards":"Downham"},{"id":"490002388XZ","lat":51.42863,"lon":-0.00113,"name":"Downham Woodland Walk","parentId":"490G00092388","stationId":"490G00092388","stopLetter":"->S","topMostParentId":"490G00092388","towards":"Downham"},{"id":"490002389ZY","lat":51.42743,"lon":0.00162,"name":"Shroffold Road","parentId":"490G00092389","stationId":"490G00092389","stopLetter":"->E","topMostParentId":"490G00092389","towards":"Downham"},{"icsId":"1007221","id":"490007221W","lat":51.42571,"lon":0.00132,"name":"Glenbow Road","parentId":"490G00007221","stationId":"490G00007221","stopLetter":"DY","topMostParentId":"490G00007221","towards":"Bromley, Catford Or Lower Sydenham"},{"icsId":"1008605","id":"490008605E","lat":51.42454,"lon":0.00122,"name":"Keedonwood Road","parentId":"490G00008605","stationId":"490G00008605","stopLetter":"DS","topMostParentId":"490G00008605","towards":"Bromley"},{"icsId":"1011422","id":"490011422E","lat":51.42363,"lon":0.00428,"name":"Rangefield Primary School","parentId":"490G00011422","stationId":"490G00011422","stopLetter":"->E","topMostParentId":"490G00011422","towards":"Bromley"},{"icsId":"1015092","id":"490015092E","lat":51.42259,"lon":0.00757,"name":"Rangefield Road / Valeswood Road","parentId":"490G00015092","stationId":"490G00015092","stopLetter":"->E","topMostParentId":"490G00015092","towards":"Bromley"},{"icsId":"1011096","id":"490011096E","lat":51.42161,"lon":0.01062,"name":"Pontefract Road","parentId":"490G00011096","stationId":"490G00011096","stopLetter":"->E","topMostParentId":"490G00011096","towards":"Bromley"},{"icsId":"1011424","id":"490011424E","lat":51.4208,"lon":0.01514,"name":"Rangefield Road / Southover","parentId":"490G00011424","stationId":"490G00011424","stopLetter":"->E","topMostParentId":"490G00011424","towards":"Bromley"},{"icsId":"1004468","id":"490004468S","lat":51.42067,"lon":0.01677,"name":"Brook Lane","parentId":"490G00004468","stationId":"490G00004468","stopLetter":"T","topMostParentId":"490G00004468","towards":"Bromley"},{"icsId":"1010750","id":"490010750S","lat":51.41711,"lon":0.01708,"name":"Park Avenue","parentId":"490G00010750","stationId":"490G00010750","stopLetter":"S","topMostParentId":"490G00010750","towards":"Bromley South"},{"icsId":"1009279","id":"490009279W","lat":51.4141,"lon":0.01728,"name":"Plaistow Green","parentId":"490G00009279","stationId":"490G00009279","stopLetter":"D","topMostParentId":"490G00009279","towards":"Bromley Common Or Hayes"},{"icsId":"1010031","id":"490010031S","lat":51.41248,"lon":0.01523,"name":"Morgan Road","parentId":"490G00010031","stationId":"490G00010031","stopLetter":"->S","topMostParentId":"490G00010031","towards":"Bromley Common Or Hayes"},{"icsId":"1015515","id":"490015515S","lat":51.41038,"lon":0.01435,"name":"Hammelton Road","parentId":"490G00015515","stationId":"490G00015515","stopLetter":"C","topMostParentId":"490G00015515","towards":"Bromley Common Or Hayes"},{"icsId":"1001036","id":"490001036E","lat":51.40819,"lon":0.01667,"name":"Bromley North Station","stopLetter":"E","topMostParentId":"490001036E","towards":"Bickley Or Bromley Common"},{"icsId":"1008665","id":"490008665T","lat":51.40531,"lon":0.0188,"name":"Bromley Civic Centre","parentId":"490G00008665","stationId":"490G00008665","stopLetter":"T","topMostParentId":"490G00008665","towards":"Beckenham, Bromley Common Or Hayes"},{"icsId":"1006507","id":"490006507Y","lat":51.40184,"lon":0.01625,"name":"Bromley High Street / the Mall","parentId":"490G00006507","stationId":"490G00006507","stopLetter":"X","topMostParentId":"490G00006507","towards":"Bickley Or Bromley Common"},{"icsId":"1001037","id":"490001037Z","lat":51.40049,"lon":0.01712,"name":"Bromley South Station","stopLetter":"Z","topMostParentId":"490001037Z","towards":"Bickley Or Bromley Common"},{"icsId":"1004423","id":"490004423G","lat":51.39892,"lon":0.01891,"name":"Cromwell Avenue","parentId":"490G00004423","stationId":"490G00004423","stopLetter":"G","topMostParentId":"490G00004423","towards":"Bickley Or Bromley Common"},{"icsId":"1003934","id":"490003934S","lat":51.3968,"lon":0.02353,"name":"Bertha James Day Centre","parentId":"490G00003934","stationId":"490G00003934","stopLetter":"BA","topMostParentId":"490G00003934","towards":"Biggin Hill, Locksbottom Or Petts Wood"},{"icsId":"1008330","id":"490008330S","lat":51.39604,"lon":0.02493,"name":"Homesdale Road","parentId":"490G00008330","stationId":"490G00008330","stopLetter":"BB","topMostParentId":"490G00008330","towards":"Biggin Hill, Locksbottom Or Petts Wood"},{"icsId":"1007407","id":"490007407N","lat":51.39643,"lon":0.02758,"name":"Great Elms Road","parentId":"490G00007407","stationId":"490G00007407","stopLetter":"BC","topMostParentId":"490G00007407","towards":"Bickley"},{"icsId":"1010563","id":"490010563N","lat":51.39813,"lon":0.03066,"name":"Old Homesdale Road","parentId":"490G00010563","stationId":"490G00010563","stopLetter":"A","topMostParentId":"490G00010563","towards":"Bickley"},{"icsId":"1013453","id":"490013453N","lat":51.40006,"lon":0.03359,"name":"The Lord Homesdale","parentId":"490G00013453","stationId":"490G00013453","stopLetter":"B","topMostParentId":"490G00013453","towards":"Bickley"},{"icsId":"1013886","id":"490013886S","lat":51.40071,"lon":0.03612,"name":"Tylney Road","parentId":"490G00013886","stationId":"490G00013886","stopLetter":"C","topMostParentId":"490G00013886","towards":"Locksbottom"},{"icsId":"1013236","id":"490013236S","lat":51.39888,"lon":0.03718,"name":"The Avenue / Beaconsfield Road","parentId":"490G00013236","stationId":"490G00013236","stopLetter":"D","topMostParentId":"490G00013236","towards":"Locksbottom"},{"icsId":"1005352","id":"490005352E","lat":51.39884,"lon":0.04208,"name":"Clarence Road","parentId":"490G00005352","stationId":"490G00005352","stopLetter":"->E","topMostParentId":"490G00005352","towards":"Locksbottom"},{"icsId":"1007929","id":"490007929D","lat":51.39895,"lon":0.045,"name":"Hawthorne Road","parentId":"490G000579","stationId":"490G000579","stopLetter":"D","topMostParentId":"490G000579","towards":"Locksbottom"},{"icsId":"1010775","id":"490010775S","lat":51.3963,"lon":0.04599,"name":"Park Hill","parentId":"490G00010775","stationId":"490G00010775","stopLetter":"->S","topMostParentId":"490G00010775","towards":"Locksbottom"},{"icsId":"1004104","id":"490004104S","lat":51.39419,"lon":0.04515,"name":"Blenheim Road","parentId":"490G00004104","stationId":"490G00004104","stopLetter":"->S","topMostParentId":"490G00004104","towards":"Locksbottom"},{"icsId":"1014900","id":"490014900S","lat":51.39232,"lon":0.04515,"name":"Woodside Road","parentId":"490G00014900","stationId":"490G00014900","stopLetter":"->S","topMostParentId":"490G00014900","towards":"Locksbottom"},{"icsId":"1012253","id":"490012253W","lat":51.38953,"lon":0.04333,"name":"Southborough Library","parentId":"490G00012253","stationId":"490G00012253","stopLetter":"L","topMostParentId":"490G00012253","towards":"Bromley Or Locksbottom"},{"icsId":"1004336","id":"490004336S","lat":51.38588,"lon":0.04285,"name":"Turpington Lane Community Centre","parentId":"490G00004336","stationId":"490G00004336","stopLetter":"T","topMostParentId":"490G00004336","towards":"Locksbottom"},{"icsId":"1009193","id":"490009193W","lat":51.38403,"lon":0.04255,"name":"Link Way","parentId":"490G00009193","stationId":"490G00009193","stopLetter":"BK","topMostParentId":"490G00009193","towards":"Locksbottom"},{"icsId":"1013856","id":"490013856S","lat":51.3826,"lon":0.04029,"name":"Bromley Common / Turpington Lane","parentId":"490G00013856","stationId":"490G00013856","stopLetter":"BL","topMostParentId":"490G00013856","towards":"Biggin Hill Or Locksbottom"},{"icsId":"1019738","id":"490010498S","lat":51.37868,"lon":0.04299,"name":"Oakley Road / Holy Trinity Church","parentId":"490G00019738","stationId":"490G00019738","stopLetter":"BM","topMostParentId":"490G00019738","towards":"Farnborough Or Orpington"},{"icsId":"1004413","id":"490004413S","lat":51.37575,"lon":0.04443,"name":"Bromley Bus Garage","parentId":"490G00004413","stationId":"490G00004413","stopLetter":"BN","topMostParentId":"490G00004413","towards":"Farnborough Or Orpington"},{"icsId":"1008913","id":"490010752S","lat":51.37061,"lon":0.04773,"name":"Lakeside Drive","parentId":"490G00008913","stationId":"490G00008913","stopLetter":"->S","topMostParentId":"490G00008913","towards":"Farnborough Or Orpington"},{"icsId":"1006757","id":"490006757E","lat":51.3684,"lon":0.04975,"name":"Farnborough Park","parentId":"490G00006757","stationId":"490G00006757","stopLetter":"->E","topMostParentId":"490G00006757","towards":"Farnborough Or Orpington"},{"icsId":"1009243","id":"490009243E","lat":51.36681,"lon":0.05427,"name":"Locksbottom / St Michael's Church","parentId":"490G00009243","stationId":"490G00009243","stopLetter":"HJ","topMostParentId":"490G00009243","towards":"Orpington"},{"icsId":"1009242","id":"490009242W","lat":51.36679,"lon":0.05597,"name":"Locksbottom / Pallant Way","parentId":"490G00009242","stationId":"490G00009242","stopLetter":"HP","topMostParentId":"490G00009242","towards":"Bromley"}]}]}