{"direction":"outbound","lineId":"337","lineName":"337","mode":"bus","stopPointSequences":[{"stopPoint":[{"icsId":"1005334","id":"490005333X","lat":51.46078,"lon":-0.16788,"name":"Northcote Road","parentId":"490G00005334","stationId":"490G00005334","stopLetter":"X","topMostParentId":"490G00005334","towards":"Battersea, Wandsworth Or Vauxhall"},{"icsId":"1005333","id":"490005333V","lat":51.46175,"lon":-0.16766,"name":"Clapham Junction / the Northcote","parentId":"490G00005333","stationId":"490G00005333","stopLetter":"V","topMostParentId":"HUBCLJ","towards":"Battersea, Vauxhall Or Wandsworth"},{"icsId":"1001069","id":"490001069M","lat":51.46339,"lon":-0.1687,"name":"Clapham Junction Station","stopLetter":"M","topMostParentId":"490001069M","towards":"Wandsworth"},{"icsId":"1011066","id":"490011066W","lat":51.462,"lon":-0.17268,"name":"Plough Road","parentId":"490G00011066","stationId":"490G00011066","stopLetter":"->W","topMostParentId":"490G00011066","towards":"Wandsworth"},{"icsId":"1004538","id":"490004538W","lat":51.46062,"lon":-0.17553,"name":"Brussels Road","parentId":"490G00004538","stationId":"490G00004538","stopLetter":"SA","topMostParentId":"490G00004538","towards":"Wandsworth"},{"icsId":"1009638","id":"490015372W","lat":51.45972,"lon":-0.17922,"name":"Marcilly Road","parentId":"490G00009638","stationId":"490G00009638","stopLetter":"SB","topMostParentId":"490G00009638","towards":"Wandsworth"},{"icsId":"1008418","id":"490008418W","lat":51.45782,"lon":-0.18352,"name":"Huguenot Place / Alma Road","parentId":"490G00008418","stationId":"490G00008418","stopLetter":"SH","topMostParentId":"490G00008418","towards":"Wandsworth"},{"icsId":"1008093","id":"490008093W","lat":51.45715,"lon":-0.18788,"name":"Herndon Road","parentId":"490G00008093","stationId":"490G00008093","stopLetter":"SJ","topMostParentId":"490G00008093","towards":"Roehampton, Putney Or Southfields"},{"icsId":"1014195","id":"490015546P","lat":51.45673,"lon":-0.19082,"name":"Wandsworth Town Hall","parentId":"490G00014195","stationId":"490G00014195","stopLetter":"P","topMostParentId":"490G00014195","towards":"Southfields, Putney Or Roehampton"},{"icsId":"1003045","id":"490014189Y","lat":51.4572,"lon":-0.19663,"name":"Wandsworth Police Station","parentId":"490G00003045","stationId":"490G00003045","stopLetter":"Y","topMostParentId":"490G00003045","towards":"Putney Or Roehampton"},{"icsId":"1009836","id":"490009836W","lat":51.45682,"lon":-0.19987,"name":"Merton Road","parentId":"490G00009836","stationId":"490G00009836","stopLetter":"Z","topMostParentId":"490G00009836","towards":"Putney Or Roehampton"},{"icsId":"1012985","id":"490012985W","lat":51.45663,"lon":-0.20326,"name":"Galveston Road","parentId":"490G00012985","stationId":"490G00012985","stopLetter":"EF","topMostParentId":"490G00012985","towards":"Putney Heath Or Sheen"},{"icsId":"1009543","id":"490009543W","lat":51.45799,"lon":-0.20736,"name":"Manfred Road","parentId":"490G00009543","stationId":"490G00009543","stopLetter":"EC","topMostParentId":"490G00009543","towards":"Putney Heath Or Sheen"},{"icsId":"1000069","id":"490000069EB","lat":51.45904,"lon":-0.20996,"name":"East Putney Station","stopLetter":"EB","topMostParentId":"490000069EB","towards":"Putney Heath Or Sheen","zone":"2+3"},{"icsId":"1001231","id":"490001231G","lat":51.46058,"lon":-0.21646,"name":"Putney Station","stopLetter":"G","topMostParentId":"490001231G","towards":"Putney Heath Or Sheen"},{"icsId":"1004628","id":"490011289JB","lat":51.4616,"lon":-0.22084,"name":"Putney Arts Theatre","parentId":"490G00004628","stationId":"490G00004628","stopLetter":"K","topMostParentId":"490G00004628","towards":"Roehampton Or Sheen"},{"icsId":"1011288","id":"490011288W","lat":51.46256,"lon":-0.22332,"name":"Putney Methodist Church","parentId":"490G00011288","stationId":"490G00011288","stopLetter":"S","topMostParentId":"490G00011288","towards":"Roehampton Or Sheen"},{"icsId":"1011287","id":"490011287W","lat":51.46321,"lon":-0.22895,"name":"Putney Leisure Centre","parentId":"490G00011287","stationId":"490G00011287","stopLetter":"T","topMostParentId":"490G00011287","towards":"Roehampton Or Sheen"},{"icsId":"1014818","id":"490014818W","lat":51.46419,"lon":-0.23454,"name":"Woodborough Road","parentId":"490G00014818","stationId":"490G00014818","stopLetter":"K","topMostParentId":"490G00014818","towards":"Roehampton Or Sheen"},{"icsId":"1006149","id":"490006149W","lat":51.46477,"lon":-0.2393,"name":"Dover House Road","parentId":"490G00006149","stationId":"490G00006149","stopLetter":"L","topMostParentId":"490G00006149","towards":"Sheen"},{"icsId":"1011642","id":"490011642F","lat":51.4652,"lon":-0.24468,"name":"Queen's Ride","parentId":"490G00011642","stationId":"490G00011642","stopLetter":"M","topMostParentId":"490G00011642","towards":"Richmond"},{"icsId":"1011229","id":"490011229W","lat":51.46502,"lon":-0.24943,"name":"Priory Lane","parentId":"490G00011229","stationId":"490G00011229","stopLetter":"N","topMostParentId":"490G00011229","towards":"Richmond"},{"icsId":"1011184","id":"490011184W","lat":51.46514,"lon":-0.25419,"name":"Priests Bridge","parentId":"490G00011184","stationId":"490G00011184","stopLetter":"K","topMostParentId":"490G00011184","towards":"Richmond"},{"icsId":"1007186","id":"490007186W","lat":51.46508,"lon":-0.26044,"name":"Kings Road","parentId":"490G00007186","stationId":"490G00007186","stopLetter":"L","topMostParentId":"490G00007186","towards":"Richmond"},{"icsId":"1012044","id":"490012044W","lat":51.46481,"lon":-0.26546,"name":"Richmond Park Road","parentId":"490G00012044","stationId":"490G00012044","stopLetter":"N","topMostParentId":"490G00012044","towards":"Richmond"},{"icsId":"1012049","id":"490012049W","lat":51.46432,"lon":-0.26813,"name":"East Sheen","parentId":"490G00012049","stationId":"490G00012049","stopLetter":"D","topMostParentId":"490G00012049","towards":"Richmond"},{"icsId":"1013196","id":"490013196W","lat":51.46413,"lon":-0.27277,"name":"Temple Sheen Road","parentId":"490G00013196","stationId":"490G00013196","stopLetter":"X","topMostParentId":"490G00013196","towards":"Richmond"},{"icsId":"1003941","id":"490003941W","lat":51.46394,"lon":-0.27989,"name":"Berwyn Road","parentId":"490G00003941","stationId":"490G00003941","stopLetter":"Y","topMostParentId":"490G00003941","towards":"Richmond"},{"icsId":"1012046","id":"490012046W","lat":51.46329,"lon":-0.28224,"name":"Sheen Court","parentId":"490G00012046","stationId":"490G00012046","stopLetter":"Z","topMostParentId":"490G00012046","towards":"Richmond Station Or Twickenham"},{"icsId":"1006377","id":"490006377SE","lat":51.46164,"lon":-0.28927,"name":"Manor Road / North Sheen Station","parentId":"490G00006377","stationId":"490G00006377","stopLetter":"SE","topMostParentId":"490G00006377","towards":"Richmond Station Or Twickenham"},{"icsId":"1019932","id":"490012452W","lat":51.46212,"lon":-0.29291,"name":"Sheen Road / Kings Road","parentId":"490G00019932","stationId":"490G00019932","stopLetter":"SF","topMostParentId":"490G00019932","towards":"Richmond Station Or Twickenham"},{"icsId":"1012051","id":"490012051W","lat":51.46155,"lon":-0.29753,"name":"Church Road","parentId":"490G00012051","stationId":"490G00012051","stopLetter":"->W","topMostParentId":"490G00012051","towards":"Richmond Or Twickenham"},{"icsId":"1012050","id":"490012050L","lat":51.46116,"lon":-0.3018,"name":"Eton Street","parentId":"490G00012050","stationId":"490G00012050","stopLetter":"L","topMostParentId":"490G00012050","towards":"Richmond Station Or Twickenham"},{"icsId":"1011556","id":"490011556W","lat":51.45939,"lon":-0.30401,"name":"Richmond Bus Station","parentId":"490G00011556","stationId":"490G00011556","stopLetter":"->E","topMostParentId":"490G00011556"}]}]}