{"direction":"outbound","lineId":"346","lineName":"346","mode":"bus","stopPointSequences":[{"stopPoint":[{"icsId":"1005929","id":"490005929N","lat":51.60556,"lon":0.24343,"name":"Dagnam Park Square","parentId":"490G00005929","stationId":"490G00005929","stopLetter":"DJ","topMostParentId":"490G00005929","towards":"Gallows Corner"},{"icsId":"1012054","id":"490012054N","lat":51.60666,"lon":0.24249,"name":"Sheffield Drive","parentId":"490G00012054","stationId":"490G00012054","stopLetter":"DK","topMostParentId":"490G00012054","towards":"Gallows Corner"},{"icsId":"1011997","id":"490011997W","lat":51.6083,"lon":0.24,"name":"Settle Road","parentId":"490G00011997","stationId":"490G00011997","stopLetter":"DL","topMostParentId":"490G00011997","towards":"Gallows Corner"},{"icsId":"1011971","id":"490011971W","lat":51.60951,"lon":0.23469,"name":"Sedgefield Crescent","parentId":"490G00011971","stationId":"490G00011971","stopLetter":"DT","topMostParentId":"490G00011971","towards":"Gallows Corner"},{"icsId":"1007799","id":"490007799W","lat":51.60907,"lon":0.22921,"name":"Harkness Close","parentId":"490G00007799","stationId":"490G00007799","stopLetter":"DV","topMostParentId":"490G00007799","towards":"Harold Wood Or Gallows Corner"},{"icsId":"1004473","id":"490004473W","lat":51.6085,"lon":0.22408,"name":"Brookside School","parentId":"490G00004473","stationId":"490G00004473","stopLetter":"DU","topMostParentId":"490G00004473","towards":"Harold Wood Or Gallows Corner"},{"icsId":"1005187","id":"490005187W","lat":51.60793,"lon":0.22082,"name":"Chippenham Road","parentId":"490G00005187","stationId":"490G00005187","stopLetter":"HH","topMostParentId":"490G00005187","towards":"Noak Hill Or Gallows Corner"},{"icsId":"1006762","id":"490006762W","lat":51.60715,"lon":0.21762,"name":"Hilldene Avenue Shopping Centre","parentId":"490G00006762","stationId":"490G00006762","stopLetter":"->W","topMostParentId":"490G00006762","towards":"Noak Hill Or Gallows Corner"},{"icsId":"1002193","id":"490004992Y","lat":51.60441,"lon":0.21503,"name":"Chatteris Avenue / Chippenham Road","parentId":"490G000800","stationId":"490G000800","stopLetter":"->S","topMostParentId":"490G000800"},{"icsId":"1002164","id":"490002164HS","lat":51.60312,"lon":0.21699,"name":"Myrtle Road / Chatteris Avenue","parentId":"490G000461","stationId":"490G000461","stopLetter":"->S","topMostParentId":"490G000461"},{"icsId":"1002166","id":"490002166HS","lat":51.60179,"lon":0.21874,"name":"Coltsfoot Path","parentId":"490G000467","stationId":"490G000467","stopLetter":"->S","topMostParentId":"490G000467"},{"icsId":"1002165","id":"490002165HS","lat":51.6006,"lon":0.22089,"name":"Broadford Primary School","parentId":"490G000463","stationId":"490G000463","stopLetter":"->S","topMostParentId":"490G000463"},{"icsId":"1002192","id":"490005051W","lat":51.59972,"lon":0.22133,"name":"Faringdon Avenue / Chatteris Avenue","parentId":"490G000771","stationId":"490G000771","stopLetter":"->W","topMostParentId":"490G000771","towards":"Gallows Corner"},{"icsId":"1002194","id":"490003451W","lat":51.59823,"lon":0.2189,"name":"Faringdon Avenue / Ashton Road","parentId":"490G000810","stationId":"490G000810","stopLetter":"->W","topMostParentId":"490G000810","towards":"Gallows Corner"},{"icsId":"1003451","id":"490003451Y","lat":51.59661,"lon":0.21979,"name":"Ashton Road","parentId":"490G00003451","stationId":"490G00003451","stopLetter":"->S","topMostParentId":"490G00003451"},{"icsId":"1007096","id":"490007096N","lat":51.59263,"lon":0.21981,"name":"Gallows Corner / Tesco","parentId":"490G00007096","stationId":"490G00007096","stopLetter":"GA","topMostParentId":"490G00007096","towards":"Harold Hill, Harold Wood Or Romford"},{"icsId":"1002172","id":"490002172HE","lat":51.59163,"lon":0.2225,"name":"Lister Avenue","parentId":"490G000550","stationId":"490G000550","stopLetter":"->E","topMostParentId":"490G000550"},{"icsId":"1002173","id":"490002173HE","lat":51.59123,"lon":0.22386,"name":"Sallow Road","parentId":"490G000566","stationId":"490G000566","stopLetter":"->E","topMostParentId":"490G000566"},{"icsId":"1002167","id":"490002167HS","lat":51.593,"lon":0.22745,"name":"Huntingdon Drive","parentId":"490G000497","stationId":"490G000497","stopLetter":"->S","topMostParentId":"490G000497"},{"icsId":"1002168","id":"490002168HE","lat":51.5933,"lon":0.23073,"name":"Wessex Lane","parentId":"490G000503","stationId":"490G000503","stopLetter":"->E","topMostParentId":"490G000503"},{"icsId":"1001137","id":"490001137B","lat":51.59299,"lon":0.23288,"name":"Harold Wood Station","stopLetter":"B","topMostParentId":"490001137B","towards":"Upminster, Gidea Park Or Hornchurch"},{"icsId":"1007831","id":"490007831S","lat":51.5906,"lon":0.23325,"name":"St Peter's Church","parentId":"490G00007831","stationId":"490G00007831","stopLetter":"H","topMostParentId":"490G00007831","towards":"Gidea Park, Hornchurch Or Upminster"},{"icsId":"1007590","id":"490007590E","lat":51.58973,"lon":0.23442,"name":"Harold Wood Neighbourhood Centre","parentId":"490G00007590","stationId":"490G00007590","stopLetter":"->E","topMostParentId":"490G00007590","towards":"Upminster"},{"icsId":"1008356","id":"490008356E","lat":51.59068,"lon":0.23847,"name":"Cockabourne Bridge","parentId":"490G00008356","stationId":"490G00008356","stopLetter":"->E","topMostParentId":"490G00008356","towards":"Upminster"},{"icsId":"1012065","id":"490012065E","lat":51.59147,"lon":0.24437,"name":"Phillida Road","parentId":"490G00012065","stationId":"490G00012065","stopLetter":"->E","topMostParentId":"490G00012065","towards":"Upminster"},{"icsId":"1016790","id":"490016790E","lat":51.5906,"lon":0.24912,"name":"Pages Lane","parentId":"490G00016790","stationId":"490G00016790","stopLetter":"->E","topMostParentId":"490G00016790","towards":"Upminster"},{"icsId":"1015789","id":"490015789S","lat":51.57357,"lon":0.25728,"name":"Wylie Veterinary Centre","parentId":"490G00015789","stationId":"490G00015789","stopLetter":"->S","topMostParentId":"490G00015789","towards":"Upminster"},{"icsId":"1003519","id":"490003519S","lat":51.56943,"lon":0.25678,"name":"River Drive","parentId":"490G00003519","stationId":"490G00003519","stopLetter":"->S","topMostParentId":"490G00003519","towards":"Upminster Town Centre"},{"icsId":"1013925","id":"490013925S","lat":51.56619,"lon":0.25493,"name":"Upminster Tithe Barn Museum","parentId":"490G00013925","stationId":"490G00013925","stopLetter":"->S","topMostParentId":"490G00013925","towards":"Upminster Town Centre"},{"icsId":"1013346","id":"490013346S","lat":51.56485,"lon":0.25375,"name":"The Fairway","parentId":"490G00013346","stationId":"490G00013346","stopLetter":"->S","topMostParentId":"490G00013346","towards":"Upminster Town Centre"},{"icsId":"1008487","id":"490008487S","lat":51.5629,"lon":0.25211,"name":"Ingrebourne Gardens","parentId":"490G00008487","stationId":"490G00008487","stopLetter":"V","topMostParentId":"490G00008487","towards":"Cranham Or Hornchurch"},{"icsId":"1000242","id":"490000242U","lat":51.55938,"lon":0.25059,"name":"Upminster Station","stopLetter":"U","topMostParentId":"490000242U","towards":"Cranham Or Hornchurch","zone":"6"},{"icsId":"1019449","id":"490015474C","lat":51.55766,"lon":0.24986,"name":"Upminster Stn   / St Lawrence Road","parentId":"490G000935","stationId":"490G000935","stopLetter":"C","topMostParentId":"HUBUPM","towards":"Cranham Or Hornchurch"},{"icsId":"1005602","id":"490005602F","lat":51.5563,"lon":0.24992,"name":"Corbets Tey Road","parentId":"490G00005602","stationId":"490G00005602","stopLetter":"F","topMostParentId":"490G00005602","towards":"Cranham"},{"icsId":"1013924","id":"490013924E","lat":51.55671,"lon":0.25365,"name":"Tudor Gardens","parentId":"490G00013924","stationId":"490G00013924","stopLetter":"G","topMostParentId":"490G00013924","towards":"Cranham"},{"icsId":"1013455","id":"490013455E","lat":51.55755,"lon":0.25879,"name":"Argyle Gardens","parentId":"490G00013455","stationId":"490G00013455","stopLetter":"H","topMostParentId":"490G00013455","towards":"Cranham"},{"icsId":"1008406","id":"490008406E","lat":51.55725,"lon":0.26298,"name":"Howard Road","parentId":"490G00008406","stationId":"490G00008406","stopLetter":"->E","topMostParentId":"490G00008406","towards":"Ockendon Or Upminster Park Estate"},{"icsId":"1011093","id":"490011093N","lat":51.55812,"lon":0.26607,"name":"Pond Walk","parentId":"490G00011093","stationId":"490G00011093","stopLetter":"->N","topMostParentId":"490G00011093","towards":"Upminster Park Estate"},{"icsId":"1011462","id":"490011462N","lat":51.55917,"lon":0.26644,"name":"Rectory Gardens","parentId":"490G00011462","stationId":"490G00011462","stopLetter":"->N","topMostParentId":"490G00011462","towards":"Upminster Park Estate"},{"icsId":"1014322","id":"490014322S","lat":51.57094,"lon":0.27079,"name":"Lexington Way","parentId":"490G00014322","stationId":"490G00014322","stopLetter":"->S","topMostParentId":"490G00014322","towards":"Cranham, Romford and Upminster"}]}]}