{"direction":"outbound","lineId":"349","lineName":"349","mode":"bus","stopPointSequences":[{"stopPoint":[{"icsId":"1007258","id":"490007258P","lat":51.64867,"lon":-0.04864,"name":"Glyn Road","parentId":"490G000534","stationId":"490G000534","stopLetter":"P","topMostParentId":"490G000534","towards":"Chingford, Bush Hill Park Or Edmonton"},{"icsId":"1015442","id":"490015441J","lat":51.64751,"lon":-0.04656,"name":"Southbury Road","parentId":"490G00015442","stationId":"490G00015442","stopLetter":"J","topMostParentId":"490G00015442","towards":"Edmonton Or Bush Hill Park"},{"icsId":"1011367","id":"490012335L","lat":51.64476,"lon":-0.04628,"name":"Ponders End Park","parentId":"490G00011367","stationId":"490G00011367","stopLetter":"L","topMostParentId":"490G00011367","towards":"Edmonton Or Bush Hill Park"},{"icsId":"1010364","id":"490010364S","lat":51.64166,"lon":-0.0471,"name":"Orchard Road","parentId":"490G00010364","stationId":"490G00010364","stopLetter":"LZ","topMostParentId":"490G00010364","towards":"Edmonton Green"},{"icsId":"1007087","id":"490010278S","lat":51.64002,"lon":-0.04771,"name":"Nightingale Road","parentId":"490G00007087","stationId":"490G00007087","stopLetter":"LB","topMostParentId":"490G00007087","towards":"Edmonton Green"},{"icsId":"1005881","id":"490005881S","lat":51.63689,"lon":-0.05023,"name":"Cuckoo Hall Lane","parentId":"490G00005881","stationId":"490G00005881","stopLetter":"LC","topMostParentId":"490G00005881","towards":"Edmonton Green"},{"icsId":"1013770","id":"490013770S","lat":51.63533,"lon":-0.05211,"name":"Tramway Avenue","parentId":"490G00013770","stationId":"490G00013770","stopLetter":"LD","topMostParentId":"490G00013770","towards":"Edmonton Green"},{"icsId":"1006933","id":"490006933S","lat":51.63245,"lon":-0.0544,"name":"Forest Road / Jubilee Park","parentId":"490G00006933","stationId":"490G00006933","stopLetter":"LE","topMostParentId":"490G00006933","towards":"Tottenham"},{"icsId":"1004180","id":"490004180S","lat":51.62942,"lon":-0.05615,"name":"Bounces Road","parentId":"490G00004180","stationId":"490G00004180","stopLetter":"LF","topMostParentId":"490G00004180","towards":"Tottenham Or North Middlesex Hospital"},{"icsId":"1004181","id":"490004181W","lat":51.62754,"lon":-0.05645,"name":"Monmouth Road","parentId":"490G00004181","stationId":"490G00004181","stopLetter":"LH","topMostParentId":"490G00004181","towards":"Enfield, Tottenham Or North Middlesex Hospital"},{"icsId":"1009983","id":"490009983G","lat":51.62541,"lon":-0.059,"name":"Edmonton Green Bus Station","parentId":"490G00009983","stationId":"490G00009983","stopLetter":"G","topMostParentId":"490G00009983","towards":"Tottenham Or North Middlesex Hospital"},{"icsId":"1006445","id":"490006445A","lat":51.62267,"lon":-0.06132,"name":"Edmonton Police Station","parentId":"490G00006445","stationId":"490G00006445","stopLetter":"J","topMostParentId":"490G00006445","towards":"Palmers Green, Tottenham Or Wood Green"},{"icsId":"1011968","id":"490011968S","lat":51.62113,"lon":-0.06179,"name":"Shrubbery Road","parentId":"490G00011968","stationId":"490G00011968","stopLetter":"K","topMostParentId":"490G00011968","towards":"Palmers Green, Tottenham Or Wood Green"},{"icsId":"1010801","id":"490010801G","lat":51.61787,"lon":-0.06316,"name":"Brettenham Road","parentId":"490G00010801","stationId":"490G00010801","stopLetter":"G","topMostParentId":"490G00010801","towards":"Palmers Green, Tottenham Or Wood Green"},{"icsId":"1003322","id":"490015189E","lat":51.61601,"lon":-0.06386,"name":"Angel Corner","parentId":"490G00003322","stationId":"490G00003322","stopLetter":"E","topMostParentId":"490G00003322","towards":"Tottenham"},{"icsId":"1005520","id":"490005690K","lat":51.61194,"lon":-0.06486,"name":"Colyton Way","parentId":"490G00005520","stationId":"490G00005520","stopLetter":"K","topMostParentId":"490G00005520","towards":"Stamford Hill and Manor House"},{"icsId":"1005690","id":"490010463S","lat":51.60931,"lon":-0.06646,"name":"Nutfield Close","parentId":"490G00005690","stationId":"490G00005690","stopLetter":"L","topMostParentId":"490G00005690","towards":"Manor House Or Stamford Hill"},{"icsId":"1001335","id":"490001335D","lat":51.60591,"lon":-0.06805,"name":"White Hart Lane Station","stopLetter":"M","topMostParentId":"490001335D","towards":"Stamford Hill Or Manor House"},{"icsId":"1013733","id":"490013733V","lat":51.6029,"lon":-0.0677,"name":"Tottenham Hotspur Football Club","parentId":"490G00013733","stationId":"490G00013733","stopLetter":"N","topMostParentId":"490G00013733","towards":"Stamford Hill Or Manor House"},{"icsId":"1013738","id":"490013738S","lat":51.60179,"lon":-0.06756,"name":"Tottenham Sports Centre","parentId":"490G00013738","stationId":"490G00013738","stopLetter":"P","topMostParentId":"490G00013738","towards":"Stamford Hill Or Manor House"},{"icsId":"1009360","id":"490009360S","lat":51.59893,"lon":-0.068,"name":"Lordship Lane","parentId":"490G00009360","stationId":"490G00009360","stopLetter":"A","topMostParentId":"490G00009360","towards":"Stamford Hill Or Manor House"},{"icsId":"1011950","id":"490011950S","lat":51.59725,"lon":-0.06802,"name":"Scotland Green","parentId":"490G00011950","stationId":"490G00011950","stopLetter":"B","topMostParentId":"490G00011950","towards":"Manor House Or Stamford Hill"},{"icsId":"1019454","id":"490019454S","lat":51.59305,"lon":-0.06965,"name":"Tottenham High Road / Bruce Grove Stn","parentId":"490G00019454","stationId":"490G00019454","stopLetter":"C","topMostParentId":"490G00019454","towards":"Manor House Or Stamford Hill"},{"icsId":"1013736","id":"490013736T","lat":51.59125,"lon":-0.06988,"name":"Tottenham Police Station","parentId":"490G00013736","stationId":"490G00013736","stopLetter":"D","topMostParentId":"490G00013736","towards":"Manor House Or Stamford Hill"},{"icsId":"1015083","id":"490013739N","lat":51.58793,"lon":-0.07066,"name":"Tottenham Town Hall","parentId":"490G000860","stationId":"490G000860","stopLetter":"W","topMostParentId":"490G000860","towards":"Manor House Or Stamford Hill"},{"icsId":"1013739","id":"490015083G","lat":51.5857,"lon":-0.0716,"name":"College of North East London","parentId":"490G00013739","stationId":"490G00013739","stopLetter":"G","topMostParentId":"490G00013739","towards":"Manor House Or Stamford Hill"},{"icsId":"1000201","id":"490015081Q","lat":51.58318,"lon":-0.07208,"name":"Seven Sisters Station","stopLetter":"K","topMostParentId":"490015081Q","towards":"Stoke Newington","zone":"3"},{"icsId":"1001264","id":"490001264W","lat":51.58058,"lon":-0.07256,"name":"South Tottenham Station","stopLetter":"TD","topMostParentId":"490001264W","towards":"Stoke Newington"},{"icsId":"1012433","id":"490012433S","lat":51.57775,"lon":-0.07302,"name":"St Ann's Road","parentId":"490G00012433","stationId":"490G00012433","stopLetter":"TE","topMostParentId":"490G00012433","towards":"Stoke Newington"},{"icsId":"1006456","id":"490006456F","lat":51.5745,"lon":-0.07226,"name":"Egerton Road","parentId":"490G00006456","stationId":"490G00006456","stopLetter":"SK","topMostParentId":"490G00006456","towards":"Stoke Newington"},{"icsId":"1023084","id":"490023084Y","lat":51.57314,"lon":-0.06703,"name":"Rookwood Road","parentId":"490G00023084","stationId":"490G00023084","stopLetter":"->S","topMostParentId":"490G00023084","towards":"Seven Sisters"}]}]}