{"direction":"outbound","lineId":"350","lineName":"350","mode":"bus","stopPointSequences":[{"stopPoint":[{"icsId":"1020310","id":"490020310N","lat":51.50041,"lon":-0.42478,"name":"Millington Road","parentId":"490G00020310","stationId":"490G00020310","stopLetter":"P","topMostParentId":"490G00020310","towards":"Hayes Town Or Yeading"},{"icsId":"1006702","id":"490006702N","lat":51.5019,"lon":-0.42335,"name":"Fairey Corner","parentId":"490G00006702","stationId":"490G00006702","stopLetter":"K","topMostParentId":"490G00006702","towards":"Hillingdon Hospital, Hayes End Or Yeading"},{"icsId":"1001144","id":"490001144N","lat":51.50333,"lon":-0.42076,"name":"Hayes & Harlington Station","stopLetter":"L","topMostParentId":"490001144N","towards":"Hillingdon Hospital, Hayes End Or Yeading"},{"icsId":"1007942","id":"490007942K","lat":51.50441,"lon":-0.41983,"name":"Clayton Road","parentId":"490G000581","stationId":"490G000581","stopLetter":"M","topMostParentId":"490G000581","towards":"Hillingdon Hospital, Hayes End Or Yeading"},{"icsId":"1000828","id":"490000828Z","lat":51.50681,"lon":-0.41909,"name":"Hayes Town Centre","parentId":"490G000162","stationId":"490G000162","stopLetter":"P","topMostParentId":"490G000162","towards":"Hayes End, Yeading Or Hillingdon Hospital"},{"icsId":"1011221","id":"490011221W","lat":51.51068,"lon":-0.42414,"name":"Printing House Lane","parentId":"490G00011221","stationId":"490G00011221","stopLetter":"J","topMostParentId":"490G00011221","towards":"Hillingdon Hospital Or Stockley Park"},{"icsId":"1004175","id":"490003540W","lat":51.51241,"lon":-0.42568,"name":"Botwell Common","parentId":"490G00004175","stationId":"490G00004175","stopLetter":"H","topMostParentId":"490G00004175","towards":"Stockley Park"},{"icsId":"1017848","id":"490017848W","lat":51.51343,"lon":-0.42871,"name":"Orwell Close","parentId":"490G00017848","stationId":"490G00017848","stopLetter":"G","topMostParentId":"490G00017848","towards":"Stockley Park"},{"icsId":"1003651","id":"490003651W","lat":51.51456,"lon":-0.43147,"name":"Barra Hall Road","parentId":"490G00003651","stationId":"490G00003651","stopLetter":"F","topMostParentId":"490G00003651","towards":"Stockley Park"},{"icsId":"1004176","id":"490004176W","lat":51.51445,"lon":-0.43535,"name":"Beechwood Avenue","parentId":"490G00004176","stationId":"490G00004176","stopLetter":"E","topMostParentId":"490G00004176","towards":"Stockley Park"},{"icsId":"1013560","id":"490013560E2","lat":51.50947,"lon":-0.43647,"name":"The Square","parentId":"490G00013560","stationId":"490G00013560","stopLetter":"G","topMostParentId":"490G00013560","towards":"West Drayton, Heathrow Central Or Terminal 5"},{"icsId":"1012825","id":"490012825W","lat":51.5093,"lon":-0.44168,"name":"Furzeground Way","parentId":"490G00012825","stationId":"490G00012825","stopLetter":"H","topMostParentId":"490G00012825","towards":"West Drayton, Heathrow Central Or Terminal 5"},{"icsId":"1009339","id":"490009339N","lat":51.51057,"lon":-0.44694,"name":"Longwalk Road","parentId":"490G00009339","stationId":"490G00009339","stopLetter":"J","topMostParentId":"490G00009339","towards":" West Drayton, Heathrow Central Or Terminal 5"},{"icsId":"1008499","id":"490008499W","lat":51.51141,"lon":-0.45193,"name":"Iron Bridge Road","parentId":"490G00008499","stationId":"490G00008499","stopLetter":"K","topMostParentId":"490G00008499","towards":"West Drayton, Heathrow Central Or Terminal 5"},{"icsId":"1012849","id":"490012849W","lat":51.51101,"lon":-0.46075,"name":"Stone Close","parentId":"490G00012849","stationId":"490G00012849","stopLetter":"->W","topMostParentId":"490G00012849","towards":"West Drayton Station And Terminal 5"},{"icsId":"1014609","id":"490014609W","lat":51.51115,"lon":-0.46499,"name":"Whitethorn Avenue","parentId":"490G00014609","stationId":"490G00014609","stopLetter":"->W","topMostParentId":"490G00014609","towards":"West Drayton Station and Terminal 5"},{"icsId":"1011607","id":"490011607W","lat":51.51104,"lon":-0.46819,"name":"Roberts Close","parentId":"490G00011607","stationId":"490G00011607","stopLetter":"->W","topMostParentId":"490G00011607","towards":"West Drayton Station and Terminal 5"},{"icsId":"1003159","id":"490003159D","lat":51.51122,"lon":-0.47091,"name":"Albert Road","parentId":"490G00003159","stationId":"490G00003159","stopLetter":"D","topMostParentId":"490G00003159","towards":"West Drayton Station and Terminal 5"},{"icsId":"1001325","id":"490001325F","lat":51.5102,"lon":-0.47331,"name":"West Drayton Station","stopLetter":"F","topMostParentId":"490001325F","towards":"Harmondsworth, Sipson Or Stockley Park Estate"},{"icsId":"1006815","id":"490006815H","lat":51.50839,"lon":-0.47327,"name":"Ferrers Avenue","parentId":"490G00006815","stationId":"490G00006815","stopLetter":"H","topMostParentId":"490G00006815","towards":"Harmondsworth, Sipson Or Stockley Park Estate"},{"icsId":"1004259","id":"490004259J","lat":51.50733,"lon":-0.47148,"name":"Brandville Road","parentId":"490G00004259","stationId":"490G00004259","stopLetter":"J","topMostParentId":"490G00004259","towards":"Sipson, Stockley Park Or Terminal 5"},{"icsId":"1005291","id":"490005291S","lat":51.50478,"lon":-0.46832,"name":"Church Road","parentId":"490G00005291","stationId":"490G00005291","stopLetter":"->S","topMostParentId":"490G00005291","towards":"Sipson, Stockley Park Or Terminal 5"},{"icsId":"1014424","id":"490014424S","lat":51.50362,"lon":-0.46687,"name":"Porters Way","parentId":"490G00014424","stationId":"490G00014424","stopLetter":"->S","topMostParentId":"490G00014424","towards":"Bath Road Or Terminal 5"},{"icsId":"1007822","id":"490007822S","lat":51.49647,"lon":-0.46874,"name":"Harmondsworth Road","parentId":"490G00007822","stationId":"490G00007822","stopLetter":"->S","topMostParentId":"490G00007822","towards":"Heathrow Central Or Terminal 5"},{"icsId":"1007820","id":"490007820W","lat":51.4897,"lon":-0.47415,"name":"Harmondsworth Lane","parentId":"490G00007820","stationId":"490G00007820","stopLetter":"A","topMostParentId":"490G00007820","towards":"Heathrow Central Or Terminal 5"},{"icsId":"1004744","id":"490004744S","lat":51.48592,"lon":-0.47601,"name":"Candover Close","parentId":"490G00004744","stationId":"490G00004744","stopLetter":"B","topMostParentId":"490G00004744","towards":"Heathrow Central Or Terminal 5"},{"icsId":"1003680","id":"490003680S","lat":51.48255,"lon":-0.47634,"name":"Skyport Drive","parentId":"490G00003680","stationId":"490G00003680","stopLetter":"C","topMostParentId":"490G00003680","towards":"Heathrow Central Or Terminal 5"},{"icsId":"1019776","id":"490014282T","lat":51.48259,"lon":-0.48308,"name":"Colnbrook By-Pass","parentId":"490G00019776","stationId":"490G00019776","stopLetter":"T","topMostParentId":"490G00019776","towards":"Terminal 5"},{"icsId":"1016430","id":"4900164301H","lat":51.47314,"lon":-0.48967,"name":"Heathrow Terminal 5","parentId":"910GHTRBUS5","stationId":"910GHTRBUS5","stopLetter":"1","topMostParentId":"HUBHX5","zone":"6"}]}]}