{"direction":"outbound","lineId":"355","lineName":"355","mode":"bus","stopPointSequences":[{"stopPoint":[{"icsId":"1013650","id":"490013650W2","lat":51.40282,"lon":-0.1613,"name":"Three Kings Pond","parentId":"490G00013650","stationId":"490G00013650","stopLetter":"N","topMostParentId":"490G00013650","towards":"Tooting"},{"icsId":"1000935","id":"490009949L","lat":51.4051,"lon":-0.16331,"name":"Upper Green East","parentId":"490G000244","stationId":"490G000244","stopLetter":"I","topMostParentId":"490G000244","towards":"Morden Or Tooting"},{"icsId":"1009949","id":"490009949Z","lat":51.40679,"lon":-0.1639,"name":"Mitcham Fair Green","parentId":"490G00009949","stationId":"490G00009949","stopLetter":"D","topMostParentId":"490G00009949","towards":"Pollards Hill, Streatham Or Tooting"},{"icsId":"1006171","id":"490006164A","lat":51.40808,"lon":-0.16339,"name":"Downe Road / Mitcham Library","parentId":"490G00006171","stationId":"490G00006171","stopLetter":"A","topMostParentId":"490G00006171","towards":"Pollards Hill, Streatham Or Tooting"},{"icsId":"1013565","id":"490013565N2","lat":51.41061,"lon":-0.16182,"name":"Eveline Road","parentId":"490G00013565","stationId":"490G00013565","stopLetter":"D","topMostParentId":"490G00013565","towards":"Tooting Or Lavender Fields"},{"icsId":"1009286","id":"490009286N","lat":51.41504,"lon":-0.16183,"name":"London Road / Figge's Marsh","parentId":"490G00009286","stationId":"490G00009286","stopLetter":"L","topMostParentId":"490G00009286","towards":"Tooting Or Lavender Fields"},{"icsId":"1007316","id":"490007316N","lat":51.41732,"lon":-0.162,"name":"Gorringe Park Avenue","parentId":"490G00007316","stationId":"490G00007316","stopLetter":"TB","topMostParentId":"490G00007316","towards":"Earlsfield Or Tooting Bec"},{"icsId":"1001296","id":"490001296A","lat":51.41941,"lon":-0.16196,"name":"Tooting Station","stopLetter":"TC","topMostParentId":"490001296A","towards":"Earlsfield Or Tooting Bec"},{"icsId":"1001296","id":"490001296N","lat":51.42103,"lon":-0.16101,"name":"Mitcham Road / Tooting Station","parentId":"490G00002428","stationId":"490G00002428","stopLetter":"TD","topMostParentId":"490G00002428","towards":"Earlsfield Or Tooting Bec"},{"icsId":"1003295","id":"490003295N","lat":51.42245,"lon":-0.16047,"name":"Amen Corner","parentId":"490G00003295","stationId":"490G00003295","stopLetter":"TE","topMostParentId":"490G00003295","towards":"Earlsfield Or Tooting Bec"},{"icsId":"1013709","id":"490013709S","lat":51.42448,"lon":-0.16348,"name":"Tooting / the Mitre","parentId":"490G00013709","stationId":"490G00013709","stopLetter":"TH","topMostParentId":"490G00013709","towards":"Colliers Wood, Earlsfield Or Tooting Bec"},{"icsId":"1003990","id":"490003990P","lat":51.42605,"lon":-0.16575,"name":"Bickley Street","parentId":"490G00003990","stationId":"490G00003990","stopLetter":"P","topMostParentId":"490G00003990","towards":"Colliers Wood, Earlsfield Or Tooting Bec"},{"icsId":"1000234","id":"490000234G","lat":51.42716,"lon":-0.16691,"name":"Tooting Broadway Station","stopLetter":"G","topMostParentId":"490000234G","towards":"Balham","zone":"3"},{"icsId":"1005921","id":"490011987A","lat":51.42949,"lon":-0.16659,"name":"Broadwater Road","parentId":"490G00005921","stationId":"490G00005921","stopLetter":"A","topMostParentId":"490G00005921","towards":"Balham Or Wandsworth Common"},{"icsId":"1008040","id":"490008040N","lat":51.43151,"lon":-0.16458,"name":"Hebdon Road","parentId":"490G00008040","stationId":"490G00008040","stopLetter":"M","topMostParentId":"490G00008040","towards":"Balham Or Wandsworth Common"},{"icsId":"1009484","id":"490009484N","lat":51.43347,"lon":-0.16326,"name":"Lynwood Road","parentId":"490G00009484","stationId":"490G00009484","stopLetter":"N","topMostParentId":"490G00009484","towards":"Balham Or Wandsworth Common"},{"icsId":"1000233","id":"490000233C","lat":51.43542,"lon":-0.16038,"name":"Tooting Bec Station","stopLetter":"C","topMostParentId":"490000233C","towards":"Balham Or Wandsworth Common","zone":"3"},{"icsId":"1013949","id":"490013949N","lat":51.43869,"lon":-0.15661,"name":"Upper Tooting Park","parentId":"490G00013949","stationId":"490G00013949","stopLetter":"H","topMostParentId":"490G00013949","towards":"Clapham South"},{"icsId":"1006209","id":"490006209N","lat":51.44104,"lon":-0.155,"name":"Du Cane Court","parentId":"490G00006209","stationId":"490G00006209","stopLetter":"L","topMostParentId":"490G00006209","towards":"Clapham South"},{"icsId":"1000012","id":"490000012B","lat":51.443,"lon":-0.1534,"name":"Balham Station","stopLetter":"B","topMostParentId":"490000012B","towards":"Clapham South","zone":"3"},{"icsId":"1008204","id":"490008204D","lat":51.44452,"lon":-0.1523,"name":"Hildreth Street Market","parentId":"490G00008204","stationId":"490G00008204","stopLetter":"D","topMostParentId":"490G00008204","towards":"Brixton Or Clapham Common"},{"icsId":"1003561","id":"490003561F","lat":51.44727,"lon":-0.14912,"name":"Balham New Road","parentId":"490G00003561","stationId":"490G00003561","stopLetter":"F","topMostParentId":"490G00003561","towards":"Brixton Or Clapham Common"},{"icsId":"1003175","id":"490003175N","lat":51.44933,"lon":-0.1481,"name":"Alderbrook Road","parentId":"490G00003175","stationId":"490G00003175","stopLetter":"SP","topMostParentId":"490G00003175","towards":"Brixton Or Clapham Common"},{"icsId":"1004870","id":"490004870N","lat":51.45045,"lon":-0.14793,"name":"Cathles Road","parentId":"490G00004870","stationId":"490G00004870","stopLetter":"SR","topMostParentId":"490G00004870","towards":"Brixton Or Clapham Common"},{"icsId":"1000052","id":"490000052SC","lat":51.45243,"lon":-0.14798,"name":"Clapham South Station","stopLetter":"SC","topMostParentId":"490000052SC","towards":"Brixton Or Clapham Common","zone":"2+3"},{"icsId":"1005329","id":"490005329SH","lat":51.45397,"lon":-0.14567,"name":"Cavendish Road / Clapham South Stn","parentId":"490G00005329","stationId":"490G00005329","stopLetter":"SH","topMostParentId":"490G00005329","towards":"Brixton Or Streatham Hill"},{"icsId":"1004889","id":"490004889E","lat":51.45264,"lon":-0.14249,"name":"Abbeville Road","parentId":"490G00004889","stationId":"490G00004889","stopLetter":"SJ","topMostParentId":"490G00004889","towards":"Brixton Or Streatham Hill"},{"icsId":"1011776","id":"490011776E","lat":51.45069,"lon":-0.14094,"name":"Rudloe Road","parentId":"490G00011776","stationId":"490G00011776","stopLetter":"SK","topMostParentId":"490G00011776","towards":"Brixton Or Streatham Hill"},{"icsId":"1005351","id":"490005351E","lat":51.44983,"lon":-0.13774,"name":"Poynders Road / Clarence Avenue","parentId":"490G00005351","stationId":"490G00005351","stopLetter":"U","topMostParentId":"490G00005351","towards":"Brixton Or Streatham Hill"},{"icsId":"1008755","id":"490008755V","lat":51.44816,"lon":-0.13277,"name":"Poynders Road / Kings Avenue","parentId":"490G00008755","stationId":"490G00008755","stopLetter":"V","topMostParentId":"490G00008755","towards":"Brixton Or Tooting"},{"icsId":"1003472","id":"490003472N","lat":51.4484,"lon":-0.13177,"name":"Kings Avenue / Atkins Road","parentId":"490G00003472","stationId":"490G00003472","stopLetter":"J","topMostParentId":"490G00003472","towards":"Brixton"},{"icsId":"1013621","id":"490013621N","lat":51.45166,"lon":-0.13055,"name":"Thorncliffe Road","parentId":"490G00013621","stationId":"490G00013621","stopLetter":"K","topMostParentId":"490G00013621","towards":"Brixton"},{"icsId":"1005350","id":"490005350N","lat":51.4546,"lon":-0.12954,"name":"Clarence Avenue","parentId":"490G00005350","stationId":"490G00005350","stopLetter":"L","topMostParentId":"490G00005350","towards":"Brixton"},{"icsId":"1009460","id":"490009460N","lat":51.45787,"lon":-0.12906,"name":"Lyham Road","parentId":"490G00009460","stationId":"490G00009460","stopLetter":"M","topMostParentId":"490G00009460","towards":"Brixton"},{"icsId":"1012222","id":"490012222E","lat":51.45965,"lon":-0.12435,"name":"Solon Road","parentId":"490G00012222","stationId":"490G00012222","stopLetter":"F","topMostParentId":"490G00012222","towards":"Camberwell Or Herne Hill"},{"icsId":"1003071","id":"490003071E","lat":51.46023,"lon":-0.11982,"name":"Belvedere Place","parentId":"490G00003071","stationId":"490G00003071","stopLetter":"G","topMostParentId":"490G00003071","towards":"Camberwell Or Herne Hill"},{"icsId":"1008919","id":"490008919A","lat":51.46093,"lon":-0.11742,"name":"Lambeth Town Hall","parentId":"490G000627","stationId":"490G000627","stopLetter":"A","topMostParentId":"490G000627","towards":"Camberwell Or Herne Hill"},{"icsId":"1000031","id":"490000031R","lat":51.46224,"lon":-0.11529,"name":"Brixton Station","stopLetter":"R","topMostParentId":"490000031R","towards":"Kennington Oval","zone":"2"}]}]}