{"direction":"outbound","lineId":"357","lineName":"357","mode":"bus","stopPointSequences":[{"stopPoint":[{"icsId":"1005167","id":"490005167S","lat":51.61979,"lon":0.0088,"name":"Chingdale Road","parentId":"490G00005167","stationId":"490G00005167","stopLetter":"HM","topMostParentId":"490G00005167","towards":"Chingford Mount Or Highams Park"},{"icsId":"1005174","id":"490005174W","lat":51.61875,"lon":0.00373,"name":"Hatch Lane","parentId":"490G00005174","stationId":"490G00005174","stopLetter":"HS","topMostParentId":"490G00005174","towards":"Chingford Mount Or Highams Park"},{"icsId":"1009632","id":"490009632W","lat":51.61829,"lon":-0.00205,"name":"Mapleton Road","parentId":"490G00009632","stationId":"490G00009632","stopLetter":"HW","topMostParentId":"490G00009632","towards":"Edmonton Or Walthamstow"},{"icsId":"1007574","id":"490007574W","lat":51.61762,"lon":-0.00772,"name":"Grove Road","parentId":"490G00007574","stationId":"490G00007574","stopLetter":"N","topMostParentId":"490G00007574","towards":"Edmonton Or Walthamstow"},{"icsId":"1008982","id":"490008982W","lat":51.61713,"lon":-0.01246,"name":"Larkswood School","parentId":"490G00008982","stationId":"490G00008982","stopLetter":"M","topMostParentId":"490G00008982","towards":"Edmonton Or Walthamstow"},{"icsId":"1005178","id":"490005178K","lat":51.61674,"lon":-0.0166,"name":"Brook Crescent","parentId":"490G000451","stationId":"490G000451","stopLetter":"K","topMostParentId":"490G000451","towards":"Edmonton Or Walthamstow"},{"icsId":"1007676","id":"490007676J","lat":51.61663,"lon":-0.01735,"name":"Hall Lane","parentId":"490G000561","stationId":"490G000561","stopLetter":"J","topMostParentId":"490G000561","towards":"Blackhorse Road Or Walthamstow"},{"icsId":"1008981","id":"490008981S","lat":51.61354,"lon":-0.01741,"name":"Larkswood Road","parentId":"490G00008981","stationId":"490G00008981","stopLetter":"U","topMostParentId":"490G00008981","towards":"Blackhorse Road Or Walthamstow"},{"icsId":"1003124","id":"490003124S","lat":51.61219,"lon":-0.01785,"name":"Ainslie Wood Road","parentId":"490G00003124","stationId":"490G00003124","stopLetter":"V","topMostParentId":"490G00003124","towards":"Blackhorse Road Or Walthamstow"},{"icsId":"1009091","id":"490009091S","lat":51.60961,"lon":-0.01747,"name":"Leonard Road","parentId":"490G00009091","stationId":"490G00009091","stopLetter":"->S","topMostParentId":"490G00009091","towards":"Blackhorse Road Or Walthamstow"},{"icsId":"1008132","id":"490008132S","lat":51.60738,"lon":-0.01669,"name":"Higham Station Avenue","parentId":"490G00008132","stationId":"490G00008132","stopLetter":"->S","topMostParentId":"490G00008132","towards":"Blackhorse Road Or Walthamstow"},{"icsId":"1011741","id":"490011741S","lat":51.6052,"lon":-0.01635,"name":"Rowden Park Gardens","parentId":"490G00011741","stationId":"490G00011741","stopLetter":"CC","topMostParentId":"490G00011741","towards":"Blackhorse Road Or Walthamstow"},{"icsId":"1014170","id":"490014170S","lat":51.60366,"lon":-0.01634,"name":"Walthamstow Stadium","parentId":"490G00014170","stationId":"490G00014170","stopLetter":"CD","topMostParentId":"490G00014170","towards":"Blackhorse Road Or Walthamstow"},{"icsId":"1005781","id":"490005781S","lat":51.5996,"lon":-0.01591,"name":"Walthamstow / Crooked Billet Roundabout","parentId":"490G00005781","stationId":"490G00005781","stopLetter":"CE","topMostParentId":"490G00005781","towards":"Walthamstow Central"},{"icsId":"1004303","id":"490004303S","lat":51.5977,"lon":-0.01506,"name":"Brettenham Road","parentId":"490G00004303","stationId":"490G00004303","stopLetter":"CF","topMostParentId":"490G00004303","towards":"Walthamstow Central"},{"icsId":"1012179","id":"490012179S","lat":51.59504,"lon":-0.01575,"name":"Sir George Monoux College","parentId":"490G00012179","stationId":"490G00012179","stopLetter":"BK","topMostParentId":"490G00012179","towards":"Walthamstow Central"},{"icsId":"1014158","id":"490014158S","lat":51.59378,"lon":-0.01748,"name":"Aveling Park Road","parentId":"490G00014158","stationId":"490G00014158","stopLetter":"BL","topMostParentId":"490G00014158","towards":"Walthamstow Central"},{"icsId":"1014163","id":"490014163S","lat":51.59062,"lon":-0.01731,"name":"Forest Road / Bell Corner","parentId":"490G00014163","stationId":"490G00014163","stopLetter":"BM","topMostParentId":"490G00014163","towards":"Walthamstow Central"},{"icsId":"1004518","id":"490004518S","lat":51.58849,"lon":-0.02032,"name":"Jewel Road","parentId":"490G00004518","stationId":"490G00004518","stopLetter":"BN","topMostParentId":"490G00004518","towards":"Bakers Arms"},{"icsId":"1014165","id":"490014165J","lat":51.58536,"lon":-0.01948,"name":"Walthamstow Market","parentId":"490G00014165","stationId":"490G00014165","stopLetter":"J","topMostParentId":"490G00014165","towards":"Bakers Arms"},{"icsId":"1000249","id":"490000249XX","lat":51.58298,"lon":-0.01831,"name":"Walthamstow Central Station","stopLetter":"V","topMostParentId":"490000249XX","towards":"Bakers Arms","zone":"3"},{"icsId":"1007547","id":"490007547S","lat":51.57945,"lon":-0.01799,"name":"Grosvenor Park Road","parentId":"490G00007547","stationId":"490G00007547","stopLetter":"K","topMostParentId":"490G00007547","towards":"Clapton, Leyton Or Whipps Cross"},{"icsId":"1007576","id":"490007576S","lat":51.57758,"lon":-0.01637,"name":"Grove Road","parentId":"490G00007576","stationId":"490G00007576","stopLetter":"SJ","topMostParentId":"490G00007576","towards":"Clapton, Leyton Or Whipps Cross"},{"icsId":"1015099","id":"490015099A","lat":51.5762,"lon":-0.0148,"name":"Bakers Avenue","parentId":"490G00015099","stationId":"490G00015099","stopLetter":"SK","topMostParentId":"490G00015099","towards":"Clapton, Leyton Or Whipps Cross"},{"icsId":"1015102","id":"490015102C","lat":51.57639,"lon":-0.01168,"name":"Lea Bridge Road / Bakers Arms","parentId":"490G00015102","stationId":"490G00015102","stopLetter":"EH","topMostParentId":"490G00015102","towards":"Whipps Cross Or Wood Street"},{"icsId":"1009135","id":"490009135EJ","lat":51.57768,"lon":-0.00835,"name":"Leyton Green Road","parentId":"490G00009135","stationId":"490G00009135","stopLetter":"EJ","topMostParentId":"490G00009135","towards":"Highams Park, Leytonstone Or Woodford Green"},{"icsId":"1012080","id":"490012080E","lat":51.57937,"lon":-0.00518,"name":"Shernhall Street","parentId":"490G00012080","stationId":"490G00012080","stopLetter":"EK","topMostParentId":"490G00012080","towards":"Highams Park, Leytonstone Or Woodford Green"},{"icsId":"1006342","id":"490006342E","lat":51.58002,"lon":-0.00344,"name":"Peterborough Road","parentId":"490G00006342","stationId":"490G00006342","stopLetter":"EL","topMostParentId":"490G00006342","towards":"Highams Park, Leytonstone Or Woodford Green"},{"icsId":"1014569","id":"490014569A","lat":51.58116,"lon":-0.00093,"name":"Whipps Cross / Wood Street","parentId":"490G00014569","stationId":"490G00014569","stopLetter":"A","topMostParentId":"490G00014569","towards":"Leytonstone Or Woodford Green"}]},{"stopPoint":[{"icsId":"1014569","id":"490014569A","lat":51.58116,"lon":-0.00093,"name":"Whipps Cross / Wood Street","parentId":"490G00014569","stationId":"490G00014569","stopLetter":"A","topMostParentId":"490G00014569","towards":"Leytonstone Or Woodford Green"},{"icsId":"1002116","id":"490002116Z","lat":51.58113,"lon":0.0017,"name":"Whipps Cross Bus Stand","parentId":"490G000338","stationId":"490G000338","stopLetter":"V","topMostParentId":"490G000338","towards":"Leytonstone Or Snaresbrook"},{"icsId":"1014568","id":"490014568S2","lat":51.57957,"lon":0.00118,"name":"Whipps Cross Hospital / Main Entrance","parentId":"490G00014568","stationId":"490G00014568","stopLetter":"K","topMostParentId":"490G00014568","towards":"Leytonstone Or South Woodford"},{"icsId":"1014567","id":"490014567E","lat":51.57747,"lon":0.00275,"name":"Whipps Cross Hospital / A & E","parentId":"490G00014567","stationId":"490G00014567","stopLetter":"L","topMostParentId":"490G00014567","towards":"Leytonstone Or South Woodford"}]},{"stopPoint":[{"icsId":"1014569","id":"490014569A","lat":51.58116,"lon":-0.00093,"name":"Whipps Cross / Wood Street","parentId":"490G00014569","stationId":"490G00014569","stopLetter":"A","topMostParentId":"490G00014569","towards":"Leytonstone Or Woodford Green"},{"icsId":"1002116","id":"490002116V","lat":51.58143,"lon":0.00138,"name":"Whipps Cross Bus Stand","parentId":"490G000338","stationId":"490G000338","stopLetter":"F","topMostParentId":"490G000338","towards":"Leyton Bakers Arms"}]}]}