{"direction":"outbound","lineId":"364","lineName":"364","mode":"bus","stopPointSequences":[{"stopPoint":[{"icsId":"1007657","id":"490007657W","lat":51.55967,"lon":0.07696,"name":"Hainault Street","parentId":"490G00007657","stationId":"490G00007657","stopLetter":"W","topMostParentId":"490G00007657","towards":"Gants Hill Or Redbridge"},{"icsId":"1008466","id":"490008466Q1","lat":51.55785,"lon":0.07405,"name":"Redbridge Central Library","parentId":"490G00008466","stationId":"490G00008466","stopLetter":"Q","topMostParentId":"490G00008466","towards":"Barking, Gants Hill, Manor Park Or Redbridge"},{"icsId":"1008470","id":"490008470M","lat":51.55814,"lon":0.07174,"name":"High Road Ilford","parentId":"490G000606","stationId":"490G000606","stopLetter":"M","topMostParentId":"490G000606","towards":"Gants Hill Or Redbridge"},{"icsId":"1001157","id":"490001157H","lat":51.55893,"lon":0.0701,"name":"Ilford Station","stopLetter":"H","topMostParentId":"490001157H","towards":"Gants Hill"},{"icsId":"1013966","id":"490013966J","lat":51.5619,"lon":0.06819,"name":"Beal Road","parentId":"490G00013966","stationId":"490G00013966","stopLetter":"VK","topMostParentId":"490G00013966","towards":"Gants Hill"},{"icsId":"1019466","id":"490019466E","lat":51.56348,"lon":0.0697,"name":"Coventry Road / Granville Road","parentId":"490G00019466","stationId":"490G00019466","stopLetter":"->E","topMostParentId":"490G00019466"},{"icsId":"1019468","id":"490019468E","lat":51.56819,"lon":0.08015,"name":"Coventry Road / Perth Road","parentId":"490G00019468","stationId":"490G00019468","stopLetter":"->E","topMostParentId":"490G00019468"},{"icsId":"1019469","id":"490019469E","lat":51.56881,"lon":0.08249,"name":"Perth Road","parentId":"490G00019469","stationId":"490G00019469","stopLetter":"->E","topMostParentId":"490G00019469"},{"icsId":"1010980","id":"490010955N","lat":51.56958,"lon":0.08363,"name":"Ley Street / Perth Road","parentId":"490G00010980","stationId":"490G00010980","stopLetter":"->N","topMostParentId":"490G00010980","towards":"Barkingside Or Goodmayes"},{"icsId":"1019470","id":"490019470E","lat":51.57039,"lon":0.08534,"name":"Wards Road / Raymond Road","parentId":"490G00019470","stationId":"490G00019470","stopLetter":"->E","topMostParentId":"490G00019470"},{"icsId":"1018008","id":"490018008E","lat":51.57022,"lon":0.09477,"name":"Wards Road/Aldborough Rd South","parentId":"490G00018008","stationId":"490G00018008","stopLetter":"->E","topMostParentId":"490G00018008"},{"icsId":"1010937","id":"490010937E","lat":51.57112,"lon":0.10897,"name":"Percy Road / Douglas Road","parentId":"490G00002418","stationId":"490G00002418","stopLetter":"->E","topMostParentId":"490G00002418"},{"icsId":"1019473","id":"490019473E","lat":51.5708,"lon":0.11096,"name":"Percy Road / Barley Lane","parentId":"490G00019473","stationId":"490G00019473","stopLetter":"->E","topMostParentId":"490G00019473"},{"icsId":"1006405","id":"490006405S","lat":51.57027,"lon":0.11201,"name":"Eccleston Crescent","parentId":"490G00006405","stationId":"490G00006405","stopLetter":"->S","topMostParentId":"490G00006405","towards":"Barking Or Dagenham"},{"icsId":"1007286","id":"490007286B","lat":51.56739,"lon":0.11106,"name":"Goodmayes High Road","parentId":"490G00007286","stationId":"490G00007286","stopLetter":"B","topMostParentId":"490G00007286","towards":"Barking Or Dagenham"},{"icsId":"1001117","id":"490001117F","lat":51.56472,"lon":0.11038,"name":"Goodmayes Station","stopLetter":"F","topMostParentId":"490001117F","towards":"Barking Or Dagenham"},{"icsId":"1003131","id":"490003131E","lat":51.56327,"lon":0.11409,"name":"Goodmayes Primary School","parentId":"490G00003131","stationId":"490G00003131","stopLetter":"L","topMostParentId":"490G00003131","towards":"Becontree Heath Or Dagenham"},{"icsId":"1007285","id":"490007285B","lat":51.5632,"lon":0.11742,"name":"Colinton Road","parentId":"490G00007285","stationId":"490G00007285","stopLetter":"H","topMostParentId":"490G00007285","towards":"Becontree Heath Or Dagenham"},{"icsId":"1015110","id":"490015110E","lat":51.56249,"lon":0.12215,"name":"Greenside","parentId":"490G00015110","stationId":"490G00015110","stopLetter":"J","topMostParentId":"490G00015110","towards":"Becontree Heath Or Dagenham Heathway"},{"icsId":"1013542","id":"490013542S","lat":51.56139,"lon":0.12485,"name":"Tulasi Medical Centre","parentId":"490G00013542","stationId":"490G00013542","stopLetter":"Y","topMostParentId":"490G00013542","towards":"Dagenham Heathway Or Mayesbrook Park"},{"icsId":"1020379","id":"490003901S","lat":51.55903,"lon":0.12598,"name":"Haydon Road","parentId":"490G00020379","stationId":"490G00020379","stopLetter":"Z","topMostParentId":"490G00020379","towards":"Dagenham Heathway Or Mayesbrook Park"},{"icsId":"1009179","id":"490009179S2","lat":51.55516,"lon":0.12712,"name":"Lindisfarne Road","parentId":"490G00009179","stationId":"490G00009179","stopLetter":"SA","topMostParentId":"490G00009179","towards":"Dagenham Heathway"},{"icsId":"1003535","id":"490003535E","lat":51.5515,"lon":0.1251,"name":"Bennetts Castle Lane","parentId":"490G00003535","stationId":"490G00003535","stopLetter":"EC","topMostParentId":"490G00003535","towards":"Becontree Heath Or Dagenham Heathway"},{"icsId":"1009704","id":"490009704A","lat":51.55171,"lon":0.12837,"name":"Martins Corner / Valence Avenue","parentId":"490G00009704","stationId":"490G00009704","stopLetter":"ED","topMostParentId":"490G00009704","towards":"Dagenham Heathway"},{"icsId":"1008792","id":"490008792K","lat":51.55111,"lon":0.1313,"name":"Cornwallis Road","parentId":"490G00008792","stationId":"490G00008792","stopLetter":"SL","topMostParentId":"490G00008792","towards":"Dagenham East"},{"icsId":"1013135","id":"490013135S","lat":51.5487,"lon":0.13398,"name":"The Sydney Russell School","parentId":"490G00013135","stationId":"490G00013135","stopLetter":"SM","topMostParentId":"490G00013135","towards":"Dagenham East"},{"icsId":"1012409","id":"490012409S","lat":51.54658,"lon":0.13794,"name":"Fanshawe Crescent","parentId":"490G00012409","stationId":"490G00012409","stopLetter":"->S","topMostParentId":"490G00012409","towards":"Dagenham East"},{"icsId":"1019010","id":"490003648S","lat":51.5444,"lon":0.14425,"name":"Singleton Road","parentId":"490G00019010","stationId":"490G00019010","stopLetter":"->S","topMostParentId":"490G00019010","towards":"Dagenham East"},{"icsId":"1008034","id":"490008034N","lat":51.54345,"lon":0.14688,"name":"Heathway","parentId":"490G000589","stationId":"490G000589","stopLetter":"N","topMostParentId":"490G000589","towards":"Dagenham East"},{"icsId":"1019471","id":"490019471E","lat":51.54275,"lon":0.14966,"name":"Reede Road / Sterry Road","parentId":"490G00019471","stationId":"490G00019471","stopLetter":"->E","topMostParentId":"490G00019471"},{"icsId":"1019472","id":"490019472E","lat":51.54538,"lon":0.16208,"name":"Reede Road / Suffolk Road","parentId":"490G00019472","stationId":"490G00019472","stopLetter":"->E","topMostParentId":"490G00019472"},{"icsId":"1011497","id":"490011497E","lat":51.54565,"lon":0.16507,"name":"Reede Road / Rainham Road South","parentId":"490G000721","stationId":"490G000721","stopLetter":"->E","topMostParentId":"490G000721"},{"icsId":"1000058","id":"490000058B","lat":51.5445,"lon":0.16618,"name":"Dagenham East Station","stopLetter":"C","topMostParentId":"490000058B","towards":"Rainham","zone":"5"},{"icsId":"1009581","id":"490009581S","lat":51.541,"lon":0.16554,"name":"Aldborough Road","parentId":"490G00009581","stationId":"490G00009581","stopLetter":"D","topMostParentId":"490G00009581","towards":"Rainham"},{"icsId":"1003566","id":"490003566N1","lat":51.53947,"lon":0.16528,"name":"Ballards Road","parentId":"490G00003566","stationId":"490G00003566","stopLetter":"K","topMostParentId":"490G00003566"}]}]}