{"direction":"outbound","lineId":"365","lineName":"365","mode":"bus","stopPointSequences":[{"stopPoint":[{"icsId":"1016465","id":"490012338E","lat":51.52587,"lon":0.16796,"name":"South Street","parentId":"490G00016465","stationId":"490G00016465","stopLetter":"MC","topMostParentId":"490G00016465","towards":"Elm Park"},{"icsId":"1016809","id":"490016809E","lat":51.52512,"lon":0.17156,"name":"Askwith Road","parentId":"490G00016809","stationId":"490G00016809","stopLetter":"J","topMostParentId":"490G00016809","towards":"Abbey Wood Estate Or Elm Park"},{"icsId":"1012385","id":"490012385E","lat":51.52458,"lon":0.1743,"name":"Spencer Road","parentId":"490G00012385","stationId":"490G00012385","stopLetter":"K","topMostParentId":"490G00012385","towards":"Abbey Wood Estate Or Elm Park"},{"icsId":"1003954","id":"490003954E","lat":51.52409,"lon":0.1766,"name":"Betterton Road","parentId":"490G00003954","stationId":"490G00003954","stopLetter":"L","topMostParentId":"490G00003954","towards":"Abbey Wood Estate Or Elm Park"},{"icsId":"1006247","id":"490006247N","lat":51.52344,"lon":0.18161,"name":"Dunedin Road","parentId":"490G00006247","stationId":"490G00006247","stopLetter":"M","topMostParentId":"490G00006247","towards":"Elm Park"},{"icsId":"1006446","id":"490006446N","lat":51.52425,"lon":0.1822,"name":"Edmund Road","parentId":"490G00006446","stationId":"490G00006446","stopLetter":"N","topMostParentId":"490G00006446","towards":"Elm Park"},{"icsId":"1012560","id":"490012560N","lat":51.52648,"lon":0.18614,"name":"Stanley Road South","parentId":"490G00012560","stationId":"490G00012560","stopLetter":"P","topMostParentId":"490G00012560","towards":"Elm Park"},{"icsId":"1011393","id":"490011393N","lat":51.52874,"lon":0.18905,"name":"Rainham Road","parentId":"490G00011393","stationId":"490G00011393","stopLetter":"F","topMostParentId":"490G00011393","towards":"Elm Park"},{"icsId":"1003216","id":"490003216N","lat":51.53051,"lon":0.19068,"name":"Alexandra Road","parentId":"490G00003216","stationId":"490G00003216","stopLetter":"G","topMostParentId":"490G00003216","towards":"Elm Park"},{"icsId":"1006902","id":"490006902N","lat":51.53404,"lon":0.19214,"name":"Ford Lane","parentId":"490G00006902","stationId":"490G00006902","stopLetter":"H","topMostParentId":"490G00006902","towards":"Elm Park"},{"icsId":"1011671","id":"490011671N","lat":51.53677,"lon":0.19748,"name":"Mungo Park Road / South End Road","parentId":"490G00011671","stationId":"490G00011671","stopLetter":"U","topMostParentId":"490G00011671","towards":"Elm Park"},{"icsId":"1008731","id":"490008731N","lat":51.53825,"lon":0.19485,"name":"Kingaby Gardens","parentId":"490G00008731","stationId":"490G00008731","stopLetter":"V","topMostParentId":"490G00008731","towards":"Elm Park"},{"icsId":"1007004","id":"490007004N","lat":51.54139,"lon":0.19325,"name":"Freeborne Gardens","parentId":"490G00007004","stationId":"490G00007004","stopLetter":"W","topMostParentId":"490G00007004","towards":"Elm Park"},{"icsId":"1014872","id":"490014872N","lat":51.54376,"lon":0.1947,"name":"Wood Lane","parentId":"490G00014872","stationId":"490G00014872","stopLetter":"X","topMostParentId":"490G00014872","towards":"Romford"},{"icsId":"1003185","id":"490003185F","lat":51.54518,"lon":0.19592,"name":"Aldingham Gardens","parentId":"490G00003185","stationId":"490G00003185","stopLetter":"A","topMostParentId":"490G00003185","towards":"Romford"},{"icsId":"1003291","id":"490003291N","lat":51.54791,"lon":0.1992,"name":"Ambleside Avenue","parentId":"490G00003291","stationId":"490G00003291","stopLetter":"B","topMostParentId":"490G00003291","towards":"Romford Or Hornchurch"},{"icsId":"1000074","id":"490000074B","lat":51.55029,"lon":0.19905,"name":"Elm Park Station","stopLetter":"C","topMostParentId":"490000074B","towards":"Romford and Hornchurch","zone":"6"},{"icsId":"1013471","id":"490013471F","lat":51.55142,"lon":0.19993,"name":"Elm Parade","parentId":"490G000788","stationId":"490G000788","stopLetter":"D","topMostParentId":"490G000788","towards":"Romford Or Hornchurch"},{"icsId":"1004307","id":"490004307E","lat":51.55234,"lon":0.20267,"name":"Brian Close","parentId":"490G00004307","stationId":"490G00004307","stopLetter":"->E","topMostParentId":"490G00004307","towards":"Romford Or Hornchurch"},{"icsId":"1003050","id":"490003050E","lat":51.55362,"lon":0.20641,"name":"Abbs Cross Academy","parentId":"490G00003050","stationId":"490G00003050","stopLetter":"->E","topMostParentId":"490G00003050","towards":"Romford Or Hornchurch"},{"icsId":"1013083","id":"490013083N","lat":51.5553,"lon":0.20771,"name":"Suttons Avenue","parentId":"490G00013083","stationId":"490G00013083","stopLetter":"S","topMostParentId":"490G00013083","towards":"Romford Or Hornchurch"},{"icsId":"1012555","id":"490012555N","lat":51.55828,"lon":0.20883,"name":"Stanley Road","parentId":"490G00012555","stationId":"490G00012555","stopLetter":"T","topMostParentId":"490G00012555","towards":"Romford Or Hornchurch"},{"icsId":"1003049","id":"490003049W","lat":51.5628,"lon":0.21169,"name":"Abbs Cross Lane","parentId":"490G00003049","stationId":"490G00003049","stopLetter":"Y","topMostParentId":"490G00003049","towards":"Romford"},{"icsId":"1007851","id":"490007851W","lat":51.5633,"lon":0.20854,"name":"Harrow Lodge Park","parentId":"490G00007851","stationId":"490G00007851","stopLetter":"Z","topMostParentId":"490G00007851","towards":"Romford"},{"icsId":"1008448","id":"490008448W","lat":51.56469,"lon":0.20186,"name":"Hyland Way","parentId":"490G00008448","stationId":"490G00008448","stopLetter":"RE","topMostParentId":"490G00008448","towards":"Romford"},{"icsId":"1010785","id":"490010785W","lat":51.56505,"lon":0.19401,"name":"Park Lane","parentId":"490G00010785","stationId":"490G00010785","stopLetter":"RF","topMostParentId":"490G00010785","towards":"Romford"},{"icsId":"1011669","id":"490011669W","lat":51.56544,"lon":0.18739,"name":"Roneo Corner","parentId":"490G00011669","stationId":"490G00011669","stopLetter":"RT","topMostParentId":"490G00011669","towards":"Romford Market"},{"icsId":"1016444","id":"490016444HM","lat":51.56861,"lon":0.18124,"name":"Queen's Hospital","parentId":"490G00016444","stationId":"490G00016444","stopLetter":"HM","topMostParentId":"490G00016444","towards":"Romford Station"},{"icsId":"1011667","id":"490011667HE","lat":51.57169,"lon":0.18199,"name":"Rom Valley Way","parentId":"490G00011667","stationId":"490G00011667","stopLetter":"HE","topMostParentId":"490G00011667","towards":"Chase Cross Or Gallows Corner"},{"icsId":"1001243","id":"490015182X","lat":51.57375,"lon":0.18388,"name":"Romford Station","stopLetter":"X","topMostParentId":"490015182X","towards":"Collier Row"},{"icsId":"1014452","id":"490014452P","lat":51.57683,"lon":0.18316,"name":"Western Road","parentId":"490G00014452","stationId":"490G00014452","stopLetter":"P","topMostParentId":"490G00014452","towards":"Chadwell Heath, Collier Row Or Newbury Pk"},{"icsId":"1011659","id":"490011659H","lat":51.58045,"lon":0.18192,"name":"Romford Market","parentId":"490G00011659","stationId":"490G00011659","stopLetter":"H","topMostParentId":"490G00011659","towards":"Chase Cross, Collier Row Or Newbury Park"},{"icsId":"1004467","id":"490004467N1","lat":51.58151,"lon":0.17696,"name":"The Avenue","parentId":"490G00004467","stationId":"490G00004467","stopLetter":"F","topMostParentId":"490G00004467","towards":"Chase Cross, Collier Row Or Newbury Park"},{"icsId":"1011658","id":"490010764N","lat":51.58289,"lon":0.17551,"name":"Romford Bus Garage","parentId":"490G00011658","stationId":"490G00011658","stopLetter":"NA","topMostParentId":"490G00011658","towards":"Chase Cross, Collier Row Or Newbury Park"},{"icsId":"1011657","id":"490011657N1","lat":51.5853,"lon":0.17281,"name":"Cedar Road","parentId":"490G00011657","stationId":"490G00011657","stopLetter":"NB","topMostParentId":"490G00011657","towards":"Chase Cross, Collier Row Or Newbury Park"},{"icsId":"1010782","id":"490010782N","lat":51.58823,"lon":0.1717,"name":"Parklands School","parentId":"490G00010782","stationId":"490G00010782","stopLetter":"NC","topMostParentId":"490G00010782","towards":"Collier Row"},{"icsId":"1007655","id":"490007655N","lat":51.58965,"lon":0.1681,"name":"Hainault Road","parentId":"490G00007655","stationId":"490G00007655","stopLetter":"ND","topMostParentId":"490G00007655","towards":"Chase Cross, Havering Park Or Marks Gate"},{"icsId":"1008215","id":"490008215N","lat":51.59332,"lon":0.16543,"name":"Hillfoot Road","parentId":"490G00008215","stationId":"490G00008215","stopLetter":"EK","topMostParentId":"490G00008215","towards":"Chase Cross, Havering Park Or Marks Gate"},{"icsId":"1000789","id":"490008420N","lat":51.5972,"lon":0.16392,"name":"Lowshoe Lane","parentId":"490G000141","stationId":"490G000141","stopLetter":"EL","topMostParentId":"490G000141","towards":"Chase Cross, Havering Park Or Marks Gate"},{"icsId":"1005033","id":"490005033E","lat":51.60046,"lon":0.16396,"name":"Collier Row / Nth Romford Community Ctr","parentId":"490G00005033","stationId":"490G00005033","stopLetter":"EM","topMostParentId":"490G00005033","towards":"Havering Park"},{"icsId":"1004594","id":"490004594E","lat":51.60271,"lon":0.16518,"name":"Burland Road","parentId":"490G00004594","stationId":"490G00004594","stopLetter":"EN","topMostParentId":"490G00004594","towards":"Havering Park"},{"icsId":"1008974","id":"490008974E","lat":51.60531,"lon":0.16569,"name":"Larchwood Avenue","parentId":"490G00008974","stationId":"490G00008974","stopLetter":"->E","topMostParentId":"490G00008974","towards":"Havering Park"},{"icsId":"1008423","id":"490008423W","lat":51.60778,"lon":0.1656,"name":"Hunters Grove","parentId":"490G00008423","stationId":"490G00008423","topMostParentId":"490G00008423","towards":"Havering Park"},{"icsId":"1007917","id":"490007917S","lat":51.60882,"lon":0.16567,"name":"Havering Park","parentId":"490G00007917","stationId":"490G00007917","stopLetter":"->S","topMostParentId":"490G00007917","towards":"Romford"}]}]}