{"direction":"outbound","lineId":"371","lineName":"371","mode":"bus","stopPointSequences":[{"stopPoint":[{"icsId":"1018720","id":"490018720S","lat":51.46622,"lon":-0.28799,"name":"Manor Road / Sainsbury's","parentId":"490G00018720","stationId":"490G00018720","stopLetter":"SU","topMostParentId":"490G00018720","towards":"Ham"},{"icsId":"1018720","id":"490018720W","lat":51.46679,"lon":-0.28849,"name":"Manor Road / Sainsbury's","parentId":"490G00018720","stationId":"490G00018720","stopLetter":"SC","topMostParentId":"490G00018720","towards":"Ham Or Twickenham"},{"icsId":"1009547","id":"490009547SB","lat":51.46698,"lon":-0.29037,"name":"Manor Circus","parentId":"490G00009547","stationId":"490G00009547","stopLetter":"SB","topMostParentId":"490G00009547","towards":"Ham, St Margarets Or Twickenham"},{"icsId":"1012048","id":"490012048SK","lat":51.4661,"lon":-0.29292,"name":"Sheendale Road","parentId":"490G00012048","stationId":"490G00012048","stopLetter":"SK","topMostParentId":"490G00012048","towards":"Ham, Twickenham Or Sheen"},{"icsId":"1011557","id":"490011557W","lat":51.46507,"lon":-0.29786,"name":"Richmond Circus","parentId":"490G00011557","stationId":"490G00011557","stopLetter":"RR","topMostParentId":"490G00011557","towards":"Ham, St Margarets Or Twickenham"},{"icsId":"1000192","id":"490000192D","lat":51.46333,"lon":-0.30205,"name":"Richmond Station","stopLetter":"D","topMostParentId":"490000192D","towards":"Petersham or Sheen","zone":"4"},{"icsId":"1013511","id":"490013511F","lat":51.46193,"lon":-0.30294,"name":"The Quadrant","parentId":"490G00013511","stationId":"490G00013511","stopLetter":"F","topMostParentId":"490G00013511","towards":"Ham, St Margarets Or Twickenham"},{"icsId":"1012050","id":"490012050G","lat":51.4613,"lon":-0.30197,"name":"Eton Street","parentId":"490G00012050","stationId":"490G00012050","stopLetter":"G","topMostParentId":"490G00012050","towards":"Barnes, Ham Or Putney"},{"icsId":"1009766","id":"490009766S","lat":51.46125,"lon":-0.29787,"name":"Dynevor Road","parentId":"490G00009766","stationId":"490G00009766","stopLetter":"->S","topMostParentId":"490G00009766","towards":"Ham"},{"icsId":"1013585","id":"490013585Q","lat":51.45968,"lon":-0.29679,"name":"The Vineyard","parentId":"490G00013585","stationId":"490G00013585","stopLetter":"Q","topMostParentId":"490G00013585","towards":"Ham"},{"icsId":"1012453","id":"490012453S","lat":51.45674,"lon":-0.29606,"name":"St Matthias Church","parentId":"490G00012453","stationId":"490G00012453","stopLetter":"->S","topMostParentId":"490G00012453","towards":"Ham"},{"icsId":"1008810","id":"490008810N","lat":51.45794,"lon":-0.29405,"name":"Kings Road","parentId":"490G00008810","stationId":"490G00008810","stopLetter":"->N","topMostParentId":"490G00008810","towards":"Ham"},{"icsId":"1009635","id":"490009635E","lat":51.45765,"lon":-0.29127,"name":"Marchmont Road","parentId":"490G00009635","stationId":"490G00009635","topMostParentId":"490G00009635","towards":"Ham"},{"icsId":"1010813","id":"490010813S","lat":51.45585,"lon":-0.29214,"name":"Park Road","parentId":"490G00010813","stationId":"490G00010813","stopLetter":"->S","topMostParentId":"490G00010813","towards":"Ham"},{"icsId":"1004692","id":"490004692S","lat":51.45393,"lon":-0.29389,"name":"Cambrian Community Centre","parentId":"490G00004692","stationId":"490G00004692","stopLetter":"->S","topMostParentId":"490G00004692","towards":"Ham"},{"icsId":"1011549","id":"490012465S","lat":51.45191,"lon":-0.29532,"name":"Richmond Hill / Richmond Gate","parentId":"490G00011549","stationId":"490G00011549","stopLetter":"->S","topMostParentId":"490G00011549","towards":"Ham"},{"icsId":"1013340","id":"490013340W","lat":51.44634,"lon":-0.29927,"name":"The Dysart","parentId":"490G00013340","stationId":"490G00013340","stopLetter":"->W","topMostParentId":"490G00013340","towards":"Kingston"},{"icsId":"1011911","id":"490011911S","lat":51.44407,"lon":-0.30265,"name":"Sudbrook Lane","parentId":"490G00011911","stationId":"490G00011911","stopLetter":"->S","topMostParentId":"490G00011911","towards":"Kingston"},{"icsId":"1011930","id":"490011927W","lat":51.44054,"lon":-0.30458,"name":"Clifford Road","parentId":"490G00011930","stationId":"490G00011930","stopLetter":"->W","topMostParentId":"490G00011930","towards":"Kingston"},{"icsId":"1007745","id":"490007745W","lat":51.43957,"lon":-0.31319,"name":"Ham Street","parentId":"490G00007745","stationId":"490G00007745","stopLetter":"->W","topMostParentId":"490G00007745","towards":"Kingston"},{"icsId":"1003412","id":"490003412E","lat":51.43771,"lon":-0.31435,"name":"Ashburnham Road","parentId":"490G00003412","stationId":"490G00003412","stopLetter":"->E","topMostParentId":"490G00003412","towards":"Kingston"},{"icsId":"1009652","id":"490009652S","lat":51.43524,"lon":-0.31804,"name":"Mariner Gardens","parentId":"490G00009652","stationId":"490G00009652","stopLetter":"M","topMostParentId":"490G00009652","towards":"Kingston"},{"icsId":"1004498","id":"490004498S","lat":51.43329,"lon":-0.31529,"name":"Lock Road","parentId":"490G00004498","stationId":"490G00004498","stopLetter":"N","topMostParentId":"490G00004498","towards":"Kingston"},{"icsId":"1006283","id":"490006283E","lat":51.43218,"lon":-0.31213,"name":"Dysart Avenue","parentId":"490G00006283","stationId":"490G00006283","stopLetter":"P","topMostParentId":"490G00006283","towards":"Kingston"},{"icsId":"1020199","id":"490020199Z","lat":51.43064,"lon":-0.30839,"name":"Dukes Avenue / Northweald Lane","parentId":"490G00020199","stationId":"490G00020199","stopLetter":"Z","topMostParentId":"490G00020199","towards":"Kingston"},{"icsId":"1011563","id":"490016644E","lat":51.43009,"lon":-0.30605,"name":"Richmond Road","parentId":"490G00011563","stationId":"490G00011563","stopLetter":"Q","topMostParentId":"490G00011563","towards":"Kingston"},{"icsId":"1003643","id":"490003643E","lat":51.42842,"lon":-0.3011,"name":"Barnfield Avenue","parentId":"490G00003643","stationId":"490G00003643","stopLetter":"R","topMostParentId":"490G00003643","towards":"Kingston"},{"icsId":"1013280","id":"490013280E","lat":51.42656,"lon":-0.29713,"name":"Hollybush Road","parentId":"490G00013280","stationId":"490G00013280","stopLetter":"->E","topMostParentId":"490G00013280","towards":"Kingston"},{"icsId":"1008986","id":"490008986E","lat":51.42602,"lon":-0.2957,"name":"Latchmere Lane","parentId":"490G00008986","stationId":"490G00008986","stopLetter":"->E","topMostParentId":"490G00008986","towards":"Kingston"},{"icsId":"1010819","id":"490010819E","lat":51.42477,"lon":-0.29143,"name":"Wingfield Road","parentId":"490G00010819","stationId":"490G00010819","stopLetter":"->E","topMostParentId":"490G00010819","towards":"Kingston"},{"icsId":"1008613","id":"490008613S","lat":51.42283,"lon":-0.29008,"name":"Kelvedon Close","parentId":"490G00008613","stationId":"490G00008613","stopLetter":"->S","topMostParentId":"490G00008613","towards":"Kingston"},{"icsId":"1004386","id":"490008815S","lat":51.42024,"lon":-0.28918,"name":"Wyndham Road","parentId":"490G00004386","stationId":"490G00004386","stopLetter":"->S","topMostParentId":"490G00004386","towards":"Kingston"},{"icsId":"1003215","id":"490003215S","lat":51.41813,"lon":-0.28873,"name":"Alexandra Road","parentId":"490G00003215","stationId":"490G00003215","stopLetter":"->S","topMostParentId":"490G00003215","towards":"Kingston"},{"icsId":"1004534","id":"490004534NQ","lat":51.4152,"lon":-0.28815,"name":"Brunswick Road","parentId":"490G00004534","stationId":"490G00004534","stopLetter":"NQ","topMostParentId":"490G00004534","towards":"Kingston"},{"icsId":"1009558","id":"490009558S","lat":51.41318,"lon":-0.28782,"name":"Manor Gate Road","parentId":"490G00009558","stationId":"490G00009558","stopLetter":"NS","topMostParentId":"490G00009558","towards":"Kingston"},{"icsId":"1018701","id":"4900018701W","lat":51.41175,"lon":-0.29025,"name":"Gordon Road","parentId":"490G00018701","stationId":"490G00018701","stopLetter":"NW","topMostParentId":"490G00018701","towards":"Kingston Or Surbiton"},{"icsId":"1002150","id":"490013664C2","lat":51.41055,"lon":-0.29557,"name":"Norbiton Church / Tiffin Boys School","parentId":"490G000371","stationId":"490G000371","stopLetter":"C","topMostParentId":"490G000371","towards":"Kingston Or Surbiton"},{"icsId":"1006412","id":"490006412D1","lat":51.41025,"lon":-0.30224,"name":"Eden Street","parentId":"490G00006412","stationId":"490G00006412","stopLetter":"D1","topMostParentId":"490G00006412","towards":"Surbiton Or Thames Ditton"},{"icsId":"1006416","id":"490006412H","lat":51.40888,"lon":-0.30479,"name":"St James's Road","parentId":"490G00006416","stationId":"490G00006416","stopLetter":"H","topMostParentId":"490G00006416","towards":"Surbiton Or Thames Ditton"},{"icsId":"1007595","id":"490007595J","lat":51.40884,"lon":-0.30633,"name":"Guildhall / Rose Theatre","parentId":"490G00007595","stationId":"490G00007595","stopLetter":"J","topMostParentId":"490G00007595","towards":"Surbiton Or Thames Ditton"},{"icsId":"1008821","id":"490008821E","lat":51.40761,"lon":-0.30629,"name":"Kingston Hall Road","parentId":"490G00008821","stationId":"490G00008821","stopLetter":"->E","topMostParentId":"490G00008821"}]}]}