{"direction":"outbound","lineId":"376","lineName":"376","mode":"bus","stopPointSequences":[{"stopPoint":[{"icsId":"1006317","id":"490006317C","lat":51.51431,"lon":0.05935,"name":"Beckton Bus Station","parentId":"490G000496","stationId":"490G000496","stopLetter":"C","topMostParentId":"490G000496","towards":"Prince Regent, Upton Park Or Plaistow"},{"icsId":"1002011","id":"490002011H","lat":51.51369,"lon":0.06093,"name":"Beckton Station","stopLetter":"H","topMostParentId":"490002011H","towards":"Gallions Reach Or Newham University Hospital","zone":"3"},{"icsId":"1006389","id":"490006389E","lat":51.51209,"lon":0.06474,"name":"Covelees Wall","parentId":"490G00006389","stationId":"490G00006389","stopLetter":"G","topMostParentId":"490G00006389","towards":"Newham University Hospital Or Beckton Sainsburys"},{"icsId":"1014787","id":"490014787S","lat":51.51339,"lon":0.06802,"name":"Winsor Park Estate","parentId":"490G00014787","stationId":"490G00014787","stopLetter":"->S","topMostParentId":"490G00014787","towards":"District Centre Or Newham University Hosp"},{"icsId":"1008378","id":"490008378S","lat":51.51183,"lon":0.0671,"name":"Horse Leaze","parentId":"490G00008378","stationId":"490G00008378","stopLetter":"A","topMostParentId":"490G00008378","towards":"Cyprus Or Newham University Hosp"},{"icsId":"1013355","id":"490013355W","lat":51.50895,"lon":0.06612,"name":"Devalls Close","parentId":"490G00013355","stationId":"490G00013355","stopLetter":"W","topMostParentId":"490G00013355","towards":"Beckton Bus Stn Or Newham Uni Hospital"},{"icsId":"1002028","id":"490002028Q","lat":51.50904,"lon":0.0642,"name":"Cyprus Station","stopLetter":"Q","topMostParentId":"490002028Q","towards":"Beckton Bus Stn Or Newham Uni Hospital","zone":"3"},{"icsId":"1012896","id":"490006361E","lat":51.50889,"lon":0.06149,"name":"Strait Road / East Ham Manor Way","parentId":"490G000772","stationId":"490G000772","stopLetter":"R","topMostParentId":"490G000772","towards":"Newham University Hosp"},{"icsId":"1011520","id":"490011520T","lat":51.50897,"lon":0.05915,"name":"Renfrew Close","parentId":"490G00011520","stationId":"490G00011520","stopLetter":"T","topMostParentId":"490G00011520","towards":"Newham University Hosp"},{"icsId":"1002012","id":"490002012X","lat":51.50904,"lon":0.0562,"name":"Beckton Park Station","stopLetter":"X","topMostParentId":"490002012X","towards":"Newham University Hosp","zone":"3"},{"icsId":"1012577","id":"490012577W","lat":51.50926,"lon":0.0501,"name":"Strait Road / Stansfeld Road","parentId":"490G000761","stationId":"490G000761","stopLetter":"->W","topMostParentId":"490G000761","towards":"Newham University Hosp"},{"icsId":"1012897","id":"490012897N","lat":51.51035,"lon":0.04728,"name":"Jake Russell Walk","parentId":"490G00012897","stationId":"490G00012897","stopLetter":"B","topMostParentId":"490G00012897","towards":"Beckton Bus Station"},{"icsId":"1014716","id":"490014716W","lat":51.51219,"lon":0.04458,"name":"Jasper Road","parentId":"490G00014716","stationId":"490G00014716","stopLetter":"->W","topMostParentId":"490G00014716","towards":"Newham University Hospital"},{"icsId":"1007062","id":"490007062N","lat":51.51434,"lon":0.04208,"name":"Fulmer Road","parentId":"490G00007062","stationId":"490G00007062","stopLetter":"->N","topMostParentId":"490G00007062","towards":"Beckton Bus Station"},{"icsId":"1003753","id":"490003753W","lat":51.51659,"lon":0.03982,"name":"Sullivan Avenue","parentId":"490G00003753","stationId":"490G00003753","stopLetter":"K","topMostParentId":"490G00003753","towards":"Prince Regent Or Newham University Hosp"},{"icsId":"1005505","id":"490005505W","lat":51.51667,"lon":0.03605,"name":"Colman Road","parentId":"490G00005505","stationId":"490G00005505","stopLetter":"L","topMostParentId":"490G00005505","towards":"Prince Regent Or Newham University Hosp"},{"icsId":"1003898","id":"490003898N","lat":51.51941,"lon":0.03204,"name":"Bennett Road","parentId":"490G00003898","stationId":"490G00003898","stopLetter":"T","topMostParentId":"490G00003898","towards":"East Ham Or Stratford"},{"icsId":"1015395","id":"490007236E","lat":51.52251,"lon":0.03286,"name":"Newham University Hosp Emergency Dept","parentId":"490G00015395","stationId":"490G00015395","stopLetter":"HC","topMostParentId":"490G00015395","towards":"Upton Park And East Ham"},{"icsId":"1007236","id":"490007236E1","lat":51.52223,"lon":0.03727,"name":"Newham University Hosp Main Reception","parentId":"490G00007236","stationId":"490G00007236","stopLetter":"HG","topMostParentId":"490G00007236","towards":"Beckton, Upton Park & East Ham"},{"icsId":"1004182","id":"490004182N","lat":51.52332,"lon":0.0396,"name":"Brampton Manor School","parentId":"490G00004182","stationId":"490G00004182","stopLetter":"HJ","topMostParentId":"490G00004182","towards":"East Ham"},{"icsId":"1010202","id":"490010202N","lat":51.52488,"lon":0.03927,"name":"New City Road","parentId":"490G00010202","stationId":"490G00010202","stopLetter":"HL","topMostParentId":"490G00010202","towards":"East Ham Or Stratford"},{"icsId":"1014724","id":"490014724N","lat":51.5276,"lon":0.03854,"name":"Wilson Road","parentId":"490G00014724","stationId":"490G00014724","stopLetter":"P","topMostParentId":"490G00014724","towards":"East Ham Or Stratford"},{"icsId":"1003151","id":"490003151R","lat":51.52974,"lon":0.03741,"name":"Barking Road","parentId":"490G00003151","stationId":"490G00003151","stopLetter":"R","topMostParentId":"490G00003151","towards":"East Ham Or Stratford"},{"icsId":"1013958","id":"490015134N","lat":51.5309,"lon":0.03762,"name":"Upton Park / Boleyn","parentId":"490G00013958","stationId":"490G00013958","stopLetter":"G","topMostParentId":"490G00013958","towards":"Forest Gate Or Stratford"},{"icsId":"1013833","id":"490013833E","lat":51.53338,"lon":0.03629,"name":"Tudor Road","parentId":"490G00013833","stationId":"490G00013833","stopLetter":"E","topMostParentId":"490G00013833","towards":"Forest Gate Or Stratford"},{"icsId":"1000245","id":"490000245A","lat":51.53467,"lon":0.03538,"name":"Upton Park Station","stopLetter":"A","topMostParentId":"490000245A","towards":"Forest Gate Or Stratford","zone":"3"},{"icsId":"1011052","id":"490011052N","lat":51.53667,"lon":0.03482,"name":"Plashet Road","parentId":"490G00011052","stationId":"490G00011052","stopLetter":"D","topMostParentId":"490G00011052","towards":"Forest Gate Or Stratford"},{"icsId":"1011051","id":"490011051E","lat":51.53745,"lon":0.03497,"name":"Washington Road","parentId":"490G000705","stationId":"490G000705","stopLetter":"H","topMostParentId":"490G000705","towards":"East Ham"},{"icsId":"1014148","id":"490014148K","lat":51.53699,"lon":0.03736,"name":"Walpole Road","parentId":"490G00014148","stationId":"490G00014148","stopLetter":"K","topMostParentId":"490G00014148","towards":"East Ham"},{"icsId":"1011050","id":"490011050E","lat":51.53799,"lon":0.04134,"name":"Katherine Road","parentId":"490G00011050","stationId":"490G00011050","stopLetter":"R","topMostParentId":"490G00011050","towards":"East Ham"},{"icsId":"1012130","id":"490012130E","lat":51.53957,"lon":0.04595,"name":"Shrewsbury Road","parentId":"490G00012130","stationId":"490G00012130","stopLetter":"S","topMostParentId":"490G00012130","towards":"Barking Or Beckton Sainsburys"},{"icsId":"1011055","id":"490011055E","lat":51.54039,"lon":0.04955,"name":"Plashet School","parentId":"490G00011055","stationId":"490G00011055","stopLetter":"T","topMostParentId":"490G00011055","towards":"Barking Or Beckton"},{"icsId":"1000068","id":"490000068A","lat":51.54003,"lon":0.05097,"name":"East Ham Station","stopLetter":"A","topMostParentId":"490000068A","towards":"Barking, Beckton Or Newham Hospital","zone":"3+4"},{"icsId":"1003888","id":"490003888N","lat":51.53754,"lon":0.05171,"name":"Bendish Road","parentId":"490G00003888","stationId":"490G00003888","stopLetter":"N","topMostParentId":"490G00003888","towards":"Barking, Beckton Or Newham Hospital"},{"icsId":"1011001","id":"490011001M","lat":51.53553,"lon":0.05136,"name":"Ron Leighton Way","parentId":"490G00011001","stationId":"490G00011001","stopLetter":"M","topMostParentId":"490G00011001","towards":"Newham Hospital, Beckton Or Upton Park"},{"icsId":"1006360","id":"490006360R","lat":51.53292,"lon":0.05309,"name":"High Street North","parentId":"490G00006360","stationId":"490G00006360","stopLetter":"R","topMostParentId":"490G00006360","towards":"Beckton Or Upton Park"},{"icsId":"1010218","id":"490010218V","lat":51.53188,"lon":0.05529,"name":"Newham Town Hall","parentId":"490G00010218","stationId":"490G00010218","stopLetter":"V","topMostParentId":"490G00010218","towards":"Beckton Or Newham Hospital"}]}]}