{"direction":"outbound","lineId":"378","lineName":"378","mode":"bus","stopPointSequences":[{"stopPoint":[{"icsId":"1010047","id":"490010047N","lat":51.46801,"lon":-0.25958,"name":"Mortlake Bus Station","parentId":"490G00010047","stationId":"490G00010047","stopLetter":"P","topMostParentId":"490G00010047","towards":"Barnes"},{"icsId":"1002152","id":"490003516E","lat":51.46992,"lon":-0.25953,"name":"Avondale Road","parentId":"490G000373","stationId":"490G000373","stopLetter":"S","topMostParentId":"490G000373","towards":"Hammersmith Bridge Or Putney"},{"icsId":"1014596","id":"490014596E","lat":51.4705,"lon":-0.25688,"name":"White Hart Lane","parentId":"490G00014596","stationId":"490G00014596","stopLetter":"T","topMostParentId":"490G00014596","towards":"Hammersmith Bridge Or Putney"},{"icsId":"1001015","id":"490001015BK","lat":51.47256,"lon":-0.25288,"name":"Barnes Bridge Station","stopLetter":"BK","topMostParentId":"490001015BK","towards":"Hammersmith Bridge Or Putney"},{"icsId":"1003630","id":"490003630ZZ","lat":51.47351,"lon":-0.25057,"name":"Barnes High Street","parentId":"490G00003630","stationId":"490G00003630","stopLetter":"->E","topMostParentId":"490G00003630","towards":"Hammersmith Bridge, Putney Or Roehampton"},{"icsId":"1003632","id":"490003632BF","lat":51.47388,"lon":-0.24677,"name":"Barnes Pond","parentId":"490G00003632","stationId":"490G00003632","stopLetter":"BF","topMostParentId":"490G00003632","towards":"Hammersmith Bridge"},{"icsId":"1007216","id":"490007216BE","lat":51.47443,"lon":-0.24371,"name":"Glebe Road","parentId":"490G00007216","stationId":"490G00007216","stopLetter":"BE","topMostParentId":"490G00007216","towards":"Hammersmith Bridge"},{"icsId":"1005298","id":"490005298WS","lat":51.47471,"lon":-0.23878,"name":"Church Road / Red Lion","parentId":"490G00005298","stationId":"490G00005298","stopLetter":"WS","topMostParentId":"490G00005298","towards":"Roehampton Or Sheen"},{"icsId":"1011420","id":"490011420WT","lat":51.47286,"lon":-0.23754,"name":"Ranelagh Avenue","parentId":"490G00011420","stationId":"490G00011420","stopLetter":"WT","topMostParentId":"490G00011420","towards":"Roehampton Or Sheen"},{"icsId":"1012375","id":"490012375E","lat":51.4685,"lon":-0.22781,"name":"Commondale","parentId":"490G00012375","stationId":"490G00012375","stopLetter":"E","topMostParentId":"490G00012375","towards":"Fulham Or Wandsworth"},{"icsId":"1006825","id":"490006825E","lat":51.46829,"lon":-0.22342,"name":"Festing Road","parentId":"490G00006825","stationId":"490G00006825","stopLetter":"F","topMostParentId":"490G00006825","towards":"Fulham Or Wandsworth"},{"icsId":"1011828","id":"490011828E","lat":51.46732,"lon":-0.21921,"name":"Ruvigny Gardens","parentId":"490G00011828","stationId":"490G00011828","stopLetter":"G","topMostParentId":"490G00011828","towards":"Fulham Or Wandsworth"},{"icsId":"1002026","id":"490013344Q","lat":51.46638,"lon":-0.21488,"name":"Putney Pier","parentId":"930GPUT","stationId":"930GPUT","stopLetter":"Q","topMostParentId":"930GPUT","towards":"Fulham Or Wandsworth"},{"icsId":"1011278","id":"490011278N","lat":51.46686,"lon":-0.21319,"name":"St Mary's Church / Putney Pier","parentId":"490G00011278","stationId":"490G00011278","stopLetter":"T","topMostParentId":"490G00011278","towards":"Putney Bridge Station"},{"icsId":"1007281","id":"490015157V","lat":51.46804,"lon":-0.21184,"name":"Putney Bridge","parentId":"490G000536","stationId":"490G000536","stopLetter":"FH","topMostParentId":"490G000536","towards":"Chelsea, Fulham Or Hammersmith"}]}]}