{"direction":"outbound","lineId":"395","lineName":"395","mode":"bus","stopPointSequences":[{"stopPoint":[{"icsId":"1007845","id":"490007845B","lat":51.58004,"lon":-0.33758,"name":"Harrow Bus Station","parentId":"490G000574","stationId":"490G000574","stopLetter":"B","topMostParentId":"HUBHOH","towards":"South Harrow"},{"icsId":"1011745","id":"490011745S","lat":51.57656,"lon":-0.34282,"name":"Roxborough Avenue","parentId":"490G00011745","stationId":"490G00011745","stopLetter":"->S","topMostParentId":"490G00011745","towards":"South Harrow"},{"icsId":"1014517","id":"490014517S","lat":51.57329,"lon":-0.34383,"name":"West Street","parentId":"490G00014517","stationId":"490G00014517","stopLetter":"RA","topMostParentId":"490G00014517","towards":"South Harrow"},{"icsId":"1006216","id":"490006216S","lat":51.57075,"lon":-0.34566,"name":"Dudley Gardens","parentId":"490G00006216","stationId":"490G00006216","stopLetter":"RB","topMostParentId":"490G00006216","towards":"South Harrow"},{"icsId":"1012026","id":"490012026S","lat":51.56824,"lon":-0.34822,"name":"Grange Road","parentId":"490G00012026","stationId":"490G00012026","stopLetter":"RC","topMostParentId":"490G00012026","towards":"Northolt, Rayners Lane Or Ruislip"},{"icsId":"1000211","id":"490000211G","lat":51.56428,"lon":-0.35373,"name":"South Harrow Station","stopLetter":"G","topMostParentId":"490000211G","towards":"Alperton Or Northolt","zone":"5"},{"icsId":"1015183","id":"490015183J","lat":51.56168,"lon":-0.35692,"name":"Corbins Lane","parentId":"490G00015183","stationId":"490G00015183","stopLetter":"J","topMostParentId":"490G00015183","towards":"Alperton Or Northolt"},{"icsId":"1012689","id":"490012689S","lat":51.55985,"lon":-0.35895,"name":"St Gabriel's Church","parentId":"490G00012689","stationId":"490G00012689","stopLetter":"NH","topMostParentId":"490G00012689","towards":"Alperton Or Northolt"},{"icsId":"1001211","id":"490003203B","lat":51.55809,"lon":-0.36106,"name":"Northolt Park Station","stopLetter":"NJ","topMostParentId":"490003203B","towards":"Alperton Or Northolt"},{"icsId":"1005952","id":"490005952S","lat":51.556,"lon":-0.36137,"name":"Danemead Grove","parentId":"490G000482","stationId":"490G000482","stopLetter":"NK","topMostParentId":"490G000482","towards":"Alperton Or Yeading"},{"icsId":"1010390","id":"490010390S","lat":51.55416,"lon":-0.36003,"name":"Northolt Fire Station","parentId":"490G00010390","stationId":"490G00010390","stopLetter":"NL","topMostParentId":"490G00010390","towards":"Greenford Stn Or Yeading"},{"icsId":"1010239","id":"4900010239Z","lat":51.55332,"lon":-0.36158,"name":"Newmarket Avenue","parentId":"490G00010239","stationId":"490G00010239","stopLetter":"->W","topMostParentId":"490G00010239","towards":"Greenford"},{"icsId":"1000891","id":"490000891Z","lat":51.55189,"lon":-0.36423,"name":"Cheltenham Close","parentId":"490G000210","stationId":"490G000210","stopLetter":"->W","topMostParentId":"490G000210","towards":"Greenford"},{"icsId":"1008619","id":"490008619Z","lat":51.55138,"lon":-0.36691,"name":"Kempton Avenue","parentId":"490G00008619","stationId":"490G00008619","stopLetter":"->W","topMostParentId":"490G00008619","towards":"Greenford"},{"icsId":"1013047","id":"490013047Y","lat":51.55112,"lon":-0.36994,"name":"Sussex Crescent","parentId":"490G00013047","stationId":"490G00013047","stopLetter":"->W","topMostParentId":"490G00013047","towards":"Greenford"},{"icsId":"1005917","id":"490005917Z","lat":51.55105,"lon":-0.37206,"name":"Dabbs Hill Lane","parentId":"490G00005917","stationId":"490G00005917","stopLetter":"->S","topMostParentId":"490G00005917","towards":"Greenford"},{"icsId":"1010391","id":"490010391S","lat":51.54899,"lon":-0.3748,"name":"Eastcote Lane","parentId":"490G00010391","stationId":"490G00010391","topMostParentId":"490G00010391"},{"icsId":"1008518","id":"490008518E","lat":51.54749,"lon":-0.37356,"name":"Islip Manor Park","parentId":"490G00008518","stationId":"490G00008518","stopLetter":"M","topMostParentId":"490G00008518","towards":"Greenford"},{"icsId":"1009959","id":"490009959C","lat":51.54645,"lon":-0.37048,"name":"Moat Farm Road","parentId":"490G00009959","stationId":"490G00009959","stopLetter":"C","topMostParentId":"490G00009959","towards":"Eastcote, Harrow Or Smiths Farm"},{"icsId":"1000162","id":"490000162A","lat":51.54767,"lon":-0.36878,"name":"Northolt Station","stopLetter":"A","topMostParentId":"490000162A","towards":"Eastcote Or Harrow","zone":"5"},{"icsId":"1015192","id":"490015192E","lat":51.54977,"lon":-0.36472,"name":"Castle Road","parentId":"490G00015192","stationId":"490G00015192","stopLetter":"E","topMostParentId":"490G00015192","towards":"South Harrow Or Greenford Station"},{"icsId":"1004308","id":"490004308S","lat":51.54904,"lon":-0.36257,"name":"Briar Crescent","parentId":"490G00004308","stationId":"490G00004308","stopLetter":"->S","topMostParentId":"490G00004308"},{"icsId":"1010630","id":"490010630E","lat":51.548,"lon":-0.35613,"name":"Castle Road / Glamis Way","parentId":"490G00010630","stationId":"490G00010630","stopLetter":"->E","topMostParentId":"490G00010630"},{"icsId":"1007208","id":"490007208E","lat":51.54887,"lon":-0.35483,"name":"The Fairway / Glamis Way","parentId":"490G00007208","stationId":"490G00007208","topMostParentId":"490G00007208"},{"icsId":"1016751","id":"490016751E","lat":51.55024,"lon":-0.35298,"name":"Raglan Way","parentId":"490G00016751","stationId":"490G00016751","topMostParentId":"490G00016751"},{"icsId":"1010541","id":"490010541N","lat":51.55155,"lon":-0.35121,"name":"Orchard Close / The Fairway","parentId":"490G00010541","stationId":"490G00010541","topMostParentId":"490G00010541"},{"icsId":"1019980","id":"490011725E","lat":51.55102,"lon":-0.34955,"name":"Oldfields Circus / Wadham Gardens","parentId":"490G00019980","stationId":"490G00019980","stopLetter":"->E","topMostParentId":"490G00019980","towards":"Greenford Station"},{"icsId":"1005369","id":"490005362S","lat":51.5486,"lon":-0.34398,"name":"Currey Road","parentId":"490G00005369","stationId":"490G00005369","stopLetter":"->S","topMostParentId":"490G00005369","towards":"Greenford"},{"icsId":"1013569","id":"490013569S","lat":51.54635,"lon":-0.34451,"name":"Auriol Drive","parentId":"490G00013569","stationId":"490G00013569","topMostParentId":"490G00013569","towards":"Greenford"},{"icsId":"1013515","id":"490013515KK","lat":51.5432,"lon":-0.34547,"name":"Greenford Station   / Rockware Avenue","parentId":"490G000790","stationId":"490G000790","stopLetter":"KK","topMostParentId":"HUBGFD","towards":"Westway Cross Retail Park"},{"icsId":"1014524","id":"490014524W","lat":51.54327,"lon":-0.34037,"name":"Westway Cross Retail Park","parentId":"490G00014524","stationId":"490G00014524","stopLetter":"II","topMostParentId":"490G00014524","towards":"Northolt"}]}]}