{"direction":"outbound","lineId":"396","lineName":"396","mode":"bus","stopPointSequences":[{"stopPoint":[{"icsId":"1015364","id":"490015364S","lat":51.57934,"lon":0.11192,"name":"King George Hospital","parentId":"490G00015364","stationId":"490G00015364","stopLetter":"AA","topMostParentId":"490G00015364","towards":"Newbury Park"},{"icsId":"1003150","id":"490003150B","lat":51.58131,"lon":0.11665,"name":"Chadwell Heath Lane","parentId":"490G00003150","stationId":"490G00003150","stopLetter":"B","topMostParentId":"490G00003150","towards":"Barking Or Ilford"},{"icsId":"1003620","id":"490003620C","lat":51.58238,"lon":0.11571,"name":"Barley Lane","parentId":"490G00003620","stationId":"490G00003620","stopLetter":"C","topMostParentId":"490G00003620","towards":"Gants Hill"},{"icsId":"1003696","id":"490003696W","lat":51.58117,"lon":0.10641,"name":"Bawdsey Avenue","parentId":"490G00003696","stationId":"490G00003696","stopLetter":"->W","topMostParentId":"490G00003696","towards":"Gants Hill"},{"icsId":"1020345","id":"490011412W","lat":51.57952,"lon":0.10278,"name":"Grenfell Gardens","parentId":"490G00020345","stationId":"490G00020345","stopLetter":"->W","topMostParentId":"490G00020345","towards":"Gants Hill"},{"icsId":"1019701","id":"490019701NU","lat":51.5777,"lon":0.09912,"name":"Aldborough Road South","parentId":"490G000938","stationId":"490G000938","stopLetter":"NU","topMostParentId":"490G000938","towards":"Gants Hill"},{"icsId":"1000154","id":"490000154B","lat":51.5751,"lon":0.09182,"name":"Newbury Park Station","stopLetter":"NB","topMostParentId":"490000154B","towards":"Gants Hill","zone":"4"},{"icsId":"1009129","id":"490009129W","lat":51.57356,"lon":0.08481,"name":"Ley Street","parentId":"490G00009129","stationId":"490G00009129","stopLetter":"NK","topMostParentId":"490G00009129","towards":"Ilford Or Redbridge"},{"icsId":"1009930","id":"490009930W","lat":51.57447,"lon":0.07738,"name":"Milton Crescent","parentId":"490G00009930","stationId":"490G00009930","stopLetter":"ER","topMostParentId":"490G00009930","towards":"Ilford Or Redbridge"},{"icsId":"1012344","id":"490012344W","lat":51.57535,"lon":0.07241,"name":"South View Crescent","parentId":"490G00012344","stationId":"490G00012344","stopLetter":"ES","topMostParentId":"490G00012344","towards":"Ilford Or Redbridge"},{"icsId":"1000085","id":"490015201L","lat":51.57596,"lon":0.06883,"name":"Gants Hill Station","stopLetter":"ET","topMostParentId":"490015201L","towards":"Ilford Or Wanstead","zone":"4"},{"icsId":"1015202","id":"490015202N","lat":51.57565,"lon":0.06636,"name":"Gants Hill Station / Cranbrook Road","parentId":"490G000878","stationId":"490G000878","stopLetter":"CH","topMostParentId":"490G000878","towards":"Ilford"},{"icsId":"1003828","id":"490003828S1","lat":51.57189,"lon":0.06444,"name":"Mornington Avenue","parentId":"490G00003828","stationId":"490G00003828","stopLetter":"CJ","topMostParentId":"490G00003828","towards":"Ilford"},{"icsId":"1003947","id":"490003947S","lat":51.56924,"lon":0.06461,"name":"Bethell Avenue","parentId":"490G00003947","stationId":"490G00003947","stopLetter":"VA","topMostParentId":"490G00003947","towards":"Ilford"},{"icsId":"1013988","id":"490013988S","lat":51.56704,"lon":0.06584,"name":"Valentines Park","parentId":"490G00013988","stationId":"490G00013988","stopLetter":"VB","topMostParentId":"490G00013988","towards":"Ilford"},{"icsId":"1013331","id":"490013331Z","lat":51.5643,"lon":0.06663,"name":"Northbrook Road","parentId":"490G00013331","stationId":"490G00013331","stopLetter":"VC","topMostParentId":"490G00013331","towards":"Ilford"},{"icsId":"1013311","id":"490013311OB","lat":51.56292,"lon":0.06776,"name":"Coventry Road","parentId":"490G00013311","stationId":"490G00013311","stopLetter":"VJ","topMostParentId":"490G00013311","towards":"Ilford"},{"icsId":"1001157","id":"490001157K","lat":51.55943,"lon":0.07023,"name":"Ilford Station","stopLetter":"K","topMostParentId":"490001157K","towards":"Barking, Becontree Or Goodmayes"},{"icsId":"1011626","id":"490011626C","lat":51.55706,"lon":0.068,"name":"Roden Street","parentId":"490G00011626","stationId":"490G00011626","stopLetter":"C","topMostParentId":"490G00011626","towards":"Gants Hill"}]}]}