{"direction":"outbound","lineId":"398","lineName":"398","mode":"bus","stopPointSequences":[{"stopPoint":[{"icsId":"1000197","id":"490000197A","lat":51.57202,"lon":-0.4215,"name":"Ruislip Station","stopLetter":"A","topMostParentId":"490000197A","towards":"Rayner's Lane Or South Harrow","zone":"6"},{"icsId":"1000199","id":"490000199A","lat":51.57284,"lon":-0.41255,"name":"Ruislip Manor Station","stopLetter":"A","topMostParentId":"490000199A","towards":"Eastcote Or South Harrow","zone":"6"},{"icsId":"1016302","id":"490016302E","lat":51.57144,"lon":-0.40846,"name":"Dulverton Road","parentId":"490G00016302","stationId":"490G00016302","stopLetter":"H","topMostParentId":"490G00016302","towards":"Rayners Lane"},{"icsId":"1009608","id":"490009608E","lat":51.57233,"lon":-0.40508,"name":"Mansfield Avenue","parentId":"490G00009608","stationId":"490G00009608","stopLetter":"->E","topMostParentId":"490G00009608","towards":"Rayners Lane"},{"icsId":"1019123","id":"490019123E","lat":51.57295,"lon":-0.40212,"name":"Oak Grove","parentId":"490G00019123","stationId":"490G00019123","stopLetter":"->E","topMostParentId":"490G00019123","towards":"Eastcote Station"},{"icsId":"1005568","id":"490005568E","lat":51.57394,"lon":-0.3968,"name":"Hoylake Gardens","parentId":"490G00005568","stationId":"490G00005568","stopLetter":"P","topMostParentId":"490G00005568","towards":"Rayners Lane"},{"icsId":"1000066","id":"490000066B","lat":51.57622,"lon":-0.39733,"name":"Eastcote Station","stopLetter":"Q","topMostParentId":"490000066B","towards":"Northwood Hills Or South Harrow","zone":"5"},{"icsId":"1015492","id":"490015492C","lat":51.57755,"lon":-0.39693,"name":"The Close","parentId":"490G000902","stationId":"490G000902","stopLetter":"H","topMostParentId":"490G000902","towards":"Rayners Lane"},{"icsId":"1004979","id":"490004979E","lat":51.57775,"lon":-0.39193,"name":"Chandos Road","parentId":"490G00004979","stationId":"490G00004979","stopLetter":"->E","topMostParentId":"490G00004979","towards":"Rayners Lane"},{"icsId":"1011399","id":"490011399E","lat":51.57784,"lon":-0.38571,"name":"Raleigh Close","parentId":"490G00011399","stationId":"490G00011399","stopLetter":"->E","topMostParentId":"490G00011399","towards":"Rayners Lane"},{"icsId":"1012256","id":"490012256E","lat":51.57809,"lon":-0.38138,"name":"Southbourne Close","parentId":"490G00012256","stationId":"490G00012256","stopLetter":"->E","topMostParentId":"490G00012256","towards":"Rayners Lane Station"},{"icsId":"1013373","id":"490013373E","lat":51.57725,"lon":-0.37776,"name":"The Glen","parentId":"490G00013373","stationId":"490G00013373","stopLetter":"->E","topMostParentId":"490G00013373","towards":"Rayners Lane Station"},{"icsId":"1014084","id":"490014084P","lat":51.57736,"lon":-0.37064,"name":"Village Way East","parentId":"490G000815","stationId":"490G000815","stopLetter":"P","topMostParentId":"490G000815","towards":"Harrow Or South Harrow"},{"icsId":"1000189","id":"490000189B","lat":51.57605,"lon":-0.36991,"name":"Rayners Lane","stopLetter":"B","topMostParentId":"490000189B","towards":"South Harrow","zone":"5"},{"icsId":"1000189","id":"490000189C","lat":51.57452,"lon":-0.37079,"name":"Rayners Lane Station","stopLetter":"C","topMostParentId":"490000189C","towards":"South Harrow","zone":"5"},{"icsId":"1010702","id":"490010702S","lat":51.57137,"lon":-0.37102,"name":"Oxleay Road","parentId":"490G00010702","stationId":"490G00010702","stopLetter":"U","topMostParentId":"490G00010702","towards":"South Harrow"},{"icsId":"1003220","id":"490003220S","lat":51.56786,"lon":-0.36857,"name":"Alexandra Avenue Health Centre","parentId":"490G00003220","stationId":"490G00003220","stopLetter":"V","topMostParentId":"490G00003220","towards":"South Harrow"},{"icsId":"1006330","id":"490006330S","lat":51.56617,"lon":-0.36725,"name":"Eastcote Lane","parentId":"490G00006330","stationId":"490G00006330","stopLetter":"W","topMostParentId":"490G00006330","towards":"South Harrow"},{"icsId":"1005604","id":"490005604E","lat":51.56509,"lon":-0.36085,"name":"Corbins Lane","parentId":"490G00005604","stationId":"490G00005604","stopLetter":"F","topMostParentId":"490G00005604","towards":"South Harrow"},{"icsId":"1000211","id":"490000211F","lat":51.56456,"lon":-0.35398,"name":"South Harrow Station","stopLetter":"F","topMostParentId":"490000211F","towards":"Harrow","zone":"5"},{"icsId":"1000211","id":"490000211G","lat":51.56428,"lon":-0.35373,"name":"South Harrow Station","stopLetter":"G","topMostParentId":"490000211G","towards":"Alperton Or Northolt","zone":"5"},{"icsId":"1015183","id":"490015183J","lat":51.56168,"lon":-0.35692,"name":"Corbins Lane","parentId":"490G00015183","stationId":"490G00015183","stopLetter":"J","topMostParentId":"490G00015183","towards":"Alperton Or Northolt"},{"icsId":"1012689","id":"490012689S","lat":51.55985,"lon":-0.35895,"name":"St Gabriel's Church","parentId":"490G00012689","stationId":"490G00012689","stopLetter":"NH","topMostParentId":"490G00012689","towards":"Alperton Or Northolt"},{"icsId":"1001211","id":"490003203B","lat":51.55809,"lon":-0.36106,"name":"Northolt Park Station","stopLetter":"NJ","topMostParentId":"490003203B","towards":"Alperton Or Northolt"},{"icsId":"1005952","id":"490005952S","lat":51.556,"lon":-0.36137,"name":"Danemead Grove","parentId":"490G000482","stationId":"490G000482","stopLetter":"NK","topMostParentId":"490G000482","towards":"Alperton Or Yeading"},{"icsId":"1015483","id":"490015483E","lat":51.55418,"lon":-0.35725,"name":"Wood End Lane","parentId":"490G00015483","stationId":"490G00015483","stopLetter":"NP","topMostParentId":"490G00015483","towards":"Alperton"},{"icsId":"1018841","id":"490018841N","lat":51.55427,"lon":-0.35432,"name":"Reading Road","parentId":"490G00018841","stationId":"490G00018841","stopLetter":"NE","topMostParentId":"490G00018841","towards":"Lilian Board Way"},{"icsId":"1018842","id":"490018842E","lat":51.55572,"lon":-0.34894,"name":"Mary Peters Drive","parentId":"490G00018842","stationId":"490G00018842","topMostParentId":"490G00018842","towards":"Lilian Board Way"},{"icsId":"1018843","id":"490018843E","lat":51.55469,"lon":-0.34628,"name":"Hemery Road","parentId":"490G00018843","stationId":"490G00018843","stopLetter":"->E","topMostParentId":"490G00018843","towards":"Northolt Park Station"}]}]}