{"direction":"outbound","lineId":"4","lineName":"4","mode":"bus","stopPointSequences":[{"stopPoint":[{"icsId":"1000008","id":"490000008NW","lat":51.5661,"lon":-0.1352,"name":"Archway Station","stopLetter":"E","topMostParentId":"490000008NW","towards":"Highgate Village, Tufnell Park Or Crouch End","zone":"2+3"},{"icsId":"1014625","id":"490014625J","lat":51.56614,"lon":-0.13774,"name":"Whittington Hospital","parentId":"490G00014625","stationId":"490G00014625","stopLetter":"J","topMostParentId":"490G00014625","towards":"Tufnell Park Or Parliament Hill Fields"},{"icsId":"1011872","id":"490011872W","lat":51.56541,"lon":-0.14067,"name":"Magdala Avenue / Dartmouth Park Hill","parentId":"490G00011872","stationId":"490G00011872","stopLetter":"HJ","topMostParentId":"490G00011872","towards":"Tufnell Park Or Parliament Hill Fields"},{"icsId":"1015267","id":"490015267S","lat":51.56292,"lon":-0.14054,"name":"Chester Road","parentId":"490G00015267","stationId":"490G00015267","stopLetter":"HK","topMostParentId":"490G00015267","towards":"Tufnell Park Or Parliament Hill Fields"},{"icsId":"1005973","id":"490005973S","lat":51.56082,"lon":-0.14101,"name":"Dartmouth Park Road","parentId":"490G000483","stationId":"490G000483","stopLetter":"TA","topMostParentId":"490G000483","towards":"Holloway Nags Head"},{"icsId":"1015053","id":"490008592D","lat":51.55829,"lon":-0.13918,"name":"Junction Road","parentId":"490G000853","stationId":"490G000853","stopLetter":"TB","topMostParentId":"490G000853","towards":"Holloway Nags Head"},{"icsId":"1000239","id":"490000239B","lat":51.55708,"lon":-0.13679,"name":"Tufnell Park Station","stopLetter":"TW","topMostParentId":"490000239B","towards":"Holloway Nags Head","zone":"2"},{"icsId":"1004727","id":"490004727E","lat":51.55737,"lon":-0.13304,"name":"Campdale Road","parentId":"490G00004727","stationId":"490G00004727","stopLetter":"TX","topMostParentId":"490G00004727","towards":"Holloway Nags Head"},{"icsId":"1005939","id":"490005939E","lat":51.5577,"lon":-0.12934,"name":"Dalmeny Road","parentId":"490G00005939","stationId":"490G00005939","topMostParentId":"490G00005939","towards":"Holloway Nags Head"},{"icsId":"1004788","id":"490004788E","lat":51.558,"lon":-0.12594,"name":"Carleton Road","parentId":"490G00004788","stationId":"490G00004788","stopLetter":"->E","topMostParentId":"490G00004788","towards":"Finsbury Park"},{"icsId":"1016647","id":"490016647E","lat":51.55834,"lon":-0.12119,"name":"Holloway Road","parentId":"490G00016647","stationId":"490G00016647","stopLetter":"E","topMostParentId":"490G00016647","towards":"Finsbury Park"},{"icsId":"1019153","id":"490008296G","lat":51.55821,"lon":-0.11982,"name":"Seven Sisters Road / Parkhurst Road","parentId":"490G00019153","stationId":"490G00019153","stopLetter":"G","topMostParentId":"490G00019153","towards":"Finsbury Park, Highbury Corner Or Kings Cross"},{"icsId":"1019152","id":"490019152ZZ","lat":51.55903,"lon":-0.11741,"name":"Seven Sisters Road / Nags Head","parentId":"490G00019152","stationId":"490G00019152","stopLetter":"->N","topMostParentId":"490G00019152","towards":"Finsbury Park Or Hornsey Rise"},{"icsId":"1008367","id":"490008367J","lat":51.55981,"lon":-0.11595,"name":"Hornsey Road","parentId":"490G00008367","stationId":"490G00008367","stopLetter":"NP","topMostParentId":"490G00008367","towards":"Finsbury Park Or Hornsey Rise"},{"icsId":"1006272","id":"490006272E","lat":51.56208,"lon":-0.11094,"name":"Durham Road","parentId":"490G00006272","stationId":"490G00006272","stopLetter":"NT","topMostParentId":"490G00006272","towards":"Manor House Or Highbury"},{"icsId":"1006891","id":"490000083X","lat":51.56317,"lon":-0.10795,"name":"Fonthill Road","parentId":"490G00006891","stationId":"490G00006891","stopLetter":"X","topMostParentId":"490G00006891","towards":"Manor House Or Highbury Corner"},{"icsId":"1000083","id":"490000083R","lat":51.564,"lon":-0.10624,"name":"Finsbury Park Station","stopLetter":"R","topMostParentId":"490000083R","towards":"Manor House Or Highbury Corner","zone":"2"},{"icsId":"1006849","id":"490000083G","lat":51.56469,"lon":-0.10569,"name":"Finsbury Park Interchange","parentId":"490G000516","stationId":"490G000516","stopLetter":"G","topMostParentId":"HUBFPK"},{"icsId":"1006847","id":"490006847N","lat":51.56402,"lon":-0.10295,"name":"City & Islington College","parentId":"490G00006847","stationId":"490G00006847","stopLetter":"N","topMostParentId":"490G00006847","towards":"Highbury Cnr, Newington Green Or Stoke Newington"},{"icsId":"1007178","id":"490007178X","lat":51.56051,"lon":-0.09841,"name":"Gillespie Road","parentId":"490G000532","stationId":"490G000532","stopLetter":"EB","topMostParentId":"490G000532","towards":"Newington Green Or Highbury Corner"},{"icsId":"1011601","id":"490011601Y","lat":51.55847,"lon":-0.09852,"name":"Riversdale Road","parentId":"490G00011601","stationId":"490G00011601","stopLetter":"EC","topMostParentId":"490G00011601","towards":"Newington Green Or Highbury Corner"},{"icsId":"1019897","id":"490013294S","lat":51.55505,"lon":-0.09807,"name":"Highbury Grange","parentId":"490G00019897","stationId":"490G00019897","stopLetter":"ED","topMostParentId":"490G00019897","towards":"Newington Green Or Highbury Corner"},{"icsId":"1000333","id":"490008616S","lat":51.55286,"lon":-0.09832,"name":"Highbury Barn","stopLetter":"EE","topMostParentId":"490008616S","towards":"Newington Green Or Highbury Corner"},{"icsId":"1003065","id":"490003053S","lat":51.55079,"lon":-0.09811,"name":"Highbury Grove School / Aberdeen Park","parentId":"490G00003065","stationId":"490G00003065","stopLetter":"CZ","topMostParentId":"490G00003065","towards":"Newington Green Or Highbury Corner"},{"icsId":"1008146","id":"490008146W","lat":51.54652,"lon":-0.09929,"name":"St Paul's Road / Highbury Grove","parentId":"490G00008146","stationId":"490G00008146","stopLetter":"CT","topMostParentId":"490G00008146","towards":"Angel Islington Or Nags Head Holloway"},{"icsId":"1008143","id":"490008143D","lat":51.54611,"lon":-0.10153,"name":"Highbury Corner","parentId":"490G00008143","stationId":"490G00008143","stopLetter":"D","topMostParentId":"490G00008143","towards":"Angel Islington Or Holloway Nags Head"},{"icsId":"1008156","id":"490000108G","lat":51.54427,"lon":-0.10322,"name":"Upper Street / Laycock Street","parentId":"490G00008156","stationId":"490G00008156","stopLetter":"G","topMostParentId":"490G00008156","towards":"Angel Islington"},{"icsId":"1008517","id":"490008517S","lat":51.54219,"lon":-0.10296,"name":"Islington Town Hall","parentId":"490G00008517","stationId":"490G00008517","stopLetter":"M","topMostParentId":"490G00008517","towards":"Angel Islington"},{"icsId":"1008514","id":"490008514S1","lat":51.53828,"lon":-0.10229,"name":"St Mary's Church","parentId":"490G00008514","stationId":"490G00008514","stopLetter":"N","topMostParentId":"490G00008514","towards":"Barbican, Holborn, Kings Cross Or Moorgate"},{"icsId":"1008515","id":"490008515B","lat":51.53609,"lon":-0.10358,"name":"Islington Green","parentId":"490G00008515","stationId":"490G00008515","stopLetter":"B","topMostParentId":"490G00008515","towards":"Barbican, Holborn, Kings Cross Or Moorgate"},{"icsId":"1000007","id":"490000007G","lat":51.53337,"lon":-0.10564,"name":"Angel Station","stopLetter":"G","topMostParentId":"490000007G","towards":"Barbican Or Old Street","zone":"1"},{"icsId":"1018978","id":"490003327H","lat":51.53165,"lon":-0.10474,"name":"Angel Islington / City Road","parentId":"490G00018978","stationId":"490G00018978","stopLetter":"H","topMostParentId":"490G00018978","towards":"Barbican, Hoxton Or Old Street"},{"icsId":"1006309","id":"490006309S","lat":51.5293,"lon":-0.10167,"name":"Hall Street","parentId":"490G00006309","stationId":"490G00006309","stopLetter":"UM","topMostParentId":"490G00006309","towards":"Barbican"},{"icsId":"1015107","id":"490015107S","lat":51.52822,"lon":-0.10078,"name":"City University","parentId":"490G00015107","stationId":"490G00015107","stopLetter":"UN","topMostParentId":"490G00015107","towards":"Barbican"},{"icsId":"1009099","id":"490009099S","lat":51.52713,"lon":-0.1003,"name":"Percival Street","parentId":"490G00009099","stationId":"490G00009099","stopLetter":"UP","topMostParentId":"490G00009099","towards":"Barbican"},{"icsId":"1019192","id":"490010935S","lat":51.52521,"lon":-0.09952,"name":"Pear Tree Street","parentId":"490G00019192","stationId":"490G00019192","stopLetter":"UR","topMostParentId":"490G00019192","towards":"Barbican"},{"icsId":"1015105","id":"490015105S","lat":51.52375,"lon":-0.09887,"name":"Clerkenwell Road","parentId":"490G00015105","stationId":"490G00015105","stopLetter":"BV","topMostParentId":"490G00015105","towards":"Aldwych Or Barts Hospital"},{"icsId":"1003573","id":"490003573S","lat":51.52234,"lon":-0.09746,"name":"Baltic Street West","parentId":"490G00003573","stationId":"490G00003573","stopLetter":"BP","topMostParentId":"490G00003573","towards":"Aldwych, Moorgate Or St Barts Hospital"},{"icsId":"1000014","id":"490000014B","lat":51.5209,"lon":-0.09738,"name":"Barbican Station","stopLetter":"BB","topMostParentId":"490000014B","towards":"Aldwych, Moorgate Or St Barts Hospital","zone":"1"},{"icsId":"1010130","id":"490010130S","lat":51.51831,"lon":-0.09679,"name":"London Wall","parentId":"490G00010130","stationId":"490G00010130","stopLetter":"BD","topMostParentId":"490G00010130","towards":"Aldwych Or St. Barts Hospital"},{"icsId":"1000225","id":"490000225W","lat":51.51544,"lon":-0.09716,"name":"St Paul's Station","stopLetter":"SW","topMostParentId":"490000225W","towards":"Aldwych Or Blackfriars","zone":"1"},{"icsId":"1010199","id":"490010199E","lat":51.51351,"lon":-0.09626,"name":"New Change / Cannon Street","parentId":"490G000672","stationId":"490G000672","stopLetter":"SM","topMostParentId":"490G000672","towards":"Waterloo, Blackfriars Or London Bridge"},{"icsId":"1016494","id":"490016494W","lat":51.51178,"lon":-0.09797,"name":"Millennium Bridge","parentId":"490G00016494","stationId":"490G00016494","stopLetter":"SF","topMostParentId":"490G00016494","towards":"Blackfriars"},{"icsId":"1000023","id":"490000023BB","lat":51.51199,"lon":-0.10289,"name":"Blackfriars Station","stopLetter":"B","topMostParentId":"490000023BB","zone":"1"}]}]}