{"direction":"outbound","lineId":"401","lineName":"401","mode":"bus","stopPointSequences":[{"stopPoint":[{"icsId":"1013214","id":"490013214A","lat":51.50743,"lon":0.10897,"name":"Thamesmead Town Centre","parentId":"490G00013214","stationId":"490G00013214","stopLetter":"A","topMostParentId":"490G00013214","towards":"Abbey Wood, Belvedere Or Woolwich"},{"icsId":"1009198","id":"490009198D","lat":51.50747,"lon":0.11276,"name":"Linton Mead Primary School","parentId":"490G00009198","stationId":"490G00009198","stopLetter":"D","topMostParentId":"490G00009198","towards":"Abbey Wood, Belvedere Or Woolwich"},{"icsId":"1008405","id":"490008405E","lat":51.50932,"lon":0.11638,"name":"Hoveton Road","parentId":"490G00008405","stationId":"490G00008405","topMostParentId":"490G00008405","towards":"Abbey Wood, Belvedere Or Woolwich"},{"icsId":"1010268","id":"490010268E","lat":51.50952,"lon":0.12006,"name":"Nickelby Close","parentId":"490G00010268","stationId":"490G00010268","stopLetter":"NE","topMostParentId":"490G00010268","towards":"Abbey Wood, Belvedere Or Woolwich"},{"icsId":"1006355","id":"490006355S","lat":51.50899,"lon":0.12618,"name":"Eastgate Close","parentId":"490G00006355","stationId":"490G00006355","stopLetter":"NG","topMostParentId":"490G00006355","towards":"Abbey Wood, Belvedere Or Woolwich"},{"icsId":"1009206","id":"490009206W","lat":51.50665,"lon":0.1266,"name":"Lister Walk","parentId":"490G00009206","stationId":"490G00009206","stopLetter":"NH","topMostParentId":"490G00009206","towards":"Abbey Wood, Belvedere Or Woolwich"},{"icsId":"1011113","id":"490011113W","lat":51.50606,"lon":0.12137,"name":"Poplar Place","parentId":"490G00011113","stationId":"490G00011113","stopLetter":"SE","topMostParentId":"490G00011113","towards":"Abbey Wood, Belvedere Or Woolwich"},{"icsId":"1004130","id":"490004130S","lat":51.50373,"lon":0.1192,"name":"Thamesmead / Carlyle Road","parentId":"490G00004130","stationId":"490G00004130","stopLetter":"SJ","topMostParentId":"490G00004130","towards":"Abbey Wood Or Belvedere"},{"icsId":"1010190","id":"490010190S","lat":51.49873,"lon":0.12165,"name":"Southmere Lake","parentId":"490G00010190","stationId":"490G00010190","stopLetter":"->S","topMostParentId":"490G00010190","towards":"Erith Or Plumstead"},{"icsId":"1014990","id":"490014990E","lat":51.49642,"lon":0.12359,"name":"Yarnton Way / Harrow Manorway","parentId":"490G00014990","stationId":"490G00014990","stopLetter":"T","topMostParentId":"490G00014990","towards":"Thamesmead East"},{"icsId":"1009166","id":"490009166E","lat":51.49646,"lon":0.12899,"name":"Limestone Walk","parentId":"490G00009166","stationId":"490G00009166","stopLetter":"->E","topMostParentId":"490G00009166","towards":"Thamesmead East"},{"icsId":"1013211","id":"490013211E","lat":51.49544,"lon":0.13381,"name":"Harris Garrard Academy","parentId":"490G00013211","stationId":"490G00013211","stopLetter":"->E","topMostParentId":"490G00013211","towards":"Thamesmead East"},{"icsId":"1010432","id":"490010432E","lat":51.49394,"lon":0.13848,"name":"Northwood Place","parentId":"490G00010432","stationId":"490G00010432","stopLetter":"->E","topMostParentId":"490G00010432","towards":"Belvedere"},{"icsId":"1009042","id":"490009042E","lat":51.49419,"lon":0.14213,"name":"Thames Innovation Centre","parentId":"490G00009042","stationId":"490G00009042","stopLetter":"->E","topMostParentId":"490G00009042","towards":"Belvedere"},{"icsId":"1007643","id":"490007643E","lat":51.49439,"lon":0.15028,"name":"Hailey Road","parentId":"490G00007643","stationId":"490G00007643","stopLetter":"->E","topMostParentId":"490G00007643","towards":"Bexleyheath"},{"icsId":"1010308","id":"490010308N","lat":51.49579,"lon":0.15288,"name":"Yarnton Way / Norman Road","parentId":"490G00010308","stationId":"490G00010308","stopLetter":"->N","topMostParentId":"490G00010308","towards":"Belvedere"},{"icsId":"1006343","id":"490006343E","lat":51.49813,"lon":0.1565,"name":"Picardy Manorway / Eastern Way","parentId":"490G00006343","stationId":"490G00006343","stopLetter":"->E","topMostParentId":"490G00006343","towards":"Bexleyheath"},{"icsId":"1015147","id":"490015147D","lat":51.49138,"lon":0.15587,"name":"Picardy Manorway / Belvedere Station","parentId":"490G00015147","stationId":"490G00015147","stopLetter":"F","topMostParentId":"490G00015147","towards":"Bexleyheath"},{"icsId":"1003880","id":"490003880A","lat":51.49061,"lon":0.15229,"name":"Lower Road / Belvedere Station","parentId":"490G00003880","stationId":"490G00003880","stopLetter":"H","topMostParentId":"490G00003880","towards":"Abbey Wood Or Bexleyheath"},{"icsId":"1007689","id":"490007689S","lat":51.48788,"lon":0.14971,"name":"Halt Robin Road","parentId":"490G00007689","stationId":"490G00007689","stopLetter":"L","topMostParentId":"490G00007689","towards":"Abbey Wood Or Bexleyheath"},{"icsId":"1003882","id":"490003882S","lat":51.48482,"lon":0.14849,"name":"Eardley Road","parentId":"490G00003882","stationId":"490G00003882","stopLetter":"M","topMostParentId":"490G00003882","towards":"Abbey Wood Or Bexleyheath"},{"icsId":"1003247","id":"490003247S","lat":51.48339,"lon":0.1474,"name":"All Saints Church","parentId":"490G00003247","stationId":"490G00003247","stopLetter":"N","topMostParentId":"490G00003247","towards":"Bexleyheath"},{"icsId":"1012593","id":"490012593S","lat":51.48187,"lon":0.14538,"name":"Stapley Road","parentId":"490G00012593","stationId":"490G00012593","stopLetter":"->S","topMostParentId":"490G00012593","towards":"Bexleyheath"},{"icsId":"1006210","id":"490006206S","lat":51.47958,"lon":0.14349,"name":"Nuxley Road / Dryhill Road","parentId":"490G00006210","stationId":"490G00006210","stopLetter":"->S","topMostParentId":"490G00006210","towards":"Bexleyheath"},{"icsId":"1010860","id":"490010860N1","lat":51.47762,"lon":0.1453,"name":"Parsonage Manorway","parentId":"490G00010860","stationId":"490G00010860","stopLetter":"->S","topMostParentId":"490G00010860","towards":"Bexleyheath"},{"icsId":"1009217","id":"490009217S","lat":51.47323,"lon":0.14533,"name":"Little Heath Road","parentId":"490G00009217","stationId":"490G00009217","stopLetter":"->S","topMostParentId":"490G00009217","towards":"Bexleyheath"},{"icsId":"1008292","id":"490008292S","lat":51.47081,"lon":0.14488,"name":"Hollingbourne Avenue","parentId":"490G00008292","stationId":"490G00008292","stopLetter":"->S","topMostParentId":"490G00008292","towards":"Bexleyheath"},{"icsId":"1003802","id":"490009326S","lat":51.46845,"lon":0.14282,"name":"Bedonwell Road / Long Lane","parentId":"490G00003802","stationId":"490G00003802","stopLetter":"->S","topMostParentId":"490G00003802","towards":"Bexleyheath"},{"icsId":"1008116","id":"490008116E","lat":51.4661,"lon":0.14592,"name":"Heversham Road","parentId":"490G00008116","stationId":"490G00008116","stopLetter":"->E","topMostParentId":"490G00008116","towards":"Bexleyheath"},{"icsId":"1014931","id":"490014931S","lat":51.46374,"lon":0.14914,"name":"Woolwich Road / Long Lane","parentId":"490G00014931","stationId":"490G00014931","stopLetter":"NC","topMostParentId":"490G00014931","towards":"Bexleyheath"},{"icsId":"1010459","id":"490010459S","lat":51.46226,"lon":0.14783,"name":"Garden Avenue","parentId":"490G00010459","stationId":"490G00010459","stopLetter":"ND","topMostParentId":"490G00010459","towards":"Bexleyheath"},{"icsId":"1010890","id":"490010890S","lat":51.45916,"lon":0.14636,"name":"Pelham Road","parentId":"490G00010890","stationId":"490G00010890","stopLetter":"NE","topMostParentId":"490G00010890","towards":"Bexleyheath"},{"icsId":"1003975","id":"490003975M","lat":51.45648,"lon":0.14643,"name":"Bexleyheath Clock Tower","parentId":"490G00003975","stationId":"490G00003975","stopLetter":"M","topMostParentId":"490G00003975","towards":"Sidcup, Welling Or Bexleyheath Station"}]}]}