{"direction":"outbound","lineId":"405","lineName":"405","mode":"bus","stopPointSequences":[{"stopPoint":[{"icsId":"1011482","id":"40004409222D","lat":51.240823,"lon":-0.166534,"name":"Redhill Bus Station","parentId":"400G4409222A","stationId":"400G4409222A","stopLetter":"1","topMostParentId":"910GREDHILL"},{"icsId":"1007014","id":"40004409175A","lat":51.244557,"lon":-0.167231,"name":"Linkfield Lane","topMostParentId":"40004409175A"},{"icsId":"1004803","id":"40004409175C","lat":51.247476,"lon":-0.166427,"name":"Carlton Road","parentId":"400G4409175C","stationId":"400G4409175C","topMostParentId":"400G4409175C","towards":"Merstham"},{"icsId":"1009987","id":"40004409188A","lat":51.249356,"lon":-0.165894,"name":"Monson Road","parentId":"400G4409188B","stationId":"400G4409188B","topMostParentId":"400G4409188B","towards":"Merstham"},{"icsId":"1015963","id":"40004409334A","lat":51.250807,"lon":-0.165535,"name":"Victoria Almshouses","parentId":"400G4409334A","stationId":"400G4409334A","topMostParentId":"400G4409334A","towards":"Merstham"},{"icsId":"1007143","id":"40004409191A","lat":51.253107,"lon":-0.164842,"name":"Gatton Point / East Surrey College","parentId":"400G4409191A","stationId":"400G4409191A","stopLetter":"C3","topMostParentId":"400G4409191A","towards":"Hooley"},{"icsId":"1011625","id":"40004409192A","lat":51.256424,"lon":-0.159035,"name":"Rocky Lane","parentId":"400G4409192B","stationId":"400G4409192B","topMostParentId":"400G4409192B","towards":"Hooley Or Caterham"},{"icsId":"1009829","id":"40004409193A","lat":51.25928,"lon":-0.155939,"name":"Merstham / the Grove","parentId":"400G4409193A","stationId":"400G4409193A","topMostParentId":"400G4409193A","towards":"Hooley Or Caterham"},{"icsId":"1009828","id":"40004409194A","lat":51.264092,"lon":-0.152579,"name":"Merstham Station","topMostParentId":"40004409194A","towards":"Hooley Or Caterham"},{"icsId":"1005264","id":"40004409195A","lat":51.269393,"lon":-0.15109,"name":"Church Hill","parentId":"400G4409195A","stationId":"400G4409195A","topMostParentId":"400G4409195A","towards":"Hooley Or Caterham"},{"icsId":"1012070","id":"40004409196A","lat":51.272379,"lon":-0.151687,"name":"London Road North / Shepherds Hill","parentId":"400G4409196A","stationId":"400G4409196A","topMostParentId":"400G4409196A","towards":"Hooley Or Caterham"},{"icsId":"1007833","id":"40004409197A","lat":51.274509,"lon":-0.156161,"name":"Harps Oak Lane","parentId":"400G4409197A","stationId":"400G4409197A","topMostParentId":"400G4409197A","towards":"Coulsdon"},{"icsId":"1007217","id":"40004409318A","lat":51.282068,"lon":-0.157063,"name":"Glebe Road","topMostParentId":"40004409318A","towards":"Coulsdon"},{"icsId":"1005273","id":"40004409199A","lat":51.289019,"lon":-0.155336,"name":"Church Lane","parentId":"400G4409199A","stationId":"400G4409199A","topMostParentId":"400G4409199A","towards":"Coulsdon"},{"icsId":"1008342","id":"40004409200A","lat":51.292216,"lon":-0.154462,"name":"Hooley / Star Lane","parentId":"400G4409200A","stationId":"400G4409200A","topMostParentId":"400G4409200A","towards":"Coulsdon"},{"icsId":"1011179","id":"40004409201A","lat":51.296793,"lon":-0.152729,"name":"Netherne Drive","parentId":"400G4409201A","stationId":"400G4409201A","topMostParentId":"400G4409201A","towards":"Coulsdon"},{"icsId":"1014843","id":"490014843N","lat":51.30408,"lon":-0.14855,"name":"Woodfield Hill","parentId":"490G00014843","stationId":"490G00014843","stopLetter":"->N","topMostParentId":"490G00014843","towards":"Purley"},{"icsId":"1014892","id":"490014892N","lat":51.30821,"lon":-0.14606,"name":"Woodplace Lane","parentId":"490G00014892","stationId":"490G00014892","stopLetter":"->N","topMostParentId":"490G00014892","towards":"Purley"},{"icsId":"1007887","id":"490007887N","lat":51.31111,"lon":-0.14448,"name":"Harwoods Garage","parentId":"490G00007887","stationId":"490G00007887","stopLetter":"->N","topMostParentId":"490G00007887","towards":"Purley"},{"icsId":"1001072","id":"490001072F","lat":51.31544,"lon":-0.13865,"name":"Coulsdon South Station","stopLetter":"F","topMostParentId":"490001072F","towards":"Purley"},{"icsId":"1005640","id":"490005640G","lat":51.31962,"lon":-0.13915,"name":"Coulsdon Library","parentId":"490G00005640","stationId":"490G00005640","stopLetter":"G","topMostParentId":"490G00005640","towards":"Purley Or The Mount"},{"icsId":"1001253","id":"490005637N1","lat":51.32145,"lon":-0.13757,"name":"Coulsdon Town Station","stopLetter":"J","topMostParentId":"490005637N1","towards":"Purley Or the Mount"},{"icsId":"1005657","id":"490001253A","lat":51.32279,"lon":-0.13584,"name":"The Avenue","parentId":"490G00005657","stationId":"490G00005657","stopLetter":"A","topMostParentId":"490G00005657","towards":"Purley"},{"icsId":"1014704","id":"490014704N","lat":51.32374,"lon":-0.13447,"name":"Willow Court","parentId":"490G00014704","stationId":"490G00014704","stopLetter":"RA","topMostParentId":"490G00014704","towards":"Purley"},{"icsId":"1015438","id":"490012207N","lat":51.32706,"lon":-0.12961,"name":"Smitham Downs Road","parentId":"490G00015438","stationId":"490G00015438","stopLetter":"RB","topMostParentId":"490G00015438","towards":"South Croydon"},{"icsId":"1010565","id":"490010565C","lat":51.33085,"lon":-0.12549,"name":"Brighton Road / Old Lodge Lane","parentId":"490G000687","stationId":"490G000687","stopLetter":"RC","topMostParentId":"490G000687","towards":"South Croydon"},{"icsId":"1007560","id":"490007560N","lat":51.33315,"lon":-0.1231,"name":"Grovelands Road","parentId":"490G00007560","stationId":"490G00007560","stopLetter":"RD","topMostParentId":"490G00007560","towards":"Croydon"},{"icsId":"1011274","id":"490011274W","lat":51.33709,"lon":-0.11882,"name":"Purley Tesco","parentId":"490G000716","stationId":"490G000716","stopLetter":"W","topMostParentId":"490G000716","towards":"South Croydon"},{"icsId":"1011272","id":"490011272Y","lat":51.33868,"lon":-0.11835,"name":"Purley Library","parentId":"490G00011272","stationId":"490G00011272","stopLetter":"Y","topMostParentId":"490G00011272","towards":"South Croydon, Waddon Or Wallington"},{"icsId":"1011271","id":"490011271E","lat":51.34053,"lon":-0.11614,"name":"Purley Hospital","parentId":"490G00011271","stationId":"490G00011271","stopLetter":"PA","topMostParentId":"490G00011271","towards":"South Croydon"},{"icsId":"1014983","id":"490014983N","lat":51.34388,"lon":-0.11197,"name":"Wyvern Road","parentId":"490G00014983","stationId":"490G00014983","stopLetter":"PB","topMostParentId":"490G00014983","towards":"South Croydon"},{"icsId":"1009479","id":"490009479N","lat":51.34746,"lon":-0.1104,"name":"Lynscott Way","parentId":"490G00009479","stationId":"490G00009479","topMostParentId":"490G00009479","towards":"South Croydon"},{"icsId":"1004062","id":"490004062N","lat":51.35019,"lon":-0.10744,"name":"Blackford Close","parentId":"490G00004062","stationId":"490G00004062","stopLetter":"->N","topMostParentId":"490G00004062","towards":"South Croydon"},{"icsId":"1011517","id":"490011517N","lat":51.35346,"lon":-0.1062,"name":"Regina Coeli School","parentId":"490G00011517","stationId":"490G00011517","stopLetter":"->N","topMostParentId":"490G00011517","towards":"South Croydon"},{"icsId":"1012576","id":"490012625N","lat":51.35568,"lon":-0.10565,"name":"St Giles School","parentId":"490G00012576","stationId":"490G00012576","stopLetter":"GV","topMostParentId":"490G00012576","towards":"West Croydon"},{"icsId":"1007669","id":"490007669N","lat":51.3582,"lon":-0.1065,"name":"Haling Park Gardens","parentId":"490G00007669","stationId":"490G00007669","stopLetter":"GW","topMostParentId":"490G00007669","towards":"West Croydon"},{"icsId":"1019114","id":"490004239N","lat":51.36161,"lon":-0.1063,"name":"Whitgift Avenue","parentId":"490G00019114","stationId":"490G00019114","topMostParentId":"490G00019114","towards":"West Croydon"},{"icsId":"1005853","id":"490005853E","lat":51.363,"lon":-0.10338,"name":"Croydon Bowling Club","parentId":"490G00005853","stationId":"490G00005853","stopLetter":"->E","topMostParentId":"490G00005853","towards":"East Croydon Or West Croydon"},{"icsId":"1013101","id":"490013100K","lat":51.36352,"lon":-0.09984,"name":"Warham Road / Brighton Road","parentId":"490G00013101","stationId":"490G00013101","stopLetter":"K","topMostParentId":"490G00013101","towards":"East Croydon Or West Croydon"},{"icsId":"1013100","id":"490015548M","lat":51.36448,"lon":-0.09898,"name":"Swan & Sugar Loaf","parentId":"490G00013100","stationId":"490G00013100","stopLetter":"M","topMostParentId":"490G00013100","towards":"East Croydon"},{"icsId":"1005574","id":"490005574V","lat":51.36725,"lon":-0.09908,"name":"Coombe Road","parentId":"490G00005574","stationId":"490G00005574","stopLetter":"V","topMostParentId":"490G00005574","towards":"West Croydon"},{"icsId":"1005855","id":"490005855C1","lat":51.37002,"lon":-0.10002,"name":"Croydon Flyover","parentId":"490G00005855","stationId":"490G00005855","stopLetter":"KS","topMostParentId":"490G00005855","towards":"West Croydon"},{"icsId":"1010839","id":"490010839C4","lat":51.37343,"lon":-0.09822,"name":"Park Street","parentId":"490G00010839","stationId":"490G00010839","stopLetter":"KJ","topMostParentId":"490G00010839","towards":"South Croydon"}]}]}