{"direction":"outbound","lineId":"41","lineName":"41","mode":"bus","stopPointSequences":[{"stopPoint":[{"icsId":"1000008","id":"490000008Z","lat":51.56639,"lon":-0.13514,"name":"Archway Station","stopLetter":"G","topMostParentId":"490000008Z","towards":"Hornsey Rise","zone":"2+3"},{"icsId":"1003363","id":"490003363M","lat":51.56676,"lon":-0.13299,"name":"Archway Road / St John's Way","parentId":"490G00003363","stationId":"490G00003363","stopLetter":"M","topMostParentId":"490G00003363","towards":"Crouch End Or Finsbury Park"},{"icsId":"1005752","id":"490005752N","lat":51.56853,"lon":-0.13123,"name":"Cressida Road","parentId":"490G00005752","stationId":"490G00005752","stopLetter":"Y","topMostParentId":"490G00005752","towards":"Crouch End Or Finsbury Park"},{"icsId":"1013023","id":"490013023N","lat":51.57053,"lon":-0.12795,"name":"Sunnyside Road","parentId":"490G00013023","stationId":"490G00013023","stopLetter":"H","topMostParentId":"490G00013023","towards":"Crouch End Or Finsbury Park"},{"icsId":"1007976","id":"490007971E","lat":51.56975,"lon":-0.12425,"name":"Hornsey Road","parentId":"490G00007976","stationId":"490G00007976","stopLetter":"J","topMostParentId":"490G00007976","towards":"Crouch End"},{"icsId":"1008365","id":"490008365N","lat":51.57149,"lon":-0.12476,"name":"Hornsey Rise","parentId":"490G00008365","stationId":"490G00008365","stopLetter":"K","topMostParentId":"490G00008365","towards":"Crouch End"},{"icsId":"1008360","id":"490008360N","lat":51.57525,"lon":-0.12674,"name":"Hornsey Lane","parentId":"490G00008360","stationId":"490G00008360","stopLetter":"L","topMostParentId":"490G00008360","towards":"Turnpike Lane"},{"icsId":"1006435","id":"490006435CE","lat":51.57726,"lon":-0.12524,"name":"Edison Road","parentId":"490G00006435","stationId":"490G00006435","stopLetter":"CE","topMostParentId":"490G00006435","towards":"Turnpike Lane"},{"icsId":"1005826","id":"490005826CA","lat":51.58038,"lon":-0.12302,"name":"Crouch End Broadway","parentId":"490G00005826","stationId":"490G00005826","stopLetter":"CA","topMostParentId":"490G00005826","towards":"Harringay Or Turnpike Lane"},{"icsId":"1006799","id":"490006799N","lat":51.58232,"lon":-0.11957,"name":"Tottenham Lane Y M C A","parentId":"490G00006799","stationId":"490G00006799","stopLetter":"S","topMostParentId":"490G00006799","towards":"Haringey Sainsburys Or Turnpike Lane"},{"icsId":"1007880","id":"490007880N","lat":51.58396,"lon":-0.11641,"name":"Harvey Road","parentId":"490G00007880","stationId":"490G00007880","stopLetter":"T","topMostParentId":"490G00007880","towards":"Turnpike Lane"},{"icsId":"1005275","id":"490005275E1","lat":51.58805,"lon":-0.11392,"name":"Tottenham Lane","parentId":"490G00005275","stationId":"490G00005275","stopLetter":"D","topMostParentId":"490G00005275","towards":"Turnpike Lane"},{"icsId":"1014665","id":"490014665E","lat":51.58886,"lon":-0.11127,"name":"Wightman Road","parentId":"490G00014665","stationId":"490G00014665","stopLetter":"E","topMostParentId":"490G00014665","towards":"Wood Green Or Tottenham"},{"icsId":"1014668","id":"490000241N","lat":51.58987,"lon":-0.1054,"name":"Wood Green High Road","parentId":"490G000834","stationId":"490G000834","stopLetter":"N","topMostParentId":"490G000834","towards":"Wood Green Or Tottenham"},{"icsId":"1000241","id":"490015475Y","lat":51.58962,"lon":-0.10247,"name":"Turnpike Lane Station","stopLetter":"Y","topMostParentId":"490015475Y","towards":"Tottenham","zone":"3"},{"icsId":"1014713","id":"490014713E","lat":51.58802,"lon":-0.09997,"name":"Willow Walk","parentId":"490G00014713","stationId":"490G00014713","stopLetter":"W","topMostParentId":"490G00014713","towards":"Tottenham"},{"icsId":"1012557","id":"490012557E","lat":51.58706,"lon":-0.09741,"name":"Stanley Road","parentId":"490G00012557","stationId":"490G00012557","stopLetter":"A","topMostParentId":"490G00012557","towards":"Tottenham"},{"icsId":"1014464","id":"490014464E","lat":51.58613,"lon":-0.09231,"name":"West Green Primary School","parentId":"490G00014464","stationId":"490G00014464","stopLetter":"B","topMostParentId":"490G00014464","towards":"Tottenham"},{"icsId":"1010982","id":"490010982E","lat":51.58636,"lon":-0.08727,"name":"Philip Lane","parentId":"490G00010982","stationId":"490G00010982","stopLetter":"D","topMostParentId":"490G00010982","towards":"Tottenham"},{"icsId":"1003502","id":"490003502E","lat":51.58546,"lon":-0.08305,"name":"West Green Baptist Church","parentId":"490G00003502","stationId":"490G00003502","stopLetter":"J","topMostParentId":"490G00003502","towards":"Tottenham Hale"},{"icsId":"1009023","id":"490009023E","lat":51.58524,"lon":-0.07929,"name":"Bedford Road","parentId":"490G00009023","stationId":"490G00009023","stopLetter":"K","topMostParentId":"490G00009023","towards":"Tottenham Hale"},{"icsId":"1000201","id":"490000201D","lat":51.58398,"lon":-0.07302,"name":"Seven Sisters Station","stopLetter":"F","topMostParentId":"490000201D","towards":"Tottenham Hale","zone":"3"},{"icsId":"1012531","id":"490012525R","lat":51.58463,"lon":-0.06706,"name":"Antill Road","stopLetter":"N","topMostParentId":"490012525R","towards":"Tottenham Hale Station"},{"icsId":"1020141","id":"49000020141Q","lat":51.58571,"lon":-0.06404,"name":"Fountayne Business Centre","parentId":"490G00020141","stationId":"490G00020141","stopLetter":"Q","topMostParentId":"490G00020141","towards":"Tottenham Hale Station"},{"icsId":"1013729","id":"490013729O","lat":51.58756,"lon":-0.06371,"name":"Tottenham Hale Retail Park","parentId":"490G000802","stationId":"490G000802","stopLetter":"O","topMostParentId":"490G000802","towards":"Ferry Lane Estate"},{"icsId":"1009917","id":"490009917T","lat":51.58872,"lon":-0.06105,"name":"Tottenham Hale Bus Station","stopLetter":"->S","topMostParentId":"490009917T"}]}]}