{"direction":"outbound","lineId":"413","lineName":"413","mode":"bus","stopPointSequences":[{"stopPoint":[{"icsId":"1013063","id":"490013063E2","lat":51.36977,"lon":-0.19825,"name":"Sutton Bus Garage","parentId":"490G00013063","stationId":"490G00013063","stopLetter":"->E","topMostParentId":"490G00013063","towards":"Belmont, Cheam Or West Sutton"},{"icsId":"1013072","id":"490013072B","lat":51.3698,"lon":-0.19493,"name":"Sutton Green","parentId":"490G00013072","stationId":"490G00013072","stopLetter":"B","topMostParentId":"490G00013072","towards":"Belmont, Carshalton Beeches Or Cheam"},{"icsId":"1013062","id":"490013062C","lat":51.36787,"lon":-0.19497,"name":"High Street / Marshalls Road","parentId":"490G00013062","stationId":"490G00013062","stopLetter":"C","topMostParentId":"490G00013062","towards":"Belmont, Cheam Or West Sutton"},{"icsId":"1003892","id":"490003892E","lat":51.36717,"lon":-0.19331,"name":"Benhill Avenue","parentId":"490G00003892","stationId":"490G00003892","stopLetter":"E","topMostParentId":"490G00003892","towards":"Belmont Or North Cheam"},{"icsId":"1009575","id":"490009575I","lat":51.36548,"lon":-0.19268,"name":"Manor Place","parentId":"490G00009575","stationId":"490G00009575","stopLetter":"I","topMostParentId":"490G00009575","towards":"Belmont, Carshalton Or North Cheam"},{"icsId":"1013679","id":"490013679J","lat":51.36374,"lon":-0.1919,"name":"Times Square","parentId":"490G00013679","stationId":"490G00013679","stopLetter":"J","topMostParentId":"490G00013679","towards":"Belmont, Carshalton Or North Cheam"},{"icsId":"1013081","id":"490013081K","lat":51.36165,"lon":-0.19069,"name":"Sutton Police Station","parentId":"490G00013081","stationId":"490G00013081","stopLetter":"K","topMostParentId":"490G00013081","towards":"Belmont, Carshalton Or North Cheam"},{"icsId":"1013082","id":"490013082S","lat":51.35996,"lon":-0.19308,"name":"Sutton / Grove Road","parentId":"490G00013082","stationId":"490G00013082","stopLetter":"S","topMostParentId":"490G00013082","towards":"Cheam Or West Sutton"},{"icsId":"1013080","id":"490013080T","lat":51.36074,"lon":-0.19539,"name":"Sutton Park Road","parentId":"490G00013080","stationId":"490G00013080","stopLetter":"T","topMostParentId":"490G00013080","towards":"Cheam Or West Sutton"},{"icsId":"1012085","id":"490012085W","lat":51.36097,"lon":-0.19923,"name":"Sherwood Park Road","parentId":"490G00012085","stationId":"490G00012085","stopLetter":"F","topMostParentId":"490G00012085","towards":"Cheam Or West Sutton"},{"icsId":"1007103","id":"490005060W","lat":51.36004,"lon":-0.20441,"name":"Cheam Road / Gander Green Lane","parentId":"490G00007103","stationId":"490G00007103","stopLetter":"E","topMostParentId":"490G00007103","towards":"Cheam Or West Sutton"},{"icsId":"1001333","id":"490001333N","lat":51.36641,"lon":-0.20578,"name":"West Sutton Station","stopLetter":"A","topMostParentId":"490001333N","towards":"Lower Morden"},{"icsId":"1016059","id":"490016059W1","lat":51.37841,"lon":-0.2193,"name":"London Road / St Anthony's Hospital","parentId":"490G00016059","stationId":"490G00016059","stopLetter":"HV","topMostParentId":"490G00016059","towards":"Lower Morden"},{"icsId":"1019848","id":"490007130N","lat":51.38096,"lon":-0.21726,"name":"Stonecot Hill / Garth Road","parentId":"490G00019848","stationId":"490G00019848","stopLetter":"HM","topMostParentId":"490G00019848","towards":"Morden Or Lower Morden"},{"icsId":"1004596","id":"490004596N","lat":51.38334,"lon":-0.21453,"name":"Burleigh Road","parentId":"490G00004596","stationId":"490G00004596","stopLetter":"SK","topMostParentId":"490G00004596","towards":"Morden Or Lower Morden"},{"icsId":"1013625","id":"490013608N2","lat":51.38518,"lon":-0.21226,"name":"Sutton Common Road","parentId":"490G00013625","stationId":"490G00013625","stopLetter":"SL","topMostParentId":"490G00013625","towards":"Morden Or Lower Morden"},{"icsId":"1008751","id":"490008751W","lat":51.38762,"lon":-0.21463,"name":"King George's Field","parentId":"490G00008751","stationId":"490G00008751","stopLetter":"TM","topMostParentId":"490G00008751","towards":"South Merton"},{"icsId":"1013830","id":"490013830W","lat":51.389,"lon":-0.2185,"name":"Aragon School","parentId":"490G00013830","stationId":"490G00013830","stopLetter":"TN","topMostParentId":"490G00013830","towards":"South Merton"},{"icsId":"1009425","id":"490009424N","lat":51.39052,"lon":-0.2224,"name":"Morden Park Baptist Church","parentId":"490G00009425","stationId":"490G00009425","stopLetter":"TP","topMostParentId":"490G00009425","towards":"South Merton"},{"icsId":"1013262","id":"490013262N","lat":51.39231,"lon":-0.22328,"name":"Queen Mary Avenue","parentId":"490G00013262","stationId":"490G00013262","stopLetter":"GN","topMostParentId":"490G00013262","towards":"Raynes Park Or South Merton"},{"icsId":"1004754","id":"490004754N","lat":51.39405,"lon":-0.22501,"name":"St John Fisher School","parentId":"490G00004754","stationId":"490G00004754","stopLetter":"GP","topMostParentId":"490G00004754","towards":"Raynes Park Or South Merton"},{"icsId":"1011316","id":"490011316E","lat":51.39519,"lon":-0.22464,"name":"Glenthorpe Road","parentId":"490G00011316","stationId":"490G00011316","stopLetter":"CT","topMostParentId":"490G00011316","towards":"Morden"},{"icsId":"1010849","id":"490010849N","lat":51.39727,"lon":-0.2205,"name":"Parkway","parentId":"490G00010849","stationId":"490G00010849","stopLetter":"CW","topMostParentId":"490G00010849","towards":"Morden"},{"icsId":"1005100","id":"490005100N","lat":51.40194,"lon":-0.21692,"name":"Cherrywood Lane","parentId":"490G00005100","stationId":"490G00005100","stopLetter":"J","topMostParentId":"490G00005100","towards":"Morden"},{"icsId":"1004753","id":"490004753E","lat":51.4037,"lon":-0.21325,"name":"St James Church","parentId":"490G00004753","stationId":"490G00004753","stopLetter":"K","topMostParentId":"490G00004753","towards":"Rosehill"},{"icsId":"1003446","id":"490003446E","lat":51.4029,"lon":-0.20978,"name":"Ashridge Way","parentId":"490G00003446","stationId":"490G00003446","stopLetter":"L","topMostParentId":"490G00003446","towards":"Rosehill"},{"icsId":"1001262","id":"490001262A","lat":51.40281,"lon":-0.20539,"name":"South Merton Station","stopLetter":"M","topMostParentId":"490001262A","towards":"Rosehill"},{"icsId":"1009187","id":"490011115E","lat":51.40189,"lon":-0.2005,"name":"Links Avenue","parentId":"490G00009187","stationId":"490G00009187","stopLetter":"N","topMostParentId":"490G00009187","towards":"Rosehill"},{"icsId":"1000151","id":"490000151K","lat":51.40189,"lon":-0.19557,"name":"Morden Station","stopLetter":"M","topMostParentId":"490000151K","zone":"4"}]}]}