{"direction":"outbound","lineId":"414","lineName":"414","mode":"bus","stopPointSequences":[{"stopPoint":[{"icsId":"1000184","id":"490000184Y","lat":51.46817,"lon":-0.20902,"name":"Putney Bridge Station","stopLetter":"FB","topMostParentId":"490000184Y","towards":"Fulham Road Or Roehampton","zone":"2"},{"icsId":"1008436","id":"490007051N","lat":51.471,"lon":-0.2111,"name":"Fulham High Street","parentId":"490G00008436","stationId":"490G00008436","stopLetter":"FJ","topMostParentId":"490G00008436","towards":"Fulham, Earls Court Or Hammersmith"},{"icsId":"1007054","id":"490007054E","lat":51.47195,"lon":-0.21062,"name":"Fulham Palace Road","parentId":"490G00007054","stationId":"490G00007054","stopLetter":"FP","topMostParentId":"490G00007054","towards":"Fulham Broadway"},{"icsId":"1010123","id":"490010123E2","lat":51.47392,"lon":-0.20749,"name":"Munster Road","parentId":"490G00010123","stationId":"490G00010123","stopLetter":"FR","topMostParentId":"490G00010123","towards":"Fulham Broadway"},{"icsId":"1011385","id":"490011385E","lat":51.47637,"lon":-0.20457,"name":"Radipole Road","parentId":"490G00011385","stationId":"490G00011385","stopLetter":"S","topMostParentId":"490G00011385","towards":"South Kensington Or Sands End"},{"icsId":"1010861","id":"490010861T","lat":51.47773,"lon":-0.20162,"name":"Parsons Green Lane / Fulham Library","parentId":"490G000699","stationId":"490G000699","stopLetter":"T","topMostParentId":"940GZZLUPSG","towards":"Sands End Or South Kensington"},{"icsId":"1000352","id":"490008547E","lat":51.48022,"lon":-0.19844,"name":"Fulham Broadway","parentId":"490G00000352","stationId":"490G00000352","stopLetter":"E","topMostParentId":"490G00000352","towards":"South Kensington, Sands End Or Wandsworth"},{"icsId":"1000084","id":"490000084L","lat":51.48029,"lon":-0.19448,"name":"Fulham Broadway Station","stopLetter":"L","topMostParentId":"490000084L","towards":"Chelsea Or South Kensington","zone":"2"},{"icsId":"1005075","id":"490005075E","lat":51.48034,"lon":-0.19253,"name":"Chelsea Village","parentId":"490G00005075","stationId":"490G00005075","stopLetter":"U","topMostParentId":"490G00005075","towards":"Chelsea Or South Kensington"},{"icsId":"1005069","id":"490005069E","lat":51.48018,"lon":-0.19002,"name":"Chelsea Football Club","parentId":"490G00005069","stationId":"490G00005069","stopLetter":"V","topMostParentId":"490G00005069","towards":"Chelsea Or South Kensington"},{"icsId":"1008380","id":"490008380HD","lat":51.48227,"lon":-0.18694,"name":"Hortensia Road","parentId":"490G00008380","stationId":"490G00008380","stopLetter":"HD","topMostParentId":"490G00008380","towards":"South Kensington Or Sloane Square"},{"icsId":"1006437","id":"490006437HE","lat":51.48379,"lon":-0.18489,"name":"Edith Grove","parentId":"490G00006437","stationId":"490G00006437","stopLetter":"HE","topMostParentId":"490G00006437","towards":"Sloane Square Or South Kensington"},{"icsId":"1005062","id":"490005062HF","lat":51.48515,"lon":-0.18249,"name":"Chelsea and Westminster Hospital","parentId":"490G00005062","stationId":"490G00005062","stopLetter":"HF","topMostParentId":"490G00005062","towards":"Sloane Square Or South Kensington"},{"icsId":"1003726","id":"490003726E","lat":51.48756,"lon":-0.17855,"name":"Fulham Road / Beaufort Street","parentId":"490G00003726","stationId":"490G00003726","stopLetter":"HH","topMostParentId":"490G00003726","towards":"Sloane Square Or South Kensington"},{"icsId":"1006514","id":"490006514N","lat":51.48911,"lon":-0.17615,"name":"Old Church Street","parentId":"490G00006514","stationId":"490G00006514","stopLetter":"HJ","topMostParentId":"490G00006514","towards":"South Kensington Or Sloane Square"},{"icsId":"1015421","id":"490015421E","lat":51.49072,"lon":-0.17373,"name":"Royal Brompton Hosp / Royal Marsden Hosp","parentId":"490G00015421","stationId":"490G00015421","stopLetter":"HM","topMostParentId":"490G00015421","towards":"Hyde Park Corner Or Sloane Square"},{"icsId":"1010603","id":"490010603N","lat":51.49227,"lon":-0.17227,"name":"Onslow Square","parentId":"490G00010603","stationId":"490G00010603","stopLetter":"HT","topMostParentId":"490G00010603","towards":"Hyde Park Corner Or Kensington High Street"},{"icsId":"1015173","id":"490015173D","lat":51.49345,"lon":-0.17375,"name":"Sth Kensington Stn  / Old Brompton Rd","parentId":"490G000866","stationId":"490G000866","stopLetter":"B","topMostParentId":"940GZZLUSKS","towards":"Hyde Park Corner Or Kensington High Street"},{"icsId":"1000212","id":"490000212E","lat":51.49446,"lon":-0.17481,"name":"South Kensington Station","stopLetter":"E","topMostParentId":"490000212E","towards":"Knightsbridge Or Royal Albert Hall","zone":"1"},{"icsId":"1004436","id":"490004436C","lat":51.49623,"lon":-0.17088,"name":"Victoria and Albert Museum","parentId":"490G00004436","stationId":"490G00004436","stopLetter":"M","topMostParentId":"490G00004436","towards":"Hyde Park Corner Or Sloane Square"},{"icsId":"1004437","id":"490004437E","lat":51.49777,"lon":-0.16731,"name":"Brompton Square","parentId":"490G00004437","stationId":"490G00004437","stopLetter":"KW","topMostParentId":"490G00004437","towards":"Sloane Square Or Hyde Park Corner"},{"icsId":"1007841","id":"490007841KB","lat":51.49941,"lon":-0.16427,"name":"Harrods","parentId":"490G00007841","stationId":"490G00007841","stopLetter":"KB","topMostParentId":"490G00007841","towards":"Hyde Park Corner Or Sloane Square"},{"icsId":"1000130","id":"490000130KD","lat":51.50073,"lon":-0.16233,"name":"Knightsbridge Station","stopLetter":"KD","topMostParentId":"490000130KD","towards":"Hyde Park Corner Or Sloane Square","zone":"1"},{"icsId":"1000119","id":"490000119W","lat":51.50304,"lon":-0.15316,"name":"Hyde Park Corner Station","stopLetter":"W","topMostParentId":"490000119W","towards":"Marble Arch","zone":"1"},{"icsId":"1009277","id":"490009277Y","lat":51.50509,"lon":-0.15211,"name":"London Hilton Hotel","parentId":"490G00009277","stationId":"490G00009277","stopLetter":"Y","topMostParentId":"490G00009277","towards":"Marble Arch"},{"icsId":"1006111","id":"490006111N2","lat":51.5083,"lon":-0.15479,"name":"Dorchester Hotel","parentId":"490G00006111","stationId":"490G00006111","stopLetter":"T","topMostParentId":"490G00006111","towards":"Baker Street, Edgware Road Or Oxford Circus"},{"icsId":"1000144","id":"490000144W","lat":51.51161,"lon":-0.15835,"name":"Marble Arch","stopLetter":"W","topMostParentId":"490000144W","towards":"Baker Street, Edgware Road Or Oxford Circus","zone":"1"}]}]}