{"direction":"outbound","lineId":"417","lineName":"417","mode":"bus","stopPointSequences":[{"stopPoint":[{"icsId":"1005879","id":"490005869D","lat":51.42043,"lon":-0.07808,"name":"Crystal Palace Bus Station","parentId":"490G00005879","stationId":"490G00005879","stopLetter":"D","topMostParentId":"490G00005879","towards":"Herne Hill, Norwood Junction Or Streatham"},{"icsId":"1014510","id":"490014510G","lat":51.41902,"lon":-0.07939,"name":"Westow Hill","parentId":"490G00014510","stationId":"490G00014510","stopLetter":"G","topMostParentId":"490G00014510","towards":"Thornton Heath, Streatham Or West Norwood"},{"icsId":"1015491","id":"490015491H","lat":51.41784,"lon":-0.08217,"name":"Westow Street","parentId":"490G00015491","stationId":"490G00015491","stopLetter":"H","topMostParentId":"490G00015491","towards":"Crown Point Or West Norwood"},{"icsId":"1007191","id":"490007191L","lat":51.41938,"lon":-0.08459,"name":"Gipsy Hill Police Station","parentId":"490G00007191","stationId":"490G00007191","stopLetter":"L","topMostParentId":"490G00007191","towards":"Upper Norwood Or West Norwood"},{"icsId":"1015346","id":"490015346N","lat":51.42031,"lon":-0.08887,"name":"Rockmount Road","parentId":"490G00015346","stationId":"490G00015346","stopLetter":"->N","topMostParentId":"490G00015346","towards":"Upper Norwood Or West Norwood"},{"icsId":"1015338","id":"490015338N","lat":51.42164,"lon":-0.09139,"name":"Hermitage Road","parentId":"490G00015338","stationId":"490G00015338","stopLetter":"H","topMostParentId":"490G00015338","towards":"Streatham Hill, Thornton Heath Or West Norwood"},{"icsId":"1011876","id":"490011876W","lat":51.42276,"lon":-0.09461,"name":"Salter's Hill","parentId":"490G00011876","stationId":"490G00011876","stopLetter":"J","topMostParentId":"490G00011876","towards":"Streatham Hill Or West Norwood"},{"icsId":"1013686","id":"490010452W2","lat":51.42257,"lon":-0.1011,"name":"Tivoli Road","parentId":"490G00013686","stationId":"490G00013686","topMostParentId":"490G00013686","towards":"Streatham Hill"},{"icsId":"1019046","id":"490015314W","lat":51.42278,"lon":-0.10745,"name":"Crown Point","parentId":"490G00019046","stationId":"490G00019046","stopLetter":"CT","topMostParentId":"490G00019046","towards":"Streatham Or Streatham Hill"},{"icsId":"1011837","id":"490011837W","lat":51.42308,"lon":-0.11032,"name":"Ryecroft Road","parentId":"490G00011837","stationId":"490G00011837","stopLetter":"CU","topMostParentId":"490G00011837","towards":"Streatham Or Streatham Hill"},{"icsId":"1009077","id":"490009077W","lat":51.4233,"lon":-0.1135,"name":"Streatham Common North / Leigham Crt Rd","parentId":"490G00009077","stationId":"490G00009077","stopLetter":"CV","topMostParentId":"490G00009077","towards":"Streatham Or Streatham Hill"},{"icsId":"1014789","id":"490014789N","lat":51.42415,"lon":-0.11444,"name":"Leigham Court Road / Streatham Common","parentId":"490G00014789","stationId":"490G00014789","stopLetter":"CC","topMostParentId":"490G00014789","towards":"Streatham Hill"},{"icsId":"1008590","id":"490008590N","lat":51.42773,"lon":-0.11463,"name":"Julian's Primary School","parentId":"490G00008590","stationId":"490G00008590","stopLetter":"CD","topMostParentId":"490G00008590","towards":"Streatham Hill"},{"icsId":"1011620","id":"490011620N","lat":51.43059,"lon":-0.11442,"name":"Rockhampton Road","parentId":"490G00011620","stationId":"490G00011620","stopLetter":"->N","topMostParentId":"490G00011620","towards":"Streatham Hill"},{"icsId":"1012886","id":"490012886W","lat":51.43215,"lon":-0.11614,"name":"St Peters Church","parentId":"490G00012886","stationId":"490G00012886","stopLetter":"->W","topMostParentId":"490G00012886","towards":"Streatham Or Streatham Hill"},{"icsId":"1014017","id":"490013999N","lat":51.43329,"lon":-0.11946,"name":"Valley Road","parentId":"490G00014017","stationId":"490G00014017","stopLetter":"->W","topMostParentId":"490G00014017","towards":"Clapham Common"},{"icsId":"1006259","id":"490006259N","lat":51.43381,"lon":-0.12156,"name":"Dunraven School","parentId":"490G00006259","stationId":"490G00006259","topMostParentId":"490G00006259","towards":"Clapham Common"},{"icsId":"1010076","id":"490010076W","lat":51.43551,"lon":-0.12454,"name":"Mountearl Gardens","parentId":"490G00010076","stationId":"490G00010076","topMostParentId":"490G00010076","towards":"Clapham Common"},{"icsId":"1019942","id":"490001281G","lat":51.43769,"lon":-0.12662,"name":"Leigham Court Rd / Streatham Hill Stn","parentId":"490G000968","stationId":"490G000968","stopLetter":"G","topMostParentId":"490G000968","towards":"Clapham Common"},{"icsId":"1019944","id":"490001281B","lat":51.43919,"lon":-0.12634,"name":"Streatham Hill Stn  / Streatham Hill","parentId":"490G000969","stationId":"490G000969","stopLetter":"B","topMostParentId":"490G000969","towards":"Brixton, Clapham Common Or Tulse Hill"},{"icsId":"1003598","id":"490003598S","lat":51.44078,"lon":-0.12557,"name":"Barrhill Road","parentId":"490G00003598","stationId":"490G00003598","stopLetter":"S","topMostParentId":"490G00003598","towards":"Clapham Common, Brixton Or Tulse Hill"},{"icsId":"1013186","id":"490013186TA","lat":51.44261,"lon":-0.12476,"name":"Telford Avenue","parentId":"490G00013186","stationId":"490G00013186","stopLetter":"TA","topMostParentId":"490G00013186","towards":"Brixton Or Clapham Common"},{"icsId":"1005234","id":"490005234N","lat":51.44459,"lon":-0.12475,"name":"Christchurch Road","parentId":"490G00005234","stationId":"490G00005234","stopLetter":"BS","topMostParentId":"490G00005234","towards":"Brixton Or Clapham Common"},{"icsId":"1012931","id":"490012931W","lat":51.44596,"lon":-0.12687,"name":"Streatham Place","parentId":"490G00012931","stationId":"490G00012931","stopLetter":"BP","topMostParentId":"490G00012931","towards":"Clapham Common"},{"icsId":"1010243","id":"490010243W","lat":51.44716,"lon":-0.12954,"name":"Atkins Road / New Park Road","parentId":"490G00010243","stationId":"490G00010243","stopLetter":"H","topMostParentId":"490G00010243","towards":"Clapham Common"},{"icsId":"1003472","id":"490003472N","lat":51.4484,"lon":-0.13177,"name":"Kings Avenue / Atkins Road","parentId":"490G00003472","stationId":"490G00003472","stopLetter":"J","topMostParentId":"490G00003472","towards":"Brixton"},{"icsId":"1013621","id":"490013621N","lat":51.45166,"lon":-0.13055,"name":"Thorncliffe Road","parentId":"490G00013621","stationId":"490G00013621","stopLetter":"K","topMostParentId":"490G00013621","towards":"Brixton"},{"icsId":"1005350","id":"490005350N","lat":51.4546,"lon":-0.12954,"name":"Clarence Avenue","parentId":"490G00005350","stationId":"490G00005350","stopLetter":"L","topMostParentId":"490G00005350","towards":"Brixton"},{"icsId":"1009460","id":"490009460N","lat":51.45787,"lon":-0.12906,"name":"Lyham Road","parentId":"490G00009460","stationId":"490G00009460","stopLetter":"M","topMostParentId":"490G00009460","towards":"Brixton"},{"icsId":"1003796","id":"490003796D","lat":51.45965,"lon":-0.12974,"name":"Bedford Road","parentId":"490G00003796","stationId":"490G00003796","stopLetter":"D","topMostParentId":"490G00003796","towards":"Battersea Park Or Clapham Junction"},{"icsId":"1010776","id":"490010776W","lat":51.45959,"lon":-0.13397,"name":"Park Hill","parentId":"490G00010776","stationId":"490G00010776","stopLetter":"F","topMostParentId":"490G00010776","towards":"Battersea Park Or Clapham Junction"},{"icsId":"1000050","id":"490000050K","lat":51.46152,"lon":-0.13821,"name":"Clapham Common Station","stopLetter":"K","topMostParentId":"490000050K","towards":"Battersea Park Or Clapham Junction","zone":"2"},{"icsId":"1015236","id":"490015236M","lat":51.4611,"lon":-0.14036,"name":"Long Road / Clapham Common","parentId":"490G000883","stationId":"490G000883","stopLetter":"M","topMostParentId":"490G000883","towards":"Battersea Park Or Clapham Junction"},{"icsId":"1000288","id":"490000288Z","lat":51.46361,"lon":-0.14197,"name":"Omnibus Clapham","parentId":"490G00000288","stationId":"490G00000288","stopLetter":"->S","topMostParentId":"490G00000288"}]}]}