{"direction":"outbound","lineId":"418","lineName":"418","mode":"bus","stopPointSequences":[{"stopPoint":[{"icsId":"1005800","id":"490005800A3","lat":51.41235,"lon":-0.29842,"name":"Cromwell Road Bus Station","parentId":"490G000476","stationId":"490G000476","stopLetter":"A3","topMostParentId":"490G000476","towards":"Surbiton"},{"icsId":"1006412","id":"490006412D2","lat":51.41003,"lon":-0.30245,"name":"Eden Street","parentId":"490G00006412","stationId":"490G00006412","stopLetter":"D2","topMostParentId":"490G00006412","towards":"Surbiton"},{"icsId":"1004478","id":"490004478F","lat":51.40833,"lon":-0.30367,"name":"Brook Street","parentId":"490G00004478","stationId":"490G00004478","stopLetter":"F","topMostParentId":"490G00004478","towards":"Surbiton"},{"icsId":"1008829","id":"490008829S","lat":51.40434,"lon":-0.30414,"name":"Kingston University / County Hall","parentId":"490G00008829","stationId":"490G00008829","stopLetter":"UA","topMostParentId":"490G00008829","towards":"Hook, Thames Ditton Or Tolworth"},{"icsId":"1018502","id":"490018502E","lat":51.40023,"lon":-0.30308,"name":"Maplehurst Close","parentId":"490G00018502","stationId":"490G00018502","stopLetter":"E","topMostParentId":"490G00018502","towards":"Tolworth"},{"icsId":"1018503","id":"490018503S","lat":51.39581,"lon":-0.29928,"name":"Surbiton Hill Road / Hollyfield School","parentId":"490G00018503","stationId":"490G00018503","stopLetter":"->S","topMostParentId":"490G00018503","towards":"Tolworth"},{"icsId":"1002302","id":"490013038S","lat":51.39264,"lon":-0.2985,"name":"South Terrace / Surbiton Library","parentId":"490G00002302","stationId":"490G00002302","stopLetter":"SM","topMostParentId":"490G00002302","towards":"Tolworth"},{"icsId":"1013032","id":"490013032S","lat":51.39078,"lon":-0.29807,"name":"Surbiton Health Centre","parentId":"490G00013032","stationId":"490G00013032","stopLetter":"SN","topMostParentId":"490G00013032","towards":"Tolworth"},{"icsId":"1004517","id":"490004517S","lat":51.38777,"lon":-0.29707,"name":"Browns Road","parentId":"490G00004517","stationId":"490G00004517","stopLetter":"SP","topMostParentId":"490G00004517","towards":"Tolworth"},{"icsId":"1008305","id":"490008305S","lat":51.386,"lon":-0.29608,"name":"Hollyfield Road","parentId":"490G00008305","stationId":"490G00008305","stopLetter":"SR","topMostParentId":"490G00008305","towards":"Tolworth"},{"icsId":"1013033","id":"490013033S","lat":51.38464,"lon":-0.29311,"name":"Broomfield Road","parentId":"490G00013033","stationId":"490G00013033","stopLetter":"LA","topMostParentId":"490G00013033","towards":"Tolworth"},{"icsId":"1008733","id":"490008733N","lat":51.38313,"lon":-0.28799,"name":"King Charles Road","parentId":"490G00008733","stationId":"490G00008733","stopLetter":"LC","topMostParentId":"490G00008733","towards":"Ewell Or Malden Manor"},{"icsId":"1011205","id":"490011205E","lat":51.38241,"lon":-0.28497,"name":"Princes Avenue","parentId":"490G00011205","stationId":"490G00011205","stopLetter":"J","topMostParentId":"490G00011205","towards":"Hook, New Malden, Malden Manor Or Ewell"},{"icsId":"1013697","id":"490013697F","lat":51.37991,"lon":-0.28137,"name":"Tolworth Broadway","parentId":"490G00013697","stationId":"490G00013697","stopLetter":"F","topMostParentId":"490G00013697","towards":"Hook, New Malden, Malden Manor Or Ewell"},{"icsId":"1001295","id":"490001295B","lat":51.37815,"lon":-0.27948,"name":"Tolworth Station","stopLetter":"B","topMostParentId":"490001295B","towards":"Ewell Or Hook"},{"icsId":"1014938","id":"40004406092A","lat":51.371761,"lon":-0.270299,"name":"Worcester Park Road","parentId":"400G4406092A","stationId":"400G4406092A","topMostParentId":"400G4406092A","towards":"Ewell"},{"icsId":"1011830","id":"40004406091A","lat":51.367841,"lon":-0.265477,"name":"Ruxley Lane","parentId":"400G4406091B","stationId":"400G4406091B","topMostParentId":"400G4406091B","towards":"Ewell"},{"icsId":"1015621","id":"40004406090A","lat":51.365029,"lon":-0.268054,"name":"Pams Way","parentId":"400G4406090A","stationId":"400G4406090A","topMostParentId":"400G4406090A","towards":"Ewell"},{"icsId":"1015636","id":"40004406089A","lat":51.363262,"lon":-0.275116,"name":"Cox Lane / Epsom & Ewell High School","parentId":"400G4406089A","stationId":"400G4406089A","topMostParentId":"400G4406089A","towards":"Ewell"},{"icsId":"1015622","id":"40004406088A","lat":51.362438,"lon":-0.27654,"name":"Godwin Close","parentId":"400G4406088A","stationId":"400G4406088A","topMostParentId":"400G4406088A","towards":"Ewell"},{"icsId":"1014456","id":"40004406086B","lat":51.360147,"lon":-0.280375,"name":"Nightingale Drive","parentId":"400G4406086A","stationId":"400G4406086A","topMostParentId":"400G4406086A","towards":"Ewell and Epsom"},{"icsId":"1015634","id":"40004406085A","lat":51.358082,"lon":-0.276287,"name":"Chessington Close","parentId":"400G4406085A","stationId":"400G4406085A","topMostParentId":"400G4406085A","towards":"Epsom Or Ewell"},{"icsId":"1015623","id":"40004406084A","lat":51.356444,"lon":-0.273778,"name":"Hook Road","topMostParentId":"40004406084A","towards":"Ewell Or Epsom"},{"icsId":"1015624","id":"40004406083A","lat":51.354315,"lon":-0.27021,"name":"Hook Arena","topMostParentId":"40004406083A","towards":"Epsom"},{"icsId":"1014455","id":"40004406082A","lat":51.35241,"lon":-0.266705,"name":"Plough Road","parentId":"400G4406082A","stationId":"400G4406082A","topMostParentId":"400G4406082A","towards":"Epsom"},{"icsId":"1015625","id":"40004406081A","lat":51.351026,"lon":-0.263685,"name":"Riverholme Drive","parentId":"400G4406081A","stationId":"400G4406081A","topMostParentId":"400G4406081A","towards":"Epsom"},{"icsId":"1016322","id":"40004406078A","lat":51.349552,"lon":-0.26196,"name":"Hollymoor Lane","parentId":"400G4406078A","stationId":"400G4406078A","topMostParentId":"910GEWELW","towards":"Epsom"},{"icsId":"1015627","id":"40004406077A","lat":51.345722,"lon":-0.263239,"name":"Roy Richmond Way","parentId":"400G4406077A","stationId":"400G4406077A","topMostParentId":"400G4406077A","towards":"Epsom"},{"icsId":"1015628","id":"40004406076B","lat":51.342517,"lon":-0.266031,"name":"Felstead Road","parentId":"400G4406076A","stationId":"400G4406076A","topMostParentId":"400G4406076A","towards":"Epsom"},{"icsId":"1015629","id":"40004406070A","lat":51.340158,"lon":-0.267024,"name":"Pound Lane","parentId":"400G4406070A","stationId":"400G4406070A","stopLetter":"155","topMostParentId":"400G4406070A","towards":"Epsom Or Langley Vale"},{"icsId":"1015630","id":"40004406069A","lat":51.33811,"lon":-0.265967,"name":"Miles Road","parentId":"400G4406069A","stationId":"400G4406069A","topMostParentId":"400G4406069A","towards":"Epsom Or Langley Vale"},{"icsId":"1015631","id":"40004406068A","lat":51.336328,"lon":-0.26648,"name":"Chase Road","parentId":"400G4406068A","stationId":"400G4406068A","topMostParentId":"400G4406068A","towards":"Epsom Or Langley Vale"},{"icsId":"1015632","id":"40004406067B","lat":51.333857,"lon":-0.267204,"name":"Epsom Station","parentId":"400G4406067B","stationId":"400G4406067B","stopLetter":"F","topMostParentId":"910GEPSM"}]}]}