{"direction":"outbound","lineId":"419","lineName":"419","mode":"bus","stopPointSequences":[{"stopPoint":[{"icsId":"1007166","id":"490007166B","lat":51.46071,"lon":-0.30474,"name":"George Street","parentId":"490G00007166","stationId":"490G00007166","stopLetter":"B","topMostParentId":"490G00007166","towards":"Hammersmith Or Kew"},{"icsId":"1000192","id":"490013511C","lat":51.46274,"lon":-0.30268,"name":"Richmond Station","stopLetter":"C","topMostParentId":"490013511C","towards":"Chiswick, Kew Or Mortlake","zone":"4"},{"icsId":"1011557","id":"490011557E","lat":51.46539,"lon":-0.29715,"name":"Richmond Circus","parentId":"490G00011557","stationId":"490G00011557","stopLetter":"RS","topMostParentId":"490G00011557","towards":"Chiswick, Kew Or Mortlake"},{"icsId":"1012048","id":"490012048E","lat":51.46596,"lon":-0.29443,"name":"Sheendale Road","parentId":"490G00012048","stationId":"490G00012048","stopLetter":"ST","topMostParentId":"490G00012048","towards":"Chiswick, Kew Or Mortlake"},{"icsId":"1009547","id":"490009547SA","lat":51.46711,"lon":-0.29029,"name":"Manor Circus","parentId":"490G00009547","stationId":"490G00009547","stopLetter":"SA","topMostParentId":"490G00009547","towards":"Chiswick, Kew Or Mortlake"},{"icsId":"1015035","id":"490015035SL","lat":51.46796,"lon":-0.28704,"name":"Sandycombe Road","parentId":"490G00015035","stationId":"490G00015035","stopLetter":"SL","topMostParentId":"490G00015035","towards":"Barnes, Chiswick Or Kew"},{"icsId":"1009670","id":"490009670E","lat":51.46808,"lon":-0.28271,"name":"Marksbury Avenue","parentId":"490G00009670","stationId":"490G00009670","stopLetter":"A","topMostParentId":"490G00009670","towards":"Barnes, Chiswick Or Kew"},{"icsId":"1010049","id":"490010049N","lat":51.46887,"lon":-0.27924,"name":"Mortlake Road","parentId":"490G00010049","stationId":"490G00010049","stopLetter":"B","topMostParentId":"490G00010049","towards":"Chiswick Or Barnes"},{"icsId":"1005410","id":"490005410E","lat":51.46894,"lon":-0.27375,"name":"Clifford Avenue","parentId":"490G00005410","stationId":"490G00005410","stopLetter":"M","topMostParentId":"490G00005410","towards":"Hammersmith Bridge"},{"icsId":"1012467","id":"490012467W","lat":51.46928,"lon":-0.26922,"name":"Ship Lane / Stag Brewery","parentId":"490G000759","stationId":"490G000759","stopLetter":"N","topMostParentId":"490G000759","towards":"Hammersmith Bridge"},{"icsId":"1010046","id":"490010046E","lat":51.4699,"lon":-0.26424,"name":"Sheen Lane / Mortlake Station","parentId":"490G00010046","stationId":"490G00010046","stopLetter":"A","topMostParentId":"490G00010046","towards":"Hammersmith Bridge Or Putney"},{"icsId":"1002152","id":"490003516E","lat":51.46992,"lon":-0.25953,"name":"Avondale Road","parentId":"490G000373","stationId":"490G000373","stopLetter":"S","topMostParentId":"490G000373","towards":"Hammersmith Bridge Or Putney"},{"icsId":"1014596","id":"490014596E","lat":51.4705,"lon":-0.25688,"name":"White Hart Lane","parentId":"490G00014596","stationId":"490G00014596","stopLetter":"T","topMostParentId":"490G00014596","towards":"Hammersmith Bridge Or Putney"},{"icsId":"1001015","id":"490001015BK","lat":51.47256,"lon":-0.25288,"name":"Barnes Bridge Station","stopLetter":"BK","topMostParentId":"490001015BK","towards":"Hammersmith Bridge Or Putney"},{"icsId":"1007168","id":"490007168N","lat":51.47619,"lon":-0.24986,"name":"Lonsdale Road / Nassau Road","parentId":"490G00002422","stationId":"490G00002422","stopLetter":"->N","topMostParentId":"490G00002422"},{"icsId":"1005551","id":"490005551N","lat":51.48006,"lon":-0.24799,"name":"Lonsdale Road / Suffolk Road","parentId":"490G00005551","stationId":"490G00005551","stopLetter":"->N","topMostParentId":"490G00005551"},{"icsId":"1009353","id":"490009353E","lat":51.48603,"lon":-0.23422,"name":"Lonsdale Road / Castelnau","parentId":"490G00002412","stationId":"490G00002412","stopLetter":"->E","topMostParentId":"490G00002412"},{"icsId":"1009353","id":"490009353S","lat":51.48535,"lon":-0.23335,"name":"Lonsdale Road","parentId":"490G00009353","stationId":"490G00009353","stopLetter":"K","topMostParentId":"490G00009353","towards":"Mortlake, Putney Or Sheen"},{"icsId":"1013558","id":"490013558S","lat":51.4834,"lon":-0.23524,"name":"The Spinney","parentId":"490G00013558","stationId":"490G00013558","stopLetter":"L","topMostParentId":"490G00013558","towards":"Mortlake, Putney Or Sheen"},{"icsId":"1014260","id":"490014260S","lat":51.48024,"lon":-0.23708,"name":"Washington Road","parentId":"490G00014260","stationId":"490G00014260","stopLetter":"M","topMostParentId":"490G00014260","towards":"Mortlake, Putney Or Sheen"},{"icsId":"1010246","id":"490010246WN","lat":51.47743,"lon":-0.23831,"name":"Newport Road","parentId":"490G00010246","stationId":"490G00010246","stopLetter":"WN","topMostParentId":"490G00010246","towards":"Mortlake, Putney Or Sheen"},{"icsId":"1005298","id":"490005298WS","lat":51.47471,"lon":-0.23878,"name":"Church Road / Red Lion","parentId":"490G00005298","stationId":"490G00005298","stopLetter":"WS","topMostParentId":"490G00005298","towards":"Roehampton Or Sheen"},{"icsId":"1011420","id":"490011420WT","lat":51.47286,"lon":-0.23754,"name":"Ranelagh Avenue","parentId":"490G00011420","stationId":"490G00011420","stopLetter":"WT","topMostParentId":"490G00011420","towards":"Roehampton Or Sheen"},{"icsId":"1001014","id":"490001014B","lat":51.46665,"lon":-0.24202,"name":"Barnes Station","stopLetter":"B","topMostParentId":"490001014B","towards":"Roehampton Or Sheen"},{"icsId":"1011715","id":"490011715D","lat":51.46406,"lon":-0.24381,"name":"Rosslyn Park Rugby Football Club","parentId":"490G00011715","stationId":"490G00011715","stopLetter":"P","topMostParentId":"490G00011715","towards":"Roehampton"},{"icsId":"1006697","id":"490006697S","lat":51.46191,"lon":-0.24339,"name":"Fairacres","parentId":"490G00006697","stationId":"490G00006697","stopLetter":"R","topMostParentId":"490G00006697","towards":"Roehampton"},{"icsId":"1006083","id":"490006083S","lat":51.45896,"lon":-0.24298,"name":"Roehampton University / Main Entrance","parentId":"490G00006083","stationId":"490G00006083","stopLetter":"U","topMostParentId":"490G00006083","towards":"Kingston Vale Or Putney Heath"},{"icsId":"1015037","id":"490015037S","lat":51.45639,"lon":-0.24272,"name":"Queen Mary's Hospital","parentId":"490G00015037","stationId":"490G00015037","stopLetter":"V","topMostParentId":"490G00015037","towards":"Kingston Vale Or Putney Heath"},{"icsId":"1011322","id":"490011322T","lat":51.45345,"lon":-0.24367,"name":"Clarence Lane","parentId":"490G00011322","stationId":"490G00011322","stopLetter":"T","topMostParentId":"490G00011322","towards":"Kingston Vale Or Putney Heath"},{"icsId":"1003134","id":"490003134M","lat":51.44935,"lon":-0.23893,"name":"Roehampton Lane / Danebury Avenue","parentId":"490G00003134","stationId":"490G00003134","stopLetter":"M","topMostParentId":"490G00003134","towards":"Kingston Vale"},{"icsId":"1010967","id":"490010967R","lat":51.44721,"lon":-0.23851,"name":"Petersfield Rise","parentId":"490G00010967","stationId":"490G00010967","stopLetter":"R","topMostParentId":"490G00010967","towards":"New Malden"},{"icsId":"1006085","id":"490006085W","lat":51.44554,"lon":-0.23928,"name":"Dilton Gardens","parentId":"490G00006085","stationId":"490G00006085","stopLetter":"RH","topMostParentId":"490G00006085","towards":"New Malden"},{"icsId":"1010306","id":"490010306W2","lat":51.44459,"lon":-0.24011,"name":"Norley Vale","parentId":"490G00010306","stationId":"490G00010306","stopLetter":"AP","topMostParentId":"490G00010306"}]}]}