{"direction":"outbound","lineId":"42","lineName":"42","mode":"bus","stopPointSequences":[{"stopPoint":[{"icsId":"1006336","id":"490006336N","lat":51.4625,"lon":-0.08364,"name":"East Dulwich Sainsbury's","parentId":"490G00006336","stationId":"490G00006336","stopLetter":"N","topMostParentId":"490G00006336","towards":"North Dulwich"},{"icsId":"1015847","id":"490015830S","lat":51.46277,"lon":-0.08141,"name":"Quorn Road","parentId":"490G00015847","stationId":"490G00015847","stopLetter":"L","topMostParentId":"490G00015847","towards":"North Dulwich, Dulwich Or Peckham Rye"},{"icsId":"1001090","id":"490001090S","lat":51.46157,"lon":-0.0797,"name":"East Dulwich Station","stopLetter":"E","topMostParentId":"490001090S","towards":"North Dulwich, Dulwich Or Peckham Rye"},{"icsId":"1010595","id":"490010595F","lat":51.46143,"lon":-0.07611,"name":"Ondine Road","parentId":"490G00010595","stationId":"490G00010595","stopLetter":"F","topMostParentId":"490G00010595","towards":"North Dulwich, Dulwich Or Peckham Rye"},{"icsId":"1018249","id":"490006529B","lat":51.45944,"lon":-0.07707,"name":"Derwent Grove","parentId":"490G00018249","stationId":"490G00018249","stopLetter":"B","topMostParentId":"490G00018249","towards":"Camberwell Or Herne Hill"},{"icsId":"1006334","id":"490006334W","lat":51.45874,"lon":-0.08,"name":"Tessa Jowell Health Centre","parentId":"490G00006334","stationId":"490G00006334","stopLetter":"C","topMostParentId":"490G00006334","towards":"Camberwell Or Herne Hill"},{"icsId":"1013755","id":"490013755S","lat":51.45588,"lon":-0.08346,"name":"Townley Road","parentId":"490G00013755","stationId":"490G00013755","stopLetter":"VE","topMostParentId":"490G00013755","towards":"Camberwell Or Herne Hill"},{"icsId":"1006237","id":"490006237W","lat":51.45332,"lon":-0.08689,"name":"Dulwich Village","parentId":"490G00006237","stationId":"490G00006237","stopLetter":"VF","topMostParentId":"490G00006237","towards":"Camberwell Or Herne Hill"},{"icsId":"1001210","id":"490001210N","lat":51.45403,"lon":-0.0886,"name":"North Dulwich Station","stopLetter":"VA","topMostParentId":"490001210N","towards":"Brixton Or Camberwell"},{"icsId":"1006524","id":"490006524W","lat":51.45582,"lon":-0.0906,"name":"Elmwood Road / the Charter School","parentId":"490G00006524","stationId":"490G00006524","stopLetter":"->W","topMostParentId":"490G00006524","towards":"Brixton Or Camberwell"},{"icsId":"1004834","id":"490013026W","lat":51.45738,"lon":-0.09114,"name":"Casino Avenue","parentId":"490G00004834","stationId":"490G00004834","stopLetter":"->W","topMostParentId":"490G00004834","towards":"Brixton Or Camberwell"},{"icsId":"1011491","id":"490011491W","lat":51.45914,"lon":-0.09341,"name":"Herne Hill","parentId":"490G00011491","stationId":"490G00011491","stopLetter":"->W","topMostParentId":"490G00011491","towards":"Brixton Or Camberwell"},{"icsId":"1011491","id":"490011491N","lat":51.4601,"lon":-0.09366,"name":"Herne Hill Road","parentId":"490G00011491","stationId":"490G00011491","stopLetter":"->N","topMostParentId":"490G00011491","towards":"Camberwell Green"},{"icsId":"1013027","id":"490013027N","lat":51.46192,"lon":-0.09165,"name":"Deepdene Road","parentId":"490G00013027","stationId":"490G00013027","stopLetter":"N","topMostParentId":"490G00013027","towards":"Elephant & Castle Or Bricklayers Arms"},{"icsId":"1004092","id":"490004092N","lat":51.46415,"lon":-0.0906,"name":"Blanchedowne","parentId":"490G00004092","stationId":"490G00004092","stopLetter":"P","topMostParentId":"490G00004092","towards":"Elephant & Castle"},{"icsId":"1004973","id":"490004973H1","lat":51.46703,"lon":-0.09078,"name":"Champion Hill","parentId":"490G00004973","stationId":"490G00004973","stopLetter":"Q","topMostParentId":"490G00004973","towards":"Elephant & Castle Or Bricklayers Arms"},{"icsId":"1008764","id":"490008764H5","lat":51.46954,"lon":-0.0927,"name":"King's College Hospital","parentId":"490G00008764","stationId":"490G00008764","stopLetter":"R","topMostParentId":"490G00008764","towards":"Oval, Elephant & Castle Or Bricklayers Arms"},{"icsId":"1005464","id":"490005464W","lat":51.47148,"lon":-0.09308,"name":"Coldharbour Lane","parentId":"490G00005464","stationId":"490G00005464","stopLetter":"W","topMostParentId":"490G00005464","towards":"Oval, Elephant & Castle Or Bricklayers Arms"},{"icsId":"1004687","id":"490004687T","lat":51.47265,"lon":-0.09325,"name":"Denmark Hill / Camberwell Green","parentId":"490G00004687","stationId":"490G00004687","stopLetter":"R","topMostParentId":"490G00004687","towards":"Peckham Or Elephant & Castle"},{"icsId":"1015298","id":"490015298E","lat":51.47529,"lon":-0.0935,"name":"Camberwell Green","parentId":"490G00015298","stationId":"490G00015298","stopLetter":"E","topMostParentId":"490G00015298","towards":"Tower Bridge Or Elephant & Castle"},{"icsId":"1009784","id":"490009784C","lat":51.47662,"lon":-0.09402,"name":"Medlar Street","parentId":"490G00009784","stationId":"490G00009784","stopLetter":"C","topMostParentId":"490G00009784","towards":"Tower Bridge Or Elephant & Castle"},{"icsId":"1014979","id":"490014979N2","lat":51.4785,"lon":-0.09423,"name":"Wyndham Road","parentId":"490G00014979","stationId":"490G00014979","stopLetter":"U","topMostParentId":"490G00014979","towards":"Tower Bridge Or Elephant & Castle"},{"icsId":"1004221","id":"490004221N","lat":51.48058,"lon":-0.09446,"name":"Bowyer Place","parentId":"490G00004221","stationId":"490G00004221","stopLetter":"Z","topMostParentId":"490G00004221","towards":"Tower Bridge Or Elephant & Castle"},{"icsId":"1003138","id":"490003138N2","lat":51.48168,"lon":-0.09454,"name":"Camberwell Road / Albany Road","parentId":"490G00003138","stationId":"490G00003138","stopLetter":"X","topMostParentId":"490G00003138","towards":"Tower Bridge Or Elephant & Castle"},{"icsId":"1018967","id":"490003138E","lat":51.48252,"lon":-0.09249,"name":"Albany Road / Camberwell Road","parentId":"490G00018967","stationId":"490G00018967","stopLetter":"P","topMostParentId":"490G00018967","towards":"Tower Bridge"},{"icsId":"1003143","id":"490003143E","lat":51.48424,"lon":-0.08526,"name":"Albany Road / Wells Way","parentId":"490G00003143","stationId":"490G00003143","stopLetter":"O","topMostParentId":"490G00003143","towards":"Elephant & Castle Or Tower Bridge"},{"icsId":"1003274","id":"490003274N","lat":51.48727,"lon":-0.08489,"name":"Alsace Road","parentId":"490G00003274","stationId":"490G00003274","stopLetter":"A","topMostParentId":"490G00003274","towards":"Elephant & Castle Or Tower Bridge"},{"icsId":"1013658","id":"490013658E","lat":51.48951,"lon":-0.08611,"name":"East Street / Thurlow Street","parentId":"490G00013658","stationId":"490G00013658","stopLetter":"D","topMostParentId":"490G00013658","towards":"Tower Bridge"},{"icsId":"1003756","id":"490003756E","lat":51.49029,"lon":-0.08263,"name":"Congreve Street","parentId":"490G00003756","stationId":"490G00003756","stopLetter":"E","topMostParentId":"490G00003756","towards":"Tower Bridge"},{"icsId":"1006379","id":"490006379BN","lat":51.49146,"lon":-0.0823,"name":"Old Kent Road / East Street","parentId":"490G00006379","stationId":"490G00006379","stopLetter":"F","topMostParentId":"490G00006379","towards":"Elephant & Castle, London Bridge Or Tower Bridge"},{"icsId":"1004315","id":"490004315BP","lat":51.49319,"lon":-0.08448,"name":"Bricklayer's Arms","parentId":"490G00004315","stationId":"490G00004315","stopLetter":"BP","topMostParentId":"490G00004315","towards":"London Bridge Or Tower Bridge"},{"icsId":"1019012","id":"490004315BH","lat":51.49563,"lon":-0.08346,"name":"Bricklayer's Arms / Tower Bridge Road","parentId":"490G00019012","stationId":"490G00019012","stopLetter":"BH","topMostParentId":"490G00019012","towards":"Surrey Quays Or Tower Gateway"},{"icsId":"1007362","id":"490007362N","lat":51.49702,"lon":-0.08124,"name":"Grange Road / Caledonian Market","parentId":"490G00007362","stationId":"490G00007362","stopLetter":"L","topMostParentId":"490G00007362","towards":"Surrey Quays Or Tower Gateway"},{"icsId":"1003035","id":"490003035N","lat":51.49899,"lon":-0.07926,"name":"Abbey Street","parentId":"490G00003035","stationId":"490G00003035","stopLetter":"M","topMostParentId":"490G00003035","towards":"Surrey Quays Or Tower Gateway"},{"icsId":"1006200","id":"490006200E","lat":51.5021,"lon":-0.07789,"name":"Druid Street","parentId":"490G00006200","stationId":"490G00006200","stopLetter":"E","topMostParentId":"490G00006200","towards":"Surrey Quays Or Tower Gateway"},{"icsId":"1013744","id":"490013744L","lat":51.50366,"lon":-0.07674,"name":"Tower Bridge","parentId":"490G00013744","stationId":"490G00013744","stopLetter":"L","topMostParentId":"490G00013744","towards":"Aldgate"},{"icsId":"1002076","id":"490002076RV","lat":51.51072,"lon":-0.07517,"name":"Tower Gateway Station","stopLetter":"TD","topMostParentId":"490002076RV","towards":"Liverpool Street Or Moorgate","zone":"1"},{"icsId":"1009606","id":"490009606S","lat":51.51283,"lon":-0.07333,"name":"Mansell Street","parentId":"490G000654","stationId":"490G000654","stopLetter":"S","topMostParentId":"490G000654","towards":"Limehouse Or Liverpool Street"},{"icsId":"1006229","id":"490006229ZY","lat":51.51457,"lon":-0.07863,"name":"Duke's Place","parentId":"490G000492","stationId":"490G000492","stopLetter":"A","topMostParentId":"490G000492","towards":"Liverpool Street"},{"icsId":"1000138","id":"490000138E","lat":51.51807,"lon":-0.07997,"name":"Liverpool Street Station","stopLetter":"E","topMostParentId":"490000138E","towards":"Dalston","zone":"1"},{"icsId":"1012391","id":"490011187N","lat":51.52036,"lon":-0.07905,"name":"Primrose Street","parentId":"490G00012391","stationId":"490G00012391","stopLetter":"H","topMostParentId":"490G00012391","towards":"Bethnal Green, Dalston Or Hackney"},{"icsId":"1016576","id":"490016576AP","lat":51.52175,"lon":-0.08121,"name":"Appold Street","parentId":"490G00016576","stationId":"490G00016576","stopLetter":"AP","topMostParentId":"490G00016576"}]}]}