{"direction":"outbound","lineId":"422","lineName":"422","mode":"bus","stopPointSequences":[{"stopPoint":[{"icsId":"1010374","id":"490010374B","lat":51.49967,"lon":0.00437,"name":"North Greenwich Station","parentId":"490G000682","stationId":"490G000682","stopLetter":"B","topMostParentId":"HUBNGW"},{"icsId":"1009888","id":"490009888N","lat":51.49388,"lon":0.01084,"name":"Millennium Primary School","parentId":"490G00009888","stationId":"490G00009888","stopLetter":"MN","topMostParentId":"490G00009888","towards":"Blackheath Royal Standard"},{"icsId":"1013840","id":"490013840Q","lat":51.49045,"lon":0.00877,"name":"Tunnel Avenue","parentId":"490G00013840","stationId":"490G00013840","stopLetter":"MP","topMostParentId":"490G00013840","towards":"Blackheath Or Greenwich"},{"icsId":"1005982","id":"490005982S","lat":51.48784,"lon":0.00774,"name":"Christ Church Primary School","parentId":"490G00005982","stationId":"490G00005982","stopLetter":"MR","topMostParentId":"490G00005982","towards":"Blackheath Or Greenwich"},{"icsId":"1015332","id":"490007510D","lat":51.48633,"lon":0.00848,"name":"Vanbrugh Hill","parentId":"490G00015332","stationId":"490G00015332","stopLetter":"D","topMostParentId":"490G00015332","towards":"Blackheath Or Woolwich"},{"icsId":"1009685","id":"490009685E","lat":51.48611,"lon":0.01373,"name":"Marlton Street","parentId":"490G00009685","stationId":"490G00009685","stopLetter":"P","topMostParentId":"490G00009685","towards":"Blackheath Or Woolwich"},{"icsId":"1006356","id":"490006356E","lat":51.48639,"lon":0.01623,"name":"Kemsing Road","parentId":"490G00006356","stationId":"490G00006356","stopLetter":"E","topMostParentId":"490G00006356","towards":"Blackheath Or Woolwich"},{"icsId":"1014412","id":"490014412E","lat":51.48597,"lon":0.0179,"name":"Combedale Road","parentId":"490G00014412","stationId":"490G00014412","stopLetter":"G","topMostParentId":"490G00014412","towards":"Charlton, Lewisham Or Kidbrooke"},{"icsId":"1001323","id":"490001323B","lat":51.48309,"lon":0.01992,"name":"Westcombe Park Station","stopLetter":"B","topMostParentId":"490001323B","towards":"Charlton, Lewisham Or Kidbrooke"},{"icsId":"1008854","id":"490008854S","lat":51.48105,"lon":0.0199,"name":"Kirkside Road","parentId":"490G00008854","stationId":"490G00008854","stopLetter":"->S","topMostParentId":"490G00008854","towards":"Charlton, Lewisham Or Kidbrooke"},{"icsId":"1004065","id":"490004065BC","lat":51.47839,"lon":0.02129,"name":"Blackheath / Royal Standard","parentId":"490G00004065","stationId":"490G00004065","stopLetter":"BC","topMostParentId":"490G00004065","towards":"Woolwich"},{"icsId":"1014978","id":"490014978E1","lat":51.47953,"lon":0.02656,"name":"Wyndcliff Road","parentId":"490G00014978","stationId":"490G00014978","stopLetter":"BS","topMostParentId":"490G00014978","towards":"Woolwich"},{"icsId":"1014075","id":"490014075E","lat":51.47981,"lon":0.03296,"name":"Charlton Road / Victoria Way","parentId":"490G00014075","stationId":"490G00014075","stopLetter":"->E","topMostParentId":"490G00014075","towards":"Woolwich"},{"icsId":"1005015","id":"490005015R","lat":51.48213,"lon":0.03808,"name":"Charlton Village","parentId":"490G00005015","stationId":"490G00005015","stopLetter":"R","topMostParentId":"490G00005015","towards":"Queen Elizabeth Hospital Or Woolwich"},{"icsId":"1005013","id":"490005013E","lat":51.48203,"lon":0.04123,"name":"Charlton Park Road","parentId":"490G00005013","stationId":"490G00005013","stopLetter":"C","topMostParentId":"490G00005013","towards":"Woolwich Or Queen Elizabeth Hospital"},{"icsId":"1004916","id":"490004916E","lat":51.48251,"lon":0.04603,"name":"Cemetery Lane","parentId":"490G00004916","stationId":"490G00004916","stopLetter":"D","topMostParentId":"490G00004916","towards":"Woolwich Or Queen Elizabeth Hospital"},{"icsId":"1006632","id":"490006632N","lat":51.48531,"lon":0.04958,"name":"Erwood Road","parentId":"490G00006632","stationId":"490G00006632","stopLetter":"E","topMostParentId":"490G00006632","towards":"Woolwich Or Queen Elizabeth Hospital"},{"icsId":"1006981","id":"490006981E","lat":51.48746,"lon":0.0574,"name":"Artillery Place / Frances Street","parentId":"490G00006981","stationId":"490G00006981","stopLetter":"->E","topMostParentId":"490G00006981","towards":"Plumstead Station Or Plumstead Common"},{"icsId":"1008574","id":"490008574P","lat":51.48918,"lon":0.06435,"name":"The Woolwich Centre","parentId":"490G00008574","stationId":"490G00008574","stopLetter":"P","topMostParentId":"490G00008574","towards":"Plumstead Station Or Plumstead Common"},{"icsId":"1001344","id":"490001344N2","lat":51.48993,"lon":0.06833,"name":"Woolwich Arsenal Station","stopLetter":"Q","topMostParentId":"490001344N2","towards":"Plumstead"},{"icsId":"1002162","id":"490014934E","lat":51.4914,"lon":0.07138,"name":"Woolwich","parentId":"910GWOLWXR","stationId":"910GWOLWXR","stopLetter":"K","topMostParentId":"910GWOLWXR","towards":"Plumstead"},{"icsId":"1009723","id":"490009723E","lat":51.49117,"lon":0.07723,"name":"Maxey Road","parentId":"490G00009723","stationId":"490G00009723","stopLetter":"->E","topMostParentId":"490G00009723","towards":"Abbey Wood, Bexleyheath Or Thamesmead"},{"icsId":"1011069","id":"490011069A","lat":51.49104,"lon":0.08116,"name":"Plumstead Bus Garage","parentId":"490G00011069","stationId":"490G00011069","stopLetter":"A","topMostParentId":"490G00011069","towards":"Bexleyheath, Abbey Wood Or Thamesmead"},{"icsId":"1019872","id":"490001227L","lat":51.48978,"lon":0.08567,"name":"Plumstead High Street / Plumstead Stn","parentId":"490G000960","stationId":"490G000960","stopLetter":"B","topMostParentId":"490G000960","towards":"Bexleyheath Or Erith"},{"icsId":"1008908","id":"490008908P","lat":51.48805,"lon":0.09026,"name":"Lakedale Road","parentId":"490G00008908","stationId":"490G00008908","stopLetter":"D","topMostParentId":"490G00008908","towards":"Abbey Wood, Bexleyhth Or Erith"},{"icsId":"1011077","id":"490011077E2","lat":51.48699,"lon":0.09483,"name":"Plumstead High Street / Police Station","parentId":"490G00011077","stationId":"490G00011077","stopLetter":"E","topMostParentId":"490G00011077","towards":"Bexleyheath Or Erith"},{"icsId":"1011276","id":"490011276E1","lat":51.48625,"lon":0.09804,"name":"Purrett Road","parentId":"490G00011276","stationId":"490G00011276","stopLetter":"G","topMostParentId":"490G00011276","towards":"Bexleyheath Or Erith"},{"icsId":"1011076","id":"490011075E2","lat":51.48582,"lon":0.10039,"name":"Plumstead Corner / Church Manorway","parentId":"490G00011076","stationId":"490G00011076","stopLetter":"J","topMostParentId":"490G00011076","towards":"Bexleyheath Or Erith"},{"icsId":"1011819","id":"490011819S","lat":51.48201,"lon":0.10203,"name":"Rutherglen Road","parentId":"490G00011819","stationId":"490G00011819","stopLetter":"N","topMostParentId":"490G00011819","towards":"Bexleyheath"},{"icsId":"1008782","id":"490008782S","lat":51.47937,"lon":0.10366,"name":"King's Highway","parentId":"490G00008782","stationId":"490G00008782","stopLetter":"J","topMostParentId":"490G00008782","towards":"Bexleyheath"},{"icsId":"1009212","id":"490009212S","lat":51.47796,"lon":0.10601,"name":"Littledale","parentId":"490G00009212","stationId":"490G00009212","stopLetter":"K","topMostParentId":"490G00009212","towards":"Bexleyheath"},{"icsId":"1004917","id":"490004917S","lat":51.4761,"lon":0.10836,"name":"Cemetery Road","parentId":"490G00004917","stationId":"490G00004917","stopLetter":"L","topMostParentId":"490G00004917","towards":"Bexleyheath"},{"icsId":"1011070","id":"490011070S","lat":51.47367,"lon":0.11118,"name":"Plumstead Cemetery","parentId":"490G00011070","stationId":"490G00011070","stopLetter":"M","topMostParentId":"490G00011070","towards":"Bexleyheath"},{"icsId":"1010520","id":"490010520E","lat":51.47264,"lon":0.11324,"name":"Okehampton Crescent / Lodge Hill","parentId":"490G00010520","stationId":"490G00010520","stopLetter":"S","topMostParentId":"490G00010520","towards":"Abbey Wood Or Bexleyheath"},{"icsId":"1013722","id":"490013722E","lat":51.47225,"lon":0.11924,"name":"Tor Road","parentId":"490G00013722","stationId":"490G00013722","stopLetter":"T","topMostParentId":"490G00013722","towards":"Abbey Wood Or Bexleyheath"},{"icsId":"1011081","id":"490011081E","lat":51.47394,"lon":0.12341,"name":"Plymstock Road","parentId":"490G00011081","stationId":"490G00011081","stopLetter":"T","topMostParentId":"490G00011081","towards":"Abbey Wood Or Bexleyheath"},{"icsId":"1019115","id":"490004245E","lat":51.47499,"lon":0.1269,"name":"King Harolds Way / Brampton Road","parentId":"490G00019115","stationId":"490G00019115","stopLetter":"U","topMostParentId":"490G00019115","towards":"Bexleyheath"},{"icsId":"1014405","id":"490014405E1","lat":51.47618,"lon":0.13018,"name":"Westbourne Road","parentId":"490G00014405","stationId":"490G00014405","stopLetter":"V","topMostParentId":"490G00014405","towards":"Bexleyheath"},{"icsId":"1009054","id":"490009054E","lat":51.47729,"lon":0.13327,"name":"Leckwith Avenue","parentId":"490G00009054","stationId":"490G00009054","stopLetter":"W","topMostParentId":"490G00009054","towards":"Bexleyheath"},{"icsId":"1009083","id":"490009083E","lat":51.47823,"lon":0.13668,"name":"Lenham Road","parentId":"490G00009083","stationId":"490G00009083","stopLetter":"X","topMostParentId":"490G00009083","towards":"Bexleyheath"},{"icsId":"1006206","id":"490006206E","lat":51.47901,"lon":0.14241,"name":"Bedonwell Road / Dryhill Road","parentId":"490G00006206","stationId":"490G00006206","stopLetter":"->E","topMostParentId":"490G00006206","towards":"Bexleyheath"},{"icsId":"1010860","id":"490010860N1","lat":51.47762,"lon":0.1453,"name":"Parsonage Manorway","parentId":"490G00010860","stationId":"490G00010860","stopLetter":"->S","topMostParentId":"490G00010860","towards":"Bexleyheath"},{"icsId":"1013491","id":"490013491S","lat":51.47529,"lon":0.14131,"name":"The Pantiles","parentId":"490G00013491","stationId":"490G00013491","stopLetter":"->S","topMostParentId":"490G00013491","towards":"Bexleyheath"},{"icsId":"1019909","id":"490014748E","lat":51.47371,"lon":0.13739,"name":"Winchelsea Avenue","parentId":"490G00019909","stationId":"490G00019909","stopLetter":"->E","topMostParentId":"490G00019909","towards":"Bexleyheath"},{"icsId":"1010991","id":"490010991S","lat":51.47095,"lon":0.13568,"name":"Pickford Lane / Long Lane","parentId":"490G00010991","stationId":"490G00010991","stopLetter":"->S","topMostParentId":"490G00010991","towards":"Bexleyheath"},{"icsId":"1004216","id":"490004216S","lat":51.46861,"lon":0.13433,"name":"Pickford Lane / Bowford Avenue","parentId":"490G00004216","stationId":"490G00004216","stopLetter":"->S","topMostParentId":"490G00004216","towards":"Bexleyheath"},{"icsId":"1001025","id":"490001025B","lat":51.46446,"lon":0.1329,"name":"Bexleyheath Station","stopLetter":"BH","topMostParentId":"490001025B","towards":"Bexleyheath Town Centre"},{"icsId":"1005147","id":"490005147BG","lat":51.46143,"lon":0.13185,"name":"Pickford Road","parentId":"490G00005147","stationId":"490G00005147","stopLetter":"BG","topMostParentId":"490G00005147","towards":"Bexleyheath Town Centre"},{"icsId":"1007256","id":"490007256S","lat":51.45902,"lon":0.13075,"name":"Avenue Road / Crook Log","parentId":"490G00007256","stationId":"490G00007256","stopLetter":"BJ","topMostParentId":"490G00007256","towards":"Bexleyheath Town Centre"},{"icsId":"1013960","id":"490013960E","lat":51.45838,"lon":0.13259,"name":"Upton Road","parentId":"490G00013960","stationId":"490G00013960","stopLetter":"BK","topMostParentId":"490G00013960","towards":"Bexley, Crayford Or Slade Green"},{"icsId":"1009203","id":"490009203E","lat":51.45771,"lon":0.13734,"name":"Bexleyheath / Lion Road","parentId":"490G00009203","stationId":"490G00009203","stopLetter":"BL","topMostParentId":"490G00009203","towards":"Bexley, Crayford Or Slade Green"},{"icsId":"1003973","id":"490003973B","lat":51.45711,"lon":0.1417,"name":"Trinity Place","parentId":"490G00003973","stationId":"490G00003973","stopLetter":"B","topMostParentId":"490G00003973","towards":"Bexley Village, Crayford Or Slade Green"},{"icsId":"1003975","id":"490003975M","lat":51.45648,"lon":0.14643,"name":"Bexleyheath Clock Tower","parentId":"490G00003975","stationId":"490G00003975","stopLetter":"M","topMostParentId":"490G00003975","towards":"Sidcup, Welling Or Bexleyheath Station"}]}]}