{"direction":"outbound","lineId":"423","lineName":"423","mode":"bus","stopPointSequences":[{"stopPoint":[{"icsId":"1015241","id":"490015241B","lat":51.47019,"lon":-0.35588,"name":"School Road","parentId":"490G000884","stationId":"490G000884","stopLetter":"C","topMostParentId":"490G000884","towards":"Hounslow Heath, Hounslow West Or Whitton"},{"icsId":"1008398","id":"490008398H","lat":51.46927,"lon":-0.3601,"name":"Fair Street","parentId":"490G00008398","stationId":"490G00008398","stopLetter":"H","topMostParentId":"490G00008398","towards":"Bedfont, Feltham Or Hatton Cross"},{"icsId":"1008397","id":"490008397J","lat":51.46889,"lon":-0.36193,"name":"Douglas Road","parentId":"490G00008397","stationId":"490G00008397","stopLetter":"HH","topMostParentId":"490G00008397","towards":"Bedfont, Feltham Or Hatton Cross"},{"icsId":"1013777","id":"490013777S","lat":51.46698,"lon":-0.364,"name":"Treaty Centre","parentId":"490G00013777","stationId":"490G00013777","stopLetter":"S","topMostParentId":"490G00013777","towards":"Hounslow Heath"},{"icsId":"1013259","id":"490015444W","lat":51.46719,"lon":-0.3686,"name":"The Bell","parentId":"490G00013259","stationId":"490G00013259","stopLetter":"W","topMostParentId":"490G00013259","towards":"Hounslow Heath"},{"icsId":"1008125","id":"490008125W","lat":51.46636,"lon":-0.37287,"name":"Hibernia Road","parentId":"490G00008125","stationId":"490G00008125","stopLetter":"->W","topMostParentId":"490G00008125","towards":"Bedfont, Feltham Or Hatton Cross"},{"icsId":"1014362","id":"490014362W","lat":51.46486,"lon":-0.37972,"name":"Wellington Road South","parentId":"490G00014362","stationId":"490G00014362","stopLetter":"M","topMostParentId":"490G00014362","towards":"Bedfont, Feltham Or Hatton Cross"},{"icsId":"1009702","id":"490009702W","lat":51.464,"lon":-0.38361,"name":"Staines Road / Martindale Road","parentId":"490G00009702","stationId":"490G00009702","stopLetter":"N","topMostParentId":"490G00009702","towards":"Bedfont, Feltham Or Hatton Cross"},{"icsId":"1008395","id":"490018733N","lat":51.46394,"lon":-0.38855,"name":"Barrack Road","parentId":"490G00008395","stationId":"490G00008395","stopLetter":"->N","topMostParentId":"490G00008395","towards":"Hatton Cross"},{"icsId":"1018734","id":"490018734N","lat":51.46515,"lon":-0.38849,"name":"Cardington Square","parentId":"490G00018734","stationId":"490G00018734","stopLetter":"JJ","topMostParentId":"490G00018734","towards":"Hatton Cross"},{"icsId":"1006226","id":"490006226N","lat":51.46657,"lon":-0.38677,"name":"Dukes Avenue","parentId":"490G00006226","stationId":"490G00006226","stopLetter":"->N","topMostParentId":"490G00006226","towards":"Hatton Cross"},{"icsId":"1008390","id":"490008390W1","lat":51.46715,"lon":-0.38943,"name":"Cavalry Barracks","parentId":"490G00008390","stationId":"490G00008390","stopLetter":"->W","topMostParentId":"490G00008390","towards":"Hatton Cross"},{"icsId":"1018735","id":"490018735W","lat":51.46746,"lon":-0.39336,"name":"Beavers Crescent","parentId":"490G00018735","stationId":"490G00018735","stopLetter":"->W","topMostParentId":"490G00018735","towards":"Hatton Cross"},{"icsId":"1003666","id":"490003666W1","lat":51.4682,"lon":-0.39593,"name":"Basildene Road","parentId":"490G00003666","stationId":"490G00003666","stopLetter":"->W","topMostParentId":"490G00003666","towards":"Hatton Cross"},{"icsId":"1011871","id":"490011871N","lat":51.46895,"lon":-0.39864,"name":"Beavers Community School","parentId":"490G00011871","stationId":"490G00011871","stopLetter":"->N","topMostParentId":"490G00011871","towards":"Hatton Cross"},{"icsId":"1009147","id":"490009147S","lat":51.46746,"lon":-0.401,"name":"Lichfield Road","parentId":"490G00009147","stationId":"490G00009147","stopLetter":"->S","topMostParentId":"490G00009147","towards":"Hatton Cross"},{"icsId":"1003402","id":"490003402N","lat":51.46854,"lon":-0.40323,"name":"Green Lane","parentId":"490G00003402","stationId":"490G00003402","stopLetter":"->N","topMostParentId":"490G00003402","towards":"Hatton Cross"},{"icsId":"1007196","id":"490007196W","lat":51.46921,"lon":-0.41365,"name":"Girling Way","parentId":"490G00007196","stationId":"490G00007196","stopLetter":"->W","topMostParentId":"490G00007196","towards":"Harlington Corner, Terminals 4 & 5 Or Stanwell"},{"icsId":"1007904","id":"490007904J","lat":51.46601,"lon":-0.42162,"name":"Great South West Road","parentId":"490G00007904","stationId":"490G00007904","stopLetter":"J","topMostParentId":"490G00007904","towards":"Harlington Corner, Terminals 4 & 5 Or Bedfont"},{"icsId":"1000103","id":"490000103F","lat":51.46734,"lon":-0.42285,"name":"Hatton Cross Station","stopLetter":"E","topMostParentId":"490000103F","zone":"5+6"},{"icsId":"1017652","id":"490017652E","lat":51.46865,"lon":-0.42187,"name":"Envoy Avenue","parentId":"490G00017652","stationId":"490G00017652","stopLetter":"K","topMostParentId":"490G00017652","towards":"Heathrow Central, Terminal 5 Or Hayes"},{"icsId":"1000384","id":"490000384Z","lat":51.47612,"lon":-0.42529,"name":"Cranford Lane","parentId":"490G000035","stationId":"490G000035","stopLetter":"->W","topMostParentId":"490G000035","towards":"Heathrow Central, Terminal 5 Or Hayes"},{"icsId":"1007905","id":"490007905E","lat":51.47988,"lon":-0.43358,"name":"Hatton Road North","parentId":"490G00007905","stationId":"490G00007905","stopLetter":"M","topMostParentId":"490G00007905","towards":"Hayes, Terminal 5 Or Heathrow Central"},{"icsId":"1007811","id":"490007811D","lat":51.48058,"lon":-0.43562,"name":"Harlington Corner","parentId":"490G00007811","stationId":"490G00007811","stopLetter":"J","topMostParentId":"490G00007811","towards":"Heathrow Airport, West Drayton Or Slough"},{"icsId":"1004149","id":"490004149W","lat":51.48098,"lon":-0.44459,"name":"Mondial Way","parentId":"490G00004149","stationId":"490G00004149","stopLetter":"BL","topMostParentId":"490G00004149","towards":"Heathrow Airport, West Drayton Or Slough"},{"icsId":"1008021","id":"490008021W","lat":51.48124,"lon":-0.45172,"name":"Sipson Road","parentId":"490G00008021","stationId":"490G00008021","stopLetter":"BP","topMostParentId":"490G00008021","towards":"Terminal 5 Or Slough"},{"icsId":"1010249","id":"490008014W","lat":51.481,"lon":-0.4631,"name":"Bath Road / Newport Road","parentId":"490G00010249","stationId":"490G00010249","stopLetter":"BT","topMostParentId":"490G00010249","towards":"Terminal 5, Slough Or West Drayton"},{"icsId":"1005530","id":"490005530W","lat":51.48149,"lon":-0.46949,"name":"Compass Centre","parentId":"490G00005530","stationId":"490G00005530","stopLetter":"BW","topMostParentId":"490G00005530","towards":"Terminal 5, Slough Or West Drayton"},{"icsId":"1007897","id":"490007897W","lat":51.48167,"lon":-0.47575,"name":"Pinglestone Close","parentId":"490G00007897","stationId":"490G00007897","stopLetter":"H","topMostParentId":"490G00007897","towards":"Terminal 5, Slough Or West Drayton"},{"icsId":"1008019","id":"490008019W","lat":51.48142,"lon":-0.48236,"name":"Heathrow Park Thistle Hotel","parentId":"490G00008019","stationId":"490G00008019","stopLetter":"J","topMostParentId":"490G00008019","towards":"Slough Or Terminal 5"},{"icsId":"1009314","id":"490009308W","lat":51.48021,"lon":-0.49097,"name":"Heathrow Close","parentId":"490G00009314","stationId":"490G00009314","stopLetter":"K","topMostParentId":"490G00009314","towards":"Slough Or Terminal 5"},{"icsId":"1016430","id":"4900164301H","lat":51.47314,"lon":-0.48967,"name":"Heathrow Terminal 5","parentId":"910GHTRBUS5","stationId":"910GHTRBUS5","stopLetter":"1","topMostParentId":"HUBHX5","zone":"6"}]}]}