{"direction":"outbound","lineId":"425","lineName":"425","mode":"bus","stopPointSequences":[{"stopPoint":[{"icsId":"1007657","id":"490007657V","lat":51.55932,"lon":0.07601,"name":"Hainault Street","parentId":"490G00007657","stationId":"490G00007657","stopLetter":"V","topMostParentId":"490G00007657","towards":"Manor Park Or Barking"},{"icsId":"1008466","id":"490008466Q1","lat":51.55785,"lon":0.07405,"name":"Redbridge Central Library","parentId":"490G00008466","stationId":"490G00008466","stopLetter":"Q","topMostParentId":"490G00008466","towards":"Barking, Gants Hill, Manor Park Or Redbridge"},{"icsId":"1008465","id":"490008465L","lat":51.5584,"lon":0.07067,"name":"Ilford Broadway","parentId":"490G000604","stationId":"490G000604","stopLetter":"L","topMostParentId":"490G000604","towards":"Manor Park"},{"icsId":"1004985","id":"490004985Y","lat":51.55736,"lon":0.06785,"name":"Chapel Road","parentId":"490G00004985","stationId":"490G00004985","stopLetter":"Y","topMostParentId":"490G00004985","towards":"Manor Park"},{"icsId":"1006059","id":"490006059W","lat":51.55528,"lon":0.06203,"name":"Dersingham Avenue","parentId":"490G00006059","stationId":"490G00006059","stopLetter":"A","topMostParentId":"490G00006059","towards":"East Ham Or Manor Park"},{"icsId":"1009219","id":"490009219W","lat":51.55447,"lon":0.05937,"name":"Little Ilford Lane","parentId":"490G00009219","stationId":"490G00009219","stopLetter":"B","topMostParentId":"490G00009219","towards":"East Ham Or Manor Park"},{"icsId":"1009570","id":"490009570W","lat":51.55302,"lon":0.05434,"name":"Rabbits Road","parentId":"490G00009570","stationId":"490G00009570","stopLetter":"C","topMostParentId":"490G00009570","towards":"Forest Gate Or Leytonstone"},{"icsId":"1006856","id":"490006856W","lat":51.55196,"lon":0.05137,"name":"First Avenue","parentId":"490G00006856","stationId":"490G00006856","stopLetter":"D","topMostParentId":"490G00006856","towards":"Forest Gate Or Leytonstone"},{"icsId":"1008189","id":"490008189W","lat":51.55112,"lon":0.04868,"name":"High Street North","parentId":"490G000596","stationId":"490G000596","stopLetter":"F","topMostParentId":"490G000596","towards":"Forest Gate Or Leytonstone"},{"icsId":"1001341","id":"490001341G","lat":51.54918,"lon":0.04365,"name":"Woodgrange Park Station","stopLetter":"G","topMostParentId":"490001341G","towards":"Forest Gate"},{"icsId":"1012131","id":"490012131W","lat":51.54816,"lon":0.03951,"name":"Shrewsbury Road","parentId":"490G00012131","stationId":"490G00012131","stopLetter":"->W","topMostParentId":"490G00012131","towards":"Forest Gate"},{"icsId":"1008603","id":"490008603W","lat":51.54741,"lon":0.03517,"name":"Katherine Road","parentId":"490G00008603","stationId":"490G00008603","stopLetter":"->W","topMostParentId":"490G00008603","towards":"Plaistow Or Stratford"},{"icsId":"1007497","id":"490007497W","lat":51.54681,"lon":0.03029,"name":"Green Street","parentId":"490G00007497","stationId":"490G00007497","stopLetter":"Q","topMostParentId":"490G00007497","towards":"Leyton, Plaistow Or Stratford"},{"icsId":"1006919","id":"490006917E","lat":51.54653,"lon":0.02685,"name":"Woodgrange Road","parentId":"490G00006919","stationId":"490G00006919","stopLetter":"E","topMostParentId":"490G00006919","towards":"Leyton, Plaistow Or Stratford"},{"icsId":"1012414","id":"490012414W","lat":51.54615,"lon":0.02289,"name":"Sprowston Road","parentId":"490G00012414","stationId":"490G00012414","stopLetter":"R","topMostParentId":"490G00012414","towards":"Stratford"},{"icsId":"1006936","id":"490006936W","lat":51.54541,"lon":0.01933,"name":"Margery Park Road","parentId":"490G00006936","stationId":"490G00006936","stopLetter":"S","topMostParentId":"490G00006936","towards":"Stratford"},{"icsId":"1003468","id":"490003468W","lat":51.54396,"lon":0.01377,"name":"Atherton Leisure Centre","parentId":"490G00003468","stationId":"490G00003468","stopLetter":"->W","topMostParentId":"490G00003468","towards":"Bow Church"},{"icsId":"1014269","id":"490014269W","lat":51.54287,"lon":0.0099,"name":"Water Lane / University of East London","parentId":"490G00014269","stationId":"490G00014269","stopLetter":"MS","topMostParentId":"490G00014269","towards":"Bow Church"},{"icsId":"1012906","id":"490015114E","lat":51.54126,"lon":0.00262,"name":"Stratford Centre","parentId":"490G00012906","stationId":"490G00012906","stopLetter":"K","topMostParentId":"490G00012906","towards":"Bow, Stratford Stn. Or Stratford City"},{"icsId":"1012904","id":"490012904T","lat":51.54094,"lon":-0.00246,"name":"Stratford Bus Station","parentId":"490G000773","stationId":"490G000773","stopLetter":"E","topMostParentId":"HUBSRA","towards":"Bow"},{"icsId":"1004815","id":"490004815S","lat":51.53735,"lon":-0.00257,"name":"Stratford High St / Carpenters Road","parentId":"490G00004815","stationId":"490G00004815","stopLetter":"J","topMostParentId":"490G00004815","towards":"Mile End, Old Ford Or Poplar"},{"icsId":"1014249","id":"490014249S","lat":51.53584,"lon":-0.00458,"name":"Warton Road","parentId":"490G00014249","stationId":"490G00014249","stopLetter":"K","topMostParentId":"490G00014249","towards":"Mile End, Old Ford Or Poplar"},{"icsId":"1003025","id":"490003025W","lat":51.53378,"lon":-0.00718,"name":"Abbey Lane","parentId":"490G00003025","stationId":"490G00003025","stopLetter":"L","topMostParentId":"490G00003025","towards":"Mile End, Old Ford Or Poplar"},{"icsId":"1004215","id":"490004215P","lat":51.53031,"lon":-0.01208,"name":"Bow Flyover","parentId":"490G000422","stationId":"490G000422","stopLetter":"P","topMostParentId":"490G000422","towards":"Mile End, Old Ford Or Poplar"},{"icsId":"1004206","id":"490004206J","lat":51.52841,"lon":-0.01722,"name":"Bow Church","parentId":"490G000421","stationId":"490G000421","stopLetter":"J","topMostParentId":"490G000421","towards":"Mile End, Poplar Or Hackney Wick"},{"icsId":"1002019","id":"490002019B","lat":51.52794,"lon":-0.02047,"name":"Bow Church Station","stopLetter":"B","topMostParentId":"490002019B","towards":"Mile End Or Poplar","zone":"2"},{"icsId":"1000029","id":"490000029Z","lat":51.52735,"lon":-0.02403,"name":"Bow Road Station","stopLetter":"Z","topMostParentId":"490000029Z","towards":"Whitechapel Or Hackney","zone":"2"},{"icsId":"1012648","id":"490012648K","lat":51.52606,"lon":-0.02956,"name":"Coborn Road","parentId":"490G00012648","stationId":"490G00012648","stopLetter":"K","topMostParentId":"490G00012648","towards":"Whitechapel Or Hackney"},{"icsId":"1000146","id":"490000146W","lat":51.52553,"lon":-0.03243,"name":"Mile End Station","stopLetter":"M","topMostParentId":"490000146W","towards":"Hackney","zone":"2"},{"icsId":"1018852","id":"490000146G","lat":51.52586,"lon":-0.03525,"name":"Mile End Station / Mile End Road","parentId":"490G000925","stationId":"490G000925","stopLetter":"G","topMostParentId":"490G000925","towards":"Bethnal Green, Hackney Or Old Ford"},{"icsId":"1013517","id":"490013517N","lat":51.52707,"lon":-0.03654,"name":"Lichfield Road","parentId":"490G00013517","stationId":"490G00013517","stopLetter":"->N","topMostParentId":"490G00013517","towards":"Bethnal Green, Hackney Or Old Ford"},{"icsId":"1003352","id":"490003352N","lat":51.52896,"lon":-0.03852,"name":"Arbery Road","parentId":"490G00003352","stationId":"490G00003352","stopLetter":"Q","topMostParentId":"490G00003352","towards":"Hackney, Bethnal Green Or Roman Road Market"},{"icsId":"1012633","id":"490012633N","lat":51.53042,"lon":-0.03993,"name":"St Barnabas Church","parentId":"490G00012633","stationId":"490G00012633","stopLetter":"R","topMostParentId":"490G00012633","towards":"Bethnal Green, Hackney Or Old Ford"},{"icsId":"1010554","id":"490010554S2","lat":51.53222,"lon":-0.04111,"name":"Old Ford Road","parentId":"490G00010554","stationId":"490G00010554","stopLetter":"S","topMostParentId":"490G00010554","towards":"Hackney Or Homerton"},{"icsId":"1006025","id":"490006025N","lat":51.5343,"lon":-0.04224,"name":"Victoria Park","parentId":"490G00006025","stationId":"490G00006025","stopLetter":"T","topMostParentId":"490G00006025","towards":"Hackney Or Homerton"},{"icsId":"1011823","id":"490011823N","lat":51.53762,"lon":-0.04485,"name":"Victoria Park Road","parentId":"490G00011823","stationId":"490G00011823","stopLetter":"U","topMostParentId":"490G00011823","towards":"Hackney Central Or Homerton Hospital"},{"icsId":"1010068","id":"490010068N","lat":51.53983,"lon":-0.04643,"name":"Moulins Road","parentId":"490G00010068","stationId":"490G00010068","stopLetter":"Q","topMostParentId":"490G00010068","towards":"Hackney Central Or Homerton Hospital"},{"icsId":"1018643","id":"490018643S","lat":51.54333,"lon":-0.04736,"name":"Well Street","parentId":"490G00018643","stationId":"490G00018643","stopLetter":"S","topMostParentId":"490G00018643","towards":"Homerton Hospital"},{"icsId":"1011863","id":"490011863N","lat":51.54602,"lon":-0.04669,"name":"Morning Lane / Retreat Place","parentId":"490G00011863","stationId":"490G00011863","stopLetter":"Y","topMostParentId":"490G00011863","towards":"Dalston Junction Or Homerton Hospital"},{"icsId":"1003044","id":"490003044H","lat":51.54808,"lon":-0.04644,"name":"Homerton High Street","parentId":"490G00003044","stationId":"490G00003044","stopLetter":"H","topMostParentId":"490G00003044","towards":"Homerton Hospital"},{"icsId":"1005405","id":"490016757N","lat":51.54958,"lon":-0.04271,"name":"Brooksby's Walk / Homerton Station","parentId":"490G00005405","stationId":"490G00005405","stopLetter":"HB","topMostParentId":"490G00005405","towards":"Hackney Central, Clapton Pond Or Clapton Pk"},{"icsId":"1008327","id":"490008327F","lat":51.54992,"lon":-0.04376,"name":"Homerton Hospital","parentId":"490G00008327","stationId":"490G00008327","stopLetter":"F","topMostParentId":"490G00008327","towards":"Hackney Central Or Clapton Pond"},{"icsId":"1006082","id":"490006082A","lat":51.548,"lon":-0.04533,"name":"Banister House","parentId":"490G00006082","stationId":"490G00006082","stopLetter":"A","topMostParentId":"490G00006082","towards":"Clapton Pond Or Hackney Central"},{"icsId":"1008501","id":"490008501O","lat":51.54828,"lon":-0.04943,"name":"The City Academy","parentId":"490G00008501","stationId":"490G00008501","stopLetter":"O","topMostParentId":"490G00008501","towards":"Clapton Pond"},{"icsId":"1009418","id":"490009411W","lat":51.55021,"lon":-0.05121,"name":"Jack Dunning Estate","parentId":"490G00009418","stationId":"490G00009418","stopLetter":"W","topMostParentId":"490G00009418","towards":"Clapton Pond"},{"icsId":"1007220","id":"490007220Z","lat":51.5518,"lon":-0.05218,"name":"Glenarm Road","parentId":"490G00007220","stationId":"490G00007220","stopLetter":"Z","topMostParentId":"490G00007220","towards":"Clapton Or Bakers Arms"},{"icsId":"1009195","id":"490009195N","lat":51.55349,"lon":-0.05346,"name":"Clapton Girls' Academy","parentId":"490G00009195","stationId":"490G00009195","stopLetter":"L","topMostParentId":"490G00009195","towards":"Stamford Hill, Stoke Newington Or Leyton"},{"icsId":"1005340","id":"490005340H","lat":51.55556,"lon":-0.05505,"name":"Clapton Pond","parentId":"490G00005340","stationId":"490G00005340","stopLetter":"H","topMostParentId":"490G00005340","towards":"Stamford Hill, Stoke Newington Or Leyton"},{"icsId":"1009035","id":"490009035M","lat":51.55755,"lon":-0.05603,"name":"Lea Bridge Roundabout","parentId":"490G00009035","stationId":"490G00009035","stopLetter":"M","topMostParentId":"490G00009035","towards":"Stoke Newington, Shacklewell Or Stamford Hill"},{"icsId":"1018318","id":"490018318W","lat":51.55828,"lon":-0.0594,"name":"Kenninghall Road","parentId":"490G00018318","stationId":"490G00018318","stopLetter":"Y","topMostParentId":"490G00018318"}]}]}