{"direction":"outbound","lineId":"44","lineName":"44","mode":"bus","stopPointSequences":[{"stopPoint":[{"icsId":"1000248","id":"490000248G","lat":51.49653,"lon":-0.1435,"name":"Victoria Station","stopLetter":"G","topMostParentId":"490000248G","towards":"Battersea","zone":"1"},{"icsId":"1014051","id":"490014051V","lat":51.49209,"lon":-0.14804,"name":"Victoria Coach Station","parentId":"490G000813","stationId":"490G000813","stopLetter":"V","topMostParentId":"490G000813","towards":"Chelsea Bridge, Sloane Square Or Pimlico"},{"icsId":"1006399","id":"490017850S","lat":51.48905,"lon":-0.1503,"name":"Ebury Bridge Road","parentId":"490G00006399","stationId":"490G00006399","stopLetter":"->S","topMostParentId":"490G00006399","towards":"Wandsworth"},{"icsId":"1009205","id":"490009205E","lat":51.48618,"lon":-0.15034,"name":"Lister Hospital","parentId":"490G00009205","stationId":"490G00009205","stopLetter":"CB","topMostParentId":"490G00009205","towards":"Clapham Common, Pimlico Or Wandsworth"},{"icsId":"1005064","id":"490005064S","lat":51.48261,"lon":-0.14936,"name":"Battersea Park / Chelsea Gate","parentId":"490G00005064","stationId":"490G00005064","stopLetter":"CC","topMostParentId":"490G00005064","towards":"Clapham Common Or Wandsworth"},{"icsId":"1012235","id":"490012235S","lat":51.4795,"lon":-0.14878,"name":"Sopwith Way","parentId":"490G00012235","stationId":"490G00012235","stopLetter":"F","topMostParentId":"490G00012235","towards":"Clapham Common Or Wandsworth"},{"icsId":"1001016","id":"490001016C","lat":51.47691,"lon":-0.14828,"name":"Battersea Park Station","stopLetter":"C","topMostParentId":"490001016C","towards":"Clapham Common Or Wandsworth"},{"icsId":"1013341","id":"490013341M","lat":51.47547,"lon":-0.15069,"name":"Battersea Medical Centre","parentId":"490G000784","stationId":"490G000784","stopLetter":"M","topMostParentId":"490G000784","towards":"Clapham Junction Or Wandsworth"},{"icsId":"1003690","id":"490003690W","lat":51.47442,"lon":-0.15525,"name":"Battersea Park Library","parentId":"490G00003690","stationId":"490G00003690","stopLetter":"LC","topMostParentId":"490G00003690","towards":"Clapham Junction Or Wandsworth"},{"icsId":"1003685","id":"490003685W","lat":51.47321,"lon":-0.16128,"name":"Harris Academy / Battersea","parentId":"490G00003685","stationId":"490G00003685","stopLetter":"LA","topMostParentId":"490G00003685","towards":"Clapham Junction Or Wandsworth"},{"icsId":"1013443","id":"490013443W1","lat":51.47241,"lon":-0.16416,"name":"The Latchmere","parentId":"490G00013443","stationId":"490G00013443","stopLetter":"LB","topMostParentId":"490G00013443","towards":"Clapham Junction Or Wandsworth"},{"icsId":"1004568","id":"490004568W","lat":51.4715,"lon":-0.16784,"name":"Bullen Street","parentId":"490G00004568","stationId":"490G00004568","stopLetter":"LD","topMostParentId":"490G00004568","towards":"Clapham Junction Or Wandsworth"},{"icsId":"1003687","id":"490003687W2","lat":51.47043,"lon":-0.17059,"name":"Battersea High Street","parentId":"490G00003687","stationId":"490G00003687","stopLetter":"LE","topMostParentId":"490G00003687","towards":"Clapham Junction Or Wandsworth"},{"icsId":"1003543","id":"490003543LL","lat":51.46984,"lon":-0.17417,"name":"Badric Court","parentId":"490G00003543","stationId":"490G00003543","stopLetter":"LL","topMostParentId":"490G00003543","towards":"Wandsworth"},{"icsId":"1011065","id":"490011065W2","lat":51.46608,"lon":-0.17917,"name":"Hope Street / Plantation Wharf Pier","parentId":"490G00011065","stationId":"490G00011065","stopLetter":"P","topMostParentId":"490G00011065","towards":"Chelsea Harbour, Fulham Or Wandsworth"},{"icsId":"1005045","id":"490005045W","lat":51.46467,"lon":-0.18116,"name":"Chatfield Road","parentId":"490G00005045","stationId":"490G00005045","stopLetter":"TH","topMostParentId":"490G00005045","towards":"Chelsea Harbour, Earlsfield Or Fulham"},{"icsId":"1010963","id":"490010963W","lat":51.4633,"lon":-0.18367,"name":"Petergate","parentId":"490G00010963","stationId":"490G00010963","stopLetter":"TJ","topMostParentId":"490G00010963","towards":"Chelsea Harbour, Earlsfield Or Fulham"},{"icsId":"1012212","id":"490012212W","lat":51.46179,"lon":-0.18674,"name":"Swandon Way","parentId":"490G00012212","stationId":"490G00012212","stopLetter":"TB","topMostParentId":"490G00012212","towards":"Earlsfield"},{"icsId":"1014195","id":"490014195M","lat":51.45787,"lon":-0.19002,"name":"Wandsworth Town Hall","parentId":"490G00014195","stationId":"490G00014195","stopLetter":"M","topMostParentId":"490G00014195","towards":"Earlsfield"},{"icsId":"1019847","id":"490014184S","lat":51.45576,"lon":-0.19257,"name":"Southside Shopping Centre","parentId":"490G00019847","stationId":"490G00019847","stopLetter":"S","topMostParentId":"490G00019847","towards":"Earlsfield"},{"icsId":"1009631","id":"490009631S","lat":51.45391,"lon":-0.19201,"name":"Mapleton Road","parentId":"490G00009631","stationId":"490G00009631","stopLetter":"->S","topMostParentId":"490G00009631","towards":"Earlsfield"},{"icsId":"1013484","id":"490013484S","lat":51.45157,"lon":-0.19027,"name":"The Old Sergeant","parentId":"490G00013484","stationId":"490G00013484","stopLetter":"->S","topMostParentId":"490G00013484","towards":"Tooting Broadway"},{"icsId":"1013088","id":"490013088S","lat":51.44855,"lon":-0.1894,"name":"Swaffield Road","parentId":"490G00013088","stationId":"490G00013088","stopLetter":"->S","topMostParentId":"490G00013088","towards":"Tooting Broadway"},{"icsId":"1008074","id":"490008074S","lat":51.44607,"lon":-0.18928,"name":"Henry Prince Estate","parentId":"490G00008074","stationId":"490G00008074","stopLetter":"K","topMostParentId":"490G00008074","towards":"Tooting Broadway"},{"icsId":"1006307","id":"490001088S","lat":51.44318,"lon":-0.18921,"name":"Earlsfield Road","parentId":"490G00006307","stationId":"490G00006307","stopLetter":"E","topMostParentId":"490G00006307","towards":"Tooting Broadway"},{"icsId":"1001088","id":"490006306D","lat":51.44123,"lon":-0.1871,"name":"Earlsfield Station","stopLetter":"D","topMostParentId":"490006306D","towards":"Tooting Broadway"},{"icsId":"1008502","id":"490008502S","lat":51.43891,"lon":-0.18677,"name":"Isis Street","parentId":"490G00008502","stationId":"490G00008502","stopLetter":"P","topMostParentId":"490G00008502","towards":"Tooting Broadway"},{"icsId":"1014127","id":"490014127S2","lat":51.43726,"lon":-0.18665,"name":"Waldron Road","parentId":"490G00014127","stationId":"490G00014127","stopLetter":"SF","topMostParentId":"490G00014127","towards":"Tooting Broadway"},{"icsId":"1004621","id":"490004621S","lat":51.4358,"lon":-0.18625,"name":"Burntwood Lane","parentId":"490G00004621","stationId":"490G00004621","stopLetter":"SG","topMostParentId":"490G00004621","towards":"Tooting Broadway"},{"icsId":"1012997","id":"490012997S","lat":51.43341,"lon":-0.18446,"name":"Summerstown","parentId":"490G00012997","stationId":"490G00012997","stopLetter":"SH","topMostParentId":"490G00012997","towards":"Tooting Broadway"},{"icsId":"1007123","id":"490008430E","lat":51.43274,"lon":-0.17991,"name":"Wimbledon Road","parentId":"490G00007123","stationId":"490G00007123","stopLetter":"SJ","topMostParentId":"490G00007123","towards":"Tooting Broadway"},{"icsId":"1012920","id":"490012920E","lat":51.43175,"lon":-0.17645,"name":"Streatham Cemetery","parentId":"490G00012920","stationId":"490G00012920","stopLetter":"SK","topMostParentId":"490G00012920","towards":"Mitcham Or Streatham"},{"icsId":"1006718","id":"490006718H1","lat":51.42989,"lon":-0.17325,"name":"Fairlight Road","parentId":"490G00006718","stationId":"490G00006718","stopLetter":"HS","topMostParentId":"490G00006718","towards":"Mitcham Or Wimbledon"},{"icsId":"1000234","id":"490000234M","lat":51.42847,"lon":-0.16887,"name":"Tooting Broadway Station","stopLetter":"M","topMostParentId":"490000234M","towards":"Mitcham Or Wimbledon","zone":"3"},{"icsId":"1003995","id":"490000234E","lat":51.42671,"lon":-0.16621,"name":"Mitcham Road / Tooting Broadway Stn","parentId":"490G000417","stationId":"490G000417","stopLetter":"E","topMostParentId":"490G000417","towards":"Mitcham"},{"icsId":"1013709","id":"490013709R","lat":51.42542,"lon":-0.16438,"name":"Tooting / the Mitre","parentId":"490G00013709","stationId":"490G00013709","stopLetter":"TJ","topMostParentId":"490G00013709","towards":"Mitcham Or Streatham"},{"icsId":"1003295","id":"490003295U","lat":51.42367,"lon":-0.16189,"name":"Amen Corner","parentId":"490G00003295","stationId":"490G00003295","stopLetter":"TL","topMostParentId":"490G00003295","towards":"Mitcham Or Streatham"},{"icsId":"1001296","id":"490001296S","lat":51.42048,"lon":-0.16099,"name":"Tooting Station","stopLetter":"TT","topMostParentId":"490001296S","towards":"Mitcham"}]}]}