{"direction":"outbound","lineId":"453","lineName":"453","mode":"bus","stopPointSequences":[{"stopPoint":[{"icsId":"1002029","id":"490002029T","lat":51.47442,"lon":-0.02319,"name":"Deptford Bridge Station","stopLetter":"T","topMostParentId":"490002029T","towards":"New Cross","zone":"2+3"},{"icsId":"1006879","id":"490006879F","lat":51.47524,"lon":-0.0284,"name":"Florence Road","parentId":"490G00006879","stationId":"490G00006879","stopLetter":"F","topMostParentId":"490G00006879","towards":"Bricklayers Arms, Peckham Or Surrey Quays"},{"icsId":"1000155","id":"490000155W","lat":51.47568,"lon":-0.03122,"name":"New Cross Station","stopLetter":"W","topMostParentId":"490000155W","towards":"Bricklayers Arms, Peckham Or Surrey Quays"},{"icsId":"1007276","id":"490007276X","lat":51.47539,"lon":-0.03601,"name":"Marquis of Granby / Goldsmiths","parentId":"490G00007276","stationId":"490G00007276","stopLetter":"X","topMostParentId":"490G00007276","towards":"Bricklayers Arms"},{"icsId":"1000156","id":"490000156O","lat":51.47505,"lon":-0.03945,"name":"New Cross Gate Station","stopLetter":"O","topMostParentId":"490000156O","towards":"Peckham Or Bricklayers Arms"},{"icsId":"1010204","id":"490010204J","lat":51.47423,"lon":-0.04467,"name":"New Cross Bus Garage","parentId":"490G00010204","stationId":"490G00010204","stopLetter":"J","topMostParentId":"490G00010204","towards":"Bricklayers Arms"},{"icsId":"1010206","id":"490010206C","lat":51.47579,"lon":-0.04751,"name":"New Cross Road / Besson Street","parentId":"490G00010206","stationId":"490G00010206","stopLetter":"C","topMostParentId":"490G00010206","towards":"Bricklayers Arms"},{"icsId":"1003246","id":"490003246D","lat":51.47682,"lon":-0.04987,"name":"Briant Street","parentId":"490G000388","stationId":"490G000388","stopLetter":"D","topMostParentId":"490G000388","towards":"Bricklayers Arms"},{"icsId":"1011089","id":"490011089W","lat":51.47771,"lon":-0.05213,"name":"Pomeroy Street","parentId":"490G00011089","stationId":"490G00011089","stopLetter":"W","topMostParentId":"490G00011089","towards":"Bricklayers Arms"},{"icsId":"1008461","id":"490008461WA","lat":51.47913,"lon":-0.05603,"name":"Old Kent Road / Ilderton Road","parentId":"490G000603","stationId":"490G000603","stopLetter":"WA","topMostParentId":"490G000603","towards":"Elephant & Castle, London Bridge Or Peckham"},{"icsId":"1005526","id":"490005526WB","lat":51.48033,"lon":-0.05898,"name":"Commercial Way","parentId":"490G00005526","stationId":"490G00005526","stopLetter":"WB","topMostParentId":"490G00005526","towards":"Elephant & Castle, London Bridge Or Peckham"},{"icsId":"1010880","id":"490010880WE","lat":51.48271,"lon":-0.06358,"name":"Peckham Park Road","parentId":"490G00010880","stationId":"490G00010880","stopLetter":"WE","topMostParentId":"490G00010880","towards":"Elephant & Castle Or London Bridge"},{"icsId":"1009531","id":"490009531W","lat":51.48542,"lon":-0.07023,"name":"Malt Street","parentId":"490G00009531","stationId":"490G00009531","stopLetter":"WH","topMostParentId":"490G00009531","towards":"Elephant & Castle, London Bridge Or Tower Bridge"},{"icsId":"1013761","id":"490013761W","lat":51.48648,"lon":-0.07311,"name":"Trafalgar Avenue","parentId":"490G00013761","stationId":"490G00013761","stopLetter":"WJ","topMostParentId":"490G00013761","towards":"Elephant & Castle, London Bridge Or Tower Bridge"},{"icsId":"1006266","id":"490006266WN","lat":51.48859,"lon":-0.07755,"name":"Dunton Road","parentId":"490G00006266","stationId":"490G00006266","stopLetter":"WN","topMostParentId":"490G00006266","towards":"London Bridge Or Elephant & Castle"},{"icsId":"1006379","id":"490006379BN","lat":51.49146,"lon":-0.0823,"name":"Old Kent Road / East Street","parentId":"490G00006379","stationId":"490G00006379","stopLetter":"F","topMostParentId":"490G00006379","towards":"Elephant & Castle, London Bridge Or Tower Bridge"},{"icsId":"1004315","id":"490004315BQ","lat":51.49362,"lon":-0.08523,"name":"Bricklayer's Arms","parentId":"490G00004315","stationId":"490G00004315","stopLetter":"BQ","topMostParentId":"490G00004315","towards":"Elephant & Castle"},{"icsId":"1003658","id":"490003658BS","lat":51.49403,"lon":-0.09024,"name":"Bricklayer's Arms / New Kent Road","parentId":"490G00003658","stationId":"490G00003658","stopLetter":"BS","topMostParentId":"490G00003658","towards":"Elephant & Castle"},{"icsId":"1011632","id":"490011632BT","lat":51.49417,"lon":-0.09467,"name":"Rodney Place","parentId":"490G00011632","stationId":"490G00011632","stopLetter":"BT","topMostParentId":"490G00011632","towards":"Blackfriars, Waterloo Or Westminster"},{"icsId":"1009298","id":"490000073M","lat":51.4948,"lon":-0.09806,"name":"Elephant & Castle / New Kent Road","parentId":"490G000645","stationId":"490G000645","stopLetter":"M","topMostParentId":"HUBEPH","towards":"Westminster"},{"icsId":"1009270","id":"490009270Z","lat":51.49525,"lon":-0.10206,"name":"London College of Communication","parentId":"490G000641","stationId":"490G000641","stopLetter":"Z","topMostParentId":"490G000641","towards":"Pimlico, Vauxhall Or Westminster"},{"icsId":"1008479","id":"490008473N","lat":51.49645,"lon":-0.1059,"name":"St George's Road / Imperial War Museum","parentId":"490G000609","stationId":"490G000609","stopLetter":"N","topMostParentId":"490G000609","towards":"Pimlico Or Westminster"},{"icsId":"1000132","id":"490000132B","lat":51.49856,"lon":-0.11182,"name":"Lambeth North Station","stopLetter":"B","topMostParentId":"490000132B","towards":"Pimlico Or Trafalgar Square","zone":"1"},{"icsId":"1009420","id":"490009420W","lat":51.4994,"lon":-0.11377,"name":"Lower Marsh","parentId":"490G00009420","stationId":"490G00009420","stopLetter":"A","topMostParentId":"490G00009420","towards":"Pimlico Or Trafalgar Square"},{"icsId":"1018956","id":"490005646D","lat":51.50072,"lon":-0.11937,"name":"St Thomas' Hospital / County Hall","parentId":"490G00018956","stationId":"490G00018956","stopLetter":"D","topMostParentId":"490G00018956","towards":"Trafalgar Square Or Victoria"},{"icsId":"1020361","id":"490015048A","lat":51.50187,"lon":-0.12637,"name":"Westminster Stn  / Parliament Square","parentId":"490G00020361","stationId":"490G00020361","stopLetter":"A","topMostParentId":"HUBWSM","towards":"Aldwych Or Piccadilly Circus"},{"icsId":"1008376","id":"490008376N","lat":51.50405,"lon":-0.12641,"name":"Horse Guards Parade","parentId":"490G00008376","stationId":"490G00008376","stopLetter":"->N","topMostParentId":"490G00008376","towards":"Tottenham Court Road, Oxford Circus Or Aldwych"},{"icsId":"1013767","id":"490013767T","lat":51.50753,"lon":-0.12991,"name":"Trafalgar Square","parentId":"490G000804","stationId":"490G000804","stopLetter":"T","topMostParentId":"490G000804","towards":"Oxford Circus"},{"icsId":"1011516","id":"490011516Y","lat":51.50894,"lon":-0.13423,"name":"Regent Street / St James's","parentId":"490G00011516","stationId":"490G00011516","stopLetter":"Y","topMostParentId":"490G00011516","towards":"Hyde Park Corner Or Oxford Circus"},{"icsId":"1000179","id":"490011515W","lat":51.50988,"lon":-0.13735,"name":"Piccadilly Circus","stopLetter":"E","topMostParentId":"490011515W","towards":"Baker Street, Great Portland Street Or Marble Arch","zone":"1"},{"icsId":"1004810","id":"490005537RB","lat":51.51237,"lon":-0.14017,"name":"Conduit Street / Hamleys Toy Store","parentId":"490G00004810","stationId":"490G00004810","stopLetter":"M","topMostParentId":"490G00004810","towards":"Great Portland Street Or Marble Arch"},{"icsId":"1010695","id":"490000173RD","lat":51.51694,"lon":-0.14276,"name":"Margaret Street / Oxford Circus","parentId":"490G000693","stationId":"490G000693","stopLetter":"RD","topMostParentId":"490G000693","towards":"Camden Town Or Marylebone"},{"icsId":"1011126","id":"490011126K","lat":51.52057,"lon":-0.14536,"name":"Portland Place","parentId":"490G00011126","stationId":"490G00011126","stopLetter":"K","topMostParentId":"490G00011126","towards":"Camden Or Marylebone"},{"icsId":"1000091","id":"490000091F","lat":51.52346,"lon":-0.14431,"name":"Great Portland Street Station","stopLetter":"F","topMostParentId":"490000091F","towards":"Camden Or Marylebone","zone":"1"},{"icsId":"1000191","id":"490000191B","lat":51.52362,"lon":-0.14661,"name":"Regent's Park Station","stopLetter":"B","topMostParentId":"490000191B","towards":"Edgware Road, Marble Arch Or Marylebone","zone":"1"},{"icsId":"1007807","id":"490007807W","lat":51.52317,"lon":-0.14957,"name":"Harley Street","parentId":"490G00007807","stationId":"490G00007807","stopLetter":"L","topMostParentId":"490G00007807","towards":"Edgware Road, Paddington Or Marble Arch"},{"icsId":"1000011","id":"490000011E","lat":51.52222,"lon":-0.15626,"name":"Baker Street Station","stopLetter":"E","topMostParentId":"490000011E","towards":"Edgware Road, Paddington Or Marble Arch","zone":"1"},{"icsId":"1007400","id":"490007400M","lat":51.52167,"lon":-0.16201,"name":"Great Central Street","parentId":"490G000540","stationId":"490G000540","stopLetter":"M","topMostParentId":"490G000540","towards":"Great Portland Street and Oxford Circus"}]}]}