{"direction":"outbound","lineId":"460","lineName":"460","mode":"bus","stopPointSequences":[{"stopPoint":[{"icsId":"1014703","id":"490014687N","lat":51.5477,"lon":-0.2402,"name":"Pound Lane / Willesden Bus Garage","parentId":"490G00014703","stationId":"490G00014703","stopLetter":"WX","topMostParentId":"490G00014703","towards":"Willesden Green, Cricklewood Or Neasden"},{"icsId":"1014687","id":"490014687E","lat":51.54856,"lon":-0.2382,"name":"Willesden Bus Garage","parentId":"490G00014687","stationId":"490G00014687","stopLetter":"WN","topMostParentId":"490G00014687","towards":"Cricklewood, Kensal Rise Or Kilburn"},{"icsId":"1014088","id":"490014088N","lat":51.54731,"lon":-0.23292,"name":"Villiers Road","parentId":"490G00014088","stationId":"490G00014088","stopLetter":"S","topMostParentId":"490G00014088","towards":"Cricklewood, Kensal Rise Or Kilburn"},{"icsId":"1014691","id":"490014691M","lat":51.54709,"lon":-0.2301,"name":"Willesden Green Library","parentId":"490G00014691","stationId":"490G00014691","stopLetter":"Q","topMostParentId":"490G00014691","towards":"Cricklewood Or Kilburn"},{"icsId":"1014706","id":"490014693C","lat":51.54804,"lon":-0.22335,"name":"Willesden Lane","parentId":"490G00014706","stationId":"490G00014706","stopLetter":"D","topMostParentId":"490G00014706","towards":"Cricklewood"},{"icsId":"1000270","id":"490000270B","lat":51.54888,"lon":-0.22152,"name":"Willesden Green Station","stopLetter":"B","topMostParentId":"490000270B","towards":"Cricklewood","zone":"2+3"},{"icsId":"1009799","id":"490009799N","lat":51.55313,"lon":-0.21809,"name":"Melrose Avenue","parentId":"490G00009799","stationId":"490G00009799","stopLetter":"CA","topMostParentId":"490G00009799","towards":"Brent Cross Or Golders Green"},{"icsId":"1005771","id":"490005771F","lat":51.55594,"lon":-0.21598,"name":"Sheldon Road","parentId":"490G000472","stationId":"490G000472","stopLetter":"CD","topMostParentId":"490G000472","towards":"Brent Cross Or Golders Green"},{"icsId":"1005773","id":"490005773C","lat":51.55757,"lon":-0.2143,"name":"Cricklewood Broadway","parentId":"490G000473","stationId":"490G000473","stopLetter":"CE","topMostParentId":"490G000473","towards":"Brent Cross and Golders Green"},{"icsId":"1005346","id":"490005346R","lat":51.55893,"lon":-0.21123,"name":"Claremont Road","parentId":"490G000465","stationId":"490G000465","stopLetter":"CM","topMostParentId":"490G000465","towards":"Golders Green"},{"icsId":"1005775","id":"490005775E","lat":51.56065,"lon":-0.20763,"name":"Dersingham Road","parentId":"490G00005775","stationId":"490G00005775","stopLetter":"CF","topMostParentId":"490G00005775","towards":"Golders Green"},{"icsId":"1008058","id":"490008058E","lat":51.56119,"lon":-0.20439,"name":"Hendon Way","parentId":"490G00008058","stationId":"490G00008058","stopLetter":"P","topMostParentId":"490G00008058","towards":"Golders Green"},{"icsId":"1009463","id":"490009463E","lat":51.56225,"lon":-0.20153,"name":"Lyndale Avenue","parentId":"490G00009463","stationId":"490G00009463","stopLetter":"Q","topMostParentId":"490G00009463","towards":"Golders Green"},{"icsId":"1005161","id":"490005161E","lat":51.56308,"lon":-0.19801,"name":"Childs Hill / Finchley Road","parentId":"490G00005161","stationId":"490G00005161","stopLetter":"R","topMostParentId":"490G00005161","towards":"Golders Green"},{"icsId":"1009232","id":"490009232N","lat":51.56514,"lon":-0.19643,"name":"Llanvanor Road","parentId":"490G00009232","stationId":"490G00009232","stopLetter":"M","topMostParentId":"490G00009232","towards":"Golders Green Or Finchley Central"},{"icsId":"1006262","id":"490006262N","lat":51.56755,"lon":-0.19518,"name":"Dunstan Road","parentId":"490G00006262","stationId":"490G00006262","stopLetter":"N","topMostParentId":"490G00006262","towards":"Golders Green Or Finchley"},{"icsId":"1007267","id":"490007267GM","lat":51.57109,"lon":-0.19546,"name":"Golders Green / Finchley Road","parentId":"490G00007267","stationId":"490G00007267","stopLetter":"GM","topMostParentId":"490G00007267","towards":"East Finchley Or Finchley Central"},{"icsId":"1000087","id":"490015496GU","lat":51.57284,"lon":-0.19578,"name":"Golders Green Station","stopLetter":"GU","topMostParentId":"490015496GU","towards":"East Finchley Or Finchley Central","zone":"3"},{"icsId":"1008343","id":"490008343N","lat":51.57521,"lon":-0.1964,"name":"Hoop Lane","parentId":"490G00008343","stationId":"490G00008343","stopLetter":"->N","topMostParentId":"490G00008343","towards":"East Finchley Or Finchley Central"},{"icsId":"1005421","id":"490005421N","lat":51.57947,"lon":-0.19816,"name":"Clifton Gardens","parentId":"490G00005421","stationId":"490G00005421","stopLetter":"TH","topMostParentId":"490G00005421","towards":"East Finchley Or Finchley Central"},{"icsId":"1013192","id":"490013192N","lat":51.58308,"lon":-0.19967,"name":"Temple Fortune Lane","parentId":"490G00013192","stationId":"490G00013192","stopLetter":"TJ","topMostParentId":"490G00013192","towards":"East Finchley Or Finchley Central"},{"icsId":"1005162","id":"490005162N","lat":51.58558,"lon":-0.19999,"name":"Childs Way","parentId":"490G00005162","stationId":"490G00005162","stopLetter":"TK","topMostParentId":"490G00005162","towards":"East Finchley Or Finchley Central"},{"icsId":"1008070","id":"490008070N","lat":51.5888,"lon":-0.19994,"name":"Henlys Corner / Addison Way","parentId":"490G00008070","stationId":"490G00008070","stopLetter":"TL","topMostParentId":"490G00008070","towards":"East Finchley Or Finchley Central"},{"icsId":"1008069","id":"490008069N","lat":51.5907,"lon":-0.19992,"name":"Henlys Corner","parentId":"490G00008069","stationId":"490G00008069","stopLetter":"TP","topMostParentId":"490G00008069","towards":"North Finchley"},{"icsId":"1005488","id":"490005488N","lat":51.59231,"lon":-0.19958,"name":"Allandale Avenue","parentId":"490G00005488","stationId":"490G00005488","stopLetter":"TR","topMostParentId":"490G00005488","towards":"North Finchley"},{"icsId":"1010079","id":"490010079N","lat":51.59476,"lon":-0.19897,"name":"Mountfield Road","parentId":"490G00010079","stationId":"490G00010079","stopLetter":"J","topMostParentId":"490G00010079","towards":"North Finchley"},{"icsId":"1006337","id":"490006337N","lat":51.59628,"lon":-0.19852,"name":"East End Road","parentId":"490G00006337","stationId":"490G00006337","stopLetter":"K","topMostParentId":"490G00006337","towards":"North Finchley"},{"icsId":"1008054","id":"490008054J","lat":51.59888,"lon":-0.19684,"name":"Hendon Lane","parentId":"490G00008054","stationId":"490G00008054","stopLetter":"J","topMostParentId":"490G00008054","towards":"East Finchley, North Finchley Or Woodside Park"},{"icsId":"1015495","id":"490015495E","lat":51.60071,"lon":-0.19461,"name":"Dollis Park / Finchley Central Stn","parentId":"490G000903","stationId":"490G000903","stopLetter":"E","topMostParentId":"490G000903","towards":"East Finchley Or North Finchley"},{"icsId":"1000081","id":"490000081C","lat":51.60255,"lon":-0.19217,"name":"Finchley Central Station","stopLetter":"C","topMostParentId":"490000081C","towards":"East Finchley Or North Finchley","zone":"4"},{"icsId":"1009322","id":"490009322A","lat":51.60515,"lon":-0.1884,"name":"Long Lane","parentId":"490G00009322","stationId":"490G00009322","stopLetter":"A","topMostParentId":"490G00009322","towards":"Whetstone"},{"icsId":"1006642","id":"490006642N","lat":51.60728,"lon":-0.1855,"name":"Victoria Park","parentId":"490G000508","stationId":"490G000508","stopLetter":"NN","topMostParentId":"490G000508","towards":"Whetstone"},{"icsId":"1007373","id":"490007373F3","lat":51.60886,"lon":-0.18269,"name":"Granville Road","parentId":"490G00007373","stationId":"490G00007373","stopLetter":"KK","topMostParentId":"490G00007373","towards":"Whetstone"},{"icsId":"1014813","id":"490014813J","lat":51.61129,"lon":-0.1792,"name":"Woodberry Grove","parentId":"490G00014813","stationId":"490G00014813","stopLetter":"L","topMostParentId":"490G00014813","towards":"Whetstone Or Friern Barnet"},{"icsId":"1015443","id":"490015443S","lat":51.61257,"lon":-0.17639,"name":"North Finchley Bus Station","parentId":"490G00015443","stationId":"490G00015443","stopLetter":"S","topMostParentId":"490G00015443","towards":"Friern Barnet"}]}]}