{"direction":"outbound","lineId":"462","lineName":"462","mode":"bus","stopPointSequences":[{"stopPoint":[{"icsId":"1019654","id":"1500TFL021","lat":51.60555,"lon":0.089684,"name":"Limes Farm / Copperfield","topMostParentId":"1500TFL021","towards":"Grange Hill"},{"icsId":"1012973","id":"1500IM382","lat":51.610971,"lon":0.082697,"name":"St Winifred's Church","parentId":"150G00000025","stationId":"150G00000025","topMostParentId":"150G00000025","towards":"Hainault"},{"icsId":"1009925","id":"150042025003","lat":51.612128,"lon":0.087415,"name":"Millwell Crescent","parentId":"150G00000949","stationId":"150G00000949","topMostParentId":"150G00000949","towards":"Hainault and Fairlop"},{"icsId":"1000320","id":"1500420250Y6","lat":51.613419,"lon":0.091678,"name":"Grange Hill Station","parentId":"150G00003280","stationId":"150G00003280","stopLetter":"A","topMostParentId":"940GZZLUGGH","towards":"Hainault and Fairlop"},{"icsId":"1009578","id":"490009578C","lat":51.61391,"lon":0.09439,"name":"Manor Road","parentId":"490G00009578","stationId":"490G00009578","stopLetter":"C","topMostParentId":"490G00009578","towards":"Marks Gate Or Fairlop"},{"icsId":"1004385","id":"490004385E","lat":51.61242,"lon":0.09544,"name":"Brocket Way","parentId":"490G00004385","stationId":"490G00004385","stopLetter":"A","topMostParentId":"490G00004385","towards":"Marks Gate Or Fairlop"},{"icsId":"1013253","id":"490013253E","lat":51.61088,"lon":0.0966,"name":"Tine Road","parentId":"490G00013253","stationId":"490G00013253","stopLetter":"B","topMostParentId":"490G00013253","towards":"Fairlop"},{"icsId":"1009542","id":"490009542E","lat":51.60883,"lon":0.10113,"name":"Manford Primary School","parentId":"490G00009542","stationId":"490G00009542","stopLetter":"C","topMostParentId":"490G00009542","towards":"Fairlop"},{"icsId":"1006730","id":"490006730E","lat":51.60829,"lon":0.10412,"name":"Hainault Health Centre","parentId":"490G00006730","stationId":"490G00006730","stopLetter":"D","topMostParentId":"490G00006730","towards":"Fairlop"},{"icsId":"1019878","id":"490006809E1","lat":51.60841,"lon":0.10887,"name":"The Lowe","parentId":"490G00019878","stationId":"490G00019878","stopLetter":"Z","topMostParentId":"490G00019878","towards":"Fairlop"},{"icsId":"1000383","id":"490000383Z","lat":51.60519,"lon":0.11383,"name":"Elmbridge Road","parentId":"490G000034","stationId":"490G000034","stopLetter":"->S","topMostParentId":"490G000034","towards":"Barkingside"},{"icsId":"1000382","id":"490000382Z","lat":51.59871,"lon":0.10312,"name":"Fairlop Outdoor Activity Centre","parentId":"490G000033","stationId":"490G000033","stopLetter":"->W","topMostParentId":"490G000033","towards":"Barkingside"},{"icsId":"1000381","id":"490000381Y","lat":51.59659,"lon":0.09547,"name":"Fairlop Waters","parentId":"490G000032","stationId":"490G000032","stopLetter":"->W","topMostParentId":"490G000032","towards":"Barkingside"},{"icsId":"1000079","id":"490000079W","lat":51.5953,"lon":0.09087,"name":"Fairlop Station","stopLetter":"S","topMostParentId":"490000079W","towards":"Barkingside","zone":"4"},{"icsId":"1000380","id":"490000380Z","lat":51.59429,"lon":0.08719,"name":"Kantor Campus","parentId":"490G000031","stationId":"490G000031","stopLetter":"T","topMostParentId":"490G000031","towards":"Barkingside"},{"icsId":"1007059","id":"490007059D","lat":51.59256,"lon":0.08418,"name":"Fullwell Cross","parentId":"490G00007059","stationId":"490G00007059","stopLetter":"D","topMostParentId":"490G00007059","towards":"Gants Hill Or Newbury Park"},{"icsId":"1014316","id":"490014316G","lat":51.59094,"lon":0.08296,"name":"Waverley Gardens","parentId":"490G00014316","stationId":"490G00014316","stopLetter":"G","topMostParentId":"490G00014316","towards":"Gants Hill Or Newbury Park"},{"icsId":"1003612","id":"490003612H","lat":51.59025,"lon":0.08123,"name":"Barkingside High Street","parentId":"490G00003612","stationId":"490G00003612","stopLetter":"H","topMostParentId":"490G00003612","towards":"Claybury Broadway Or Gants Hill"},{"icsId":"1009341","id":"490009341W","lat":51.58714,"lon":0.06955,"name":"Longwood Gardens","parentId":"490G00009341","stationId":"490G00009341","stopLetter":"->W","topMostParentId":"490G00009341"},{"icsId":"1008200","id":"490008200S","lat":51.58081,"lon":0.06001,"name":"Highwood Gardens","parentId":"490G00008200","stationId":"490G00008200","stopLetter":"WH","topMostParentId":"490G00008200","towards":"Ilford"},{"icsId":"1007240","id":"490007240S","lat":51.57929,"lon":0.06292,"name":"Glenwood Gardens","parentId":"490G00007240","stationId":"490G00007240","stopLetter":"WP","topMostParentId":"490G00007240","towards":"Ilford"},{"icsId":"1015199","id":"490000085A","lat":51.57751,"lon":0.06569,"name":"Gants Hill Station / Woodford Avenue","parentId":"490G000876","stationId":"490G000876","stopLetter":"WQ","topMostParentId":"490G000876","towards":"Ilford"},{"icsId":"1015203","id":"490000085H","lat":51.57642,"lon":0.06484,"name":"Clarence Avenue","parentId":"490G000879","stationId":"490G000879","stopLetter":"EV","topMostParentId":"490G000879","towards":"Ilford Or Leytonstone"},{"icsId":"1003828","id":"490003830S","lat":51.57307,"lon":0.06414,"name":"Beehive Lane","parentId":"490G00003828","stationId":"490G00003828","stopLetter":"->S","topMostParentId":"490G00003828"},{"icsId":"1003828","id":"490003828S1","lat":51.57189,"lon":0.06444,"name":"Mornington Avenue","parentId":"490G00003828","stationId":"490G00003828","stopLetter":"CJ","topMostParentId":"490G00003828","towards":"Ilford"},{"icsId":"1003947","id":"490003947S","lat":51.56924,"lon":0.06461,"name":"Bethell Avenue","parentId":"490G00003947","stationId":"490G00003947","stopLetter":"VA","topMostParentId":"490G00003947","towards":"Ilford"},{"icsId":"1013988","id":"490013988S","lat":51.56704,"lon":0.06584,"name":"Valentines Park","parentId":"490G00013988","stationId":"490G00013988","stopLetter":"VB","topMostParentId":"490G00013988","towards":"Ilford"},{"icsId":"1013331","id":"490013331Z","lat":51.5643,"lon":0.06663,"name":"Northbrook Road","parentId":"490G00013331","stationId":"490G00013331","stopLetter":"VC","topMostParentId":"490G00013331","towards":"Ilford"},{"icsId":"1013311","id":"490013311OB","lat":51.56292,"lon":0.06776,"name":"Coventry Road","parentId":"490G00013311","stationId":"490G00013311","stopLetter":"VJ","topMostParentId":"490G00013311","towards":"Ilford"},{"icsId":"1001157","id":"490005699D","lat":51.56045,"lon":0.06988,"name":"Ilford Station","stopLetter":"D","topMostParentId":"490005699D","towards":"Ilford Town Centre"},{"icsId":"1002268","id":"490004986P","lat":51.55769,"lon":0.07024,"name":"Ilford / Chapel Road","parentId":"490G00002268","stationId":"490G00002268","stopLetter":"P","topMostParentId":"490G00002268","towards":"Barking"},{"icsId":"1008466","id":"490008466R","lat":51.55815,"lon":0.07435,"name":"Redbridge Central Library","parentId":"490G00008466","stationId":"490G00008466","stopLetter":"R","topMostParentId":"490G00008466","towards":"Barking, Goodmayes Or Newbury Park"},{"icsId":"1007657","id":"490007657S","lat":51.55959,"lon":0.07589,"name":"Hainault Street","parentId":"490G00007657","stationId":"490G00007657","stopLetter":"S","topMostParentId":"490G00007657","towards":"Newbury Park"}]}]}