{"direction":"outbound","lineId":"466","lineName":"466","mode":"bus","stopPointSequences":[{"stopPoint":[{"icsId":"1003101","id":"490003101D","lat":51.35658,"lon":-0.03239,"name":"Addington Village Interchange","parentId":"490G000380","stationId":"490G000380","stopLetter":"D","topMostParentId":"490G000380"},{"icsId":"1003094","id":"490003094W","lat":51.35396,"lon":-0.03892,"name":"Addington Park","parentId":"490G000379","stationId":"490G000379","stopLetter":"C","topMostParentId":"490G000379","towards":"Addiscombe Or East Croydon"},{"icsId":"1002041","id":"490002041A","lat":51.35476,"lon":-0.04331,"name":"Gravel Hill Tram Stop","stopLetter":"D","topMostParentId":"490002041A","towards":"Addiscombe Or East Croydon"},{"icsId":"1007993","id":"490007993N","lat":51.35632,"lon":-0.05085,"name":"Heathfield Farm","parentId":"490G00007993","stationId":"490G00007993","stopLetter":"M","topMostParentId":"490G00007993","towards":"Addiscombe Or East Croydon"},{"icsId":"1002024","id":"490002024A","lat":51.35941,"lon":-0.0556,"name":"Coombe Lane Tram Stop","stopLetter":"A","topMostParentId":"490002024A","towards":"Addiscombe Or East Croydon"},{"icsId":"1011005","id":"490011005N","lat":51.36444,"lon":-0.05197,"name":"Pine Coombe","parentId":"490G00011005","stationId":"490G00011005","stopLetter":"N","topMostParentId":"490G00011005","towards":"Addiscombe Or East Croydon"},{"icsId":"1010505","id":"490010505N","lat":51.36661,"lon":-0.05282,"name":"Oaks Road","parentId":"490G00010505","stationId":"490G00010505","stopLetter":"Q","topMostParentId":"490G00010505","towards":"Addiscombe Or East Croydon"},{"icsId":"1012103","id":"490012103N","lat":51.36962,"lon":-0.05453,"name":"Shirley Windmill","parentId":"490G00012103","stationId":"490G00012103","stopLetter":"U","topMostParentId":"490G00012103","towards":"Addiscombe Or East Croydon"},{"icsId":"1012094","id":"490012094N","lat":51.37278,"lon":-0.05597,"name":"Shirley Church Road","parentId":"490G00012094","stationId":"490G00012094","stopLetter":"V","topMostParentId":"490G00012094","towards":"Addiscombe Or East Croydon"},{"icsId":"1012099","id":"490012099E2","lat":51.37596,"lon":-0.06214,"name":"Trinity School","parentId":"490G00012099","stationId":"490G00012099","stopLetter":"P","topMostParentId":"490G00012099","towards":"East Croydon"},{"icsId":"1004014","id":"490004014W","lat":51.37488,"lon":-0.06625,"name":"Birch Tree Way","parentId":"490G00004014","stationId":"490G00004014","stopLetter":"R","topMostParentId":"490G00004014","towards":"East Croydon"},{"icsId":"1009623","id":"490009623W","lat":51.37417,"lon":-0.07016,"name":"Mapledale Avenue","parentId":"490G00009623","stationId":"490G00009623","stopLetter":"S","topMostParentId":"490G00009623","towards":"East Croydon"},{"icsId":"1003420","id":"490003420W2","lat":51.37449,"lon":-0.07421,"name":"Ashburton Road","parentId":"490G00003420","stationId":"490G00003420","stopLetter":"T","topMostParentId":"490G00003420","towards":"South Croydon Or West Croydon"},{"icsId":"1002072","id":"490002072A","lat":51.37508,"lon":-0.07794,"name":"Sandilands Tram Stop","stopLetter":"U","topMostParentId":"490002072A","towards":"South Croydon Or West Croydon"},{"icsId":"1004747","id":"490004747W","lat":51.37502,"lon":-0.08204,"name":"Canning Road","parentId":"490G00004747","stationId":"490G00004747","stopLetter":"V","topMostParentId":"490G00004747","towards":"West Or South Croydon"},{"icsId":"1002052","id":"490002052W","lat":51.37515,"lon":-0.08452,"name":"Lebanon Road Tram Stop","stopLetter":"W","topMostParentId":"490002052W","towards":"West Croydon Or South Croydon"},{"icsId":"1001089","id":"490001089E7","lat":51.37459,"lon":-0.09328,"name":"East Croydon Station","stopLetter":"E7","topMostParentId":"490001089E7","towards":"South Croydon"},{"icsId":"1010839","id":"490010839C3","lat":51.37349,"lon":-0.09793,"name":"Park Street","parentId":"490G00010839","stationId":"490G00010839","stopLetter":"KH","topMostParentId":"490G00010839","towards":"Purley"},{"icsId":"1005855","id":"490005855C15","lat":51.37119,"lon":-0.10031,"name":"Croydon Flyover","parentId":"490G00005855","stationId":"490G00005855","stopLetter":"KP","topMostParentId":"490G00005855","towards":"South Croydon, Purley Or Pampisford Road"},{"icsId":"1005574","id":"490005574S","lat":51.36821,"lon":-0.0992,"name":"Coombe Road","parentId":"490G00005574","stationId":"490G00005574","stopLetter":"W","topMostParentId":"490G00005574","towards":"Purley, Selsdon Or Waddon"},{"icsId":"1013269","id":"490013269S","lat":51.36589,"lon":-0.09897,"name":"Aberdeen Road","parentId":"490G00013269","stationId":"490G00013269","stopLetter":"S","topMostParentId":"490G00013269","towards":"Purley, Selsdon Or Waddon"},{"icsId":"1013100","id":"490013100J","lat":51.36305,"lon":-0.09824,"name":"Swan & Sugar Loaf","parentId":"490G00013100","stationId":"490G00013100","stopLetter":"J","topMostParentId":"490G00013100","towards":"Purley"},{"icsId":"1013920","id":"490013920S","lat":51.36008,"lon":-0.09781,"name":"Upland Road","parentId":"490G00013920","stationId":"490G00013920","stopLetter":"GH","topMostParentId":"490G00013920","towards":"Purley"},{"icsId":"1007670","id":"490007670S","lat":51.35694,"lon":-0.0977,"name":"Haling Park Road","parentId":"490G00007670","stationId":"490G00007670","stopLetter":"GJ","topMostParentId":"490G00007670","towards":"Purley"},{"icsId":"1012272","id":"490015442S","lat":51.35387,"lon":-0.09748,"name":"South Croydon Bus Garage","parentId":"490G00012272","stationId":"490G00012272","stopLetter":"GK","topMostParentId":"490G00012272","towards":"Purley"},{"icsId":"1011481","id":"490011481S","lat":51.35193,"lon":-0.09838,"name":"Sanderstead Road","parentId":"490G00011481","stationId":"490G00011481","stopLetter":"GL","topMostParentId":"490G00011481","towards":"Purley"},{"icsId":"1013603","id":"490013603C","lat":51.34982,"lon":-0.10023,"name":"Purley Oaks Station","parentId":"490G00013603","stationId":"490G00013603","stopLetter":"GM","topMostParentId":"490G00013603","towards":"Purley"},{"icsId":"1003117","id":"490003117B","lat":51.34635,"lon":-0.10302,"name":"Biddulph Road","parentId":"490G00003117","stationId":"490G00003117","stopLetter":"GN","topMostParentId":"490G00003117","towards":"Purley"},{"icsId":"1013543","id":"490013543S","lat":51.34403,"lon":-0.10678,"name":"Brighton Road / Purley Downs Road","parentId":"490G00013543","stationId":"490G00013543","stopLetter":"K","topMostParentId":"490G00013543","towards":"Coulsdon Or Kenley"},{"icsId":"1010002","id":"490010002S","lat":51.34203,"lon":-0.11051,"name":"Montpelier Road","parentId":"490G00010002","stationId":"490G00010002","stopLetter":"L","topMostParentId":"490G00010002","towards":"Coulsdon Or Kenley"},{"icsId":"1011259","id":"490011259G","lat":51.33928,"lon":-0.11566,"name":"Purley / Downlands Precinct","parentId":"490G00011259","stationId":"490G00011259","stopLetter":"G","topMostParentId":"490G00011259","towards":"Coulsdon, Kenley Or Sanderstead"},{"icsId":"1011274","id":"490011274T","lat":51.33689,"lon":-0.1184,"name":"Purley Tesco","parentId":"490G000716","stationId":"490G000716","stopLetter":"T","topMostParentId":"490G000716","towards":"Old Coulsdon Or Old Lodge Lane"},{"icsId":"1007560","id":"490007560S","lat":51.33418,"lon":-0.12161,"name":"Grovelands Road","parentId":"490G00007560","stationId":"490G00007560","stopLetter":"RE","topMostParentId":"490G00007560","towards":"Coulsdon, Old Coulsdon Or Old Lodge Lane"},{"icsId":"1010565","id":"490010565D","lat":51.33209,"lon":-0.12412,"name":"Brighton Road / Old Lodge Lane","parentId":"490G000687","stationId":"490G000687","stopLetter":"RF","topMostParentId":"490G000687","towards":"Coulsdon, Old Coulsdon Or Old Lodge Lane"},{"icsId":"1014421","id":"490014421S","lat":51.32975,"lon":-0.12626,"name":"Musgrove Close","parentId":"490G00014421","stationId":"490G00014421","stopLetter":"RH","topMostParentId":"490G00014421","towards":"Coulsdon Or Old Coulsdon"},{"icsId":"1015438","id":"490015438S","lat":51.32773,"lon":-0.12798,"name":"Smitham Downs Road","parentId":"490G00015438","stationId":"490G00015438","stopLetter":"RJ","topMostParentId":"490G00015438","towards":"Coulsdon Or Old Coulsdon"},{"icsId":"1012207","id":"490012207W1","lat":51.32619,"lon":-0.12983,"name":"Windermere Road","parentId":"490G00012207","stationId":"490G00012207","stopLetter":"RL","topMostParentId":"490G00012207","towards":"Caterham-On-The-Hill"},{"icsId":"1012821","id":"490012821S","lat":51.323,"lon":-0.12863,"name":"Stoats Nest Village","parentId":"490G00012821","stationId":"490G00012821","stopLetter":"->S","topMostParentId":"490G00012821","towards":"Caterham-On-The-Hill"},{"icsId":"1004901","id":"490004901S","lat":51.31909,"lon":-0.12676,"name":"Cearn Way","parentId":"490G00004901","stationId":"490G00004901","stopLetter":"->S","topMostParentId":"490G00004901","towards":"Caterham-On-The-Hill"},{"icsId":"1005639","id":"490005639S","lat":51.31471,"lon":-0.12421,"name":"Coulsdon Court Road","parentId":"490G00005639","stationId":"490G00005639","stopLetter":"->S","topMostParentId":"490G00005639","towards":"Caterham-On-The-Hill"},{"icsId":"1012862","id":"490012862S","lat":51.31189,"lon":-0.12289,"name":"Oasis Academy Byron","parentId":"490G00012862","stationId":"490G00012862","stopLetter":"->S","topMostParentId":"490G00012862","towards":"Caterham-On-The-Hill"},{"icsId":"1010535","id":"490010535S","lat":51.30737,"lon":-0.12045,"name":"Old Coulsdon / Tudor Rose","parentId":"490G00010535","stationId":"490G00010535","stopLetter":"H","topMostParentId":"490G00010535","towards":"Caterham-On-The-Hill"},{"icsId":"1013317","id":"490013317S2","lat":51.30415,"lon":-0.11865,"name":"The Crossways","parentId":"490G00013317","stationId":"490G00013317","stopLetter":"J","topMostParentId":"490G00013317","towards":"Caterham-On-The-Hill"},{"icsId":"1013168","id":"490013168S","lat":51.30255,"lon":-0.11825,"name":"Taunton Lane","parentId":"490G00013168","stationId":"490G00013168","stopLetter":"K","topMostParentId":"490G00013168","towards":"Caterham-On-The-Hill"},{"icsId":"1008895","id":"490008895S","lat":51.2993,"lon":-0.11606,"name":"Coulsdon Road / Lacey Drive","parentId":"490G00008895","stationId":"490G00008895","stopLetter":"->S","topMostParentId":"490G00008895","towards":"Caterham-On-The-Hill"},{"icsId":"1005638","id":"490005638S","lat":51.29621,"lon":-0.10865,"name":"Coulsdon Common / the Fox","parentId":"490G00005638","stationId":"490G00005638","stopLetter":"->S","topMostParentId":"490G00005638","towards":"Caterham-on-the-hill"},{"icsId":"1007920","id":"40004410093B","lat":51.294782,"lon":-0.105132,"name":"Hawarden Road","parentId":"400G4410093A","stationId":"400G4410093A","topMostParentId":"400G4410093A","towards":"Caterham-On-The-Hill"},{"icsId":"1004858","id":"40004410091B","lat":51.291857,"lon":-0.101079,"name":"Caterham-On-The-Hill / Tesco","parentId":"400G4410091B","stationId":"400G4410091B","topMostParentId":"400G4410091B","towards":"Caterham Valley"},{"icsId":"1015008","id":"40004410038A","lat":51.28919,"lon":-0.099153,"name":"Yorke Gate","parentId":"400G4410038A","stationId":"400G4410038A","topMostParentId":"400G4410038A","towards":"Caterham Valley"},{"icsId":"1015490","id":"40004410037A","lat":51.287571,"lon":-0.09354,"name":"Westway","topMostParentId":"40004410037A","towards":"Old Coulsdon"}]}]}