{"direction":"outbound","lineId":"468","lineName":"468","mode":"bus","stopPointSequences":[{"stopPoint":[{"icsId":"1013100","id":"490013100G","lat":51.36323,"lon":-0.09854,"name":"Swan & Sugar Loaf","parentId":"490G00013100","stationId":"490G00013100","stopLetter":"G","topMostParentId":"490G00013100","towards":"West Croydon"},{"icsId":"1005574","id":"490005574V","lat":51.36725,"lon":-0.09908,"name":"Coombe Road","parentId":"490G00005574","stationId":"490G00005574","stopLetter":"V","topMostParentId":"490G00005574","towards":"West Croydon"},{"icsId":"1005855","id":"490005855C1","lat":51.37002,"lon":-0.10002,"name":"Croydon Flyover","parentId":"490G00005855","stationId":"490G00005855","stopLetter":"KS","topMostParentId":"490G00005855","towards":"West Croydon"},{"icsId":"1006706","id":"490006706C9","lat":51.37322,"lon":-0.09682,"name":"Fairfield Halls","parentId":"490G00006706","stationId":"490G00006706","stopLetter":"KD","topMostParentId":"490G00006706","towards":"West Croydon"},{"icsId":"1014614","id":"490014614E15","lat":51.3761,"lon":-0.0984,"name":"Whitgift Centre","parentId":"490G00014614","stationId":"490G00014614","stopLetter":"WL","topMostParentId":"490G00014614","towards":"Thornton Heath"},{"icsId":"1006027","id":"490006027W9","lat":51.37884,"lon":-0.10015,"name":"Delta Point","parentId":"490G00006027","stationId":"490G00006027","stopLetter":"WP","topMostParentId":"490G00006027","towards":"Norbury Or Upper Norwood"},{"icsId":"1003793","id":"490003793N","lat":51.38137,"lon":-0.09939,"name":"Bedford Hall","parentId":"490G00003793","stationId":"490G00003793","stopLetter":"K","topMostParentId":"490G00003793","towards":"Addiscombe, Selhurst Or Thornton Heath"},{"icsId":"1008271","id":"490008271E","lat":51.38367,"lon":-0.09961,"name":"Hogarth Crescent","parentId":"490G00008271","stationId":"490G00008271","stopLetter":"L","topMostParentId":"490G00008271","towards":"Selhurst Or Thornton Heath"},{"icsId":"1013376","id":"490013376N","lat":51.38636,"lon":-0.09694,"name":"Devonshire Road","parentId":"490G00013376","stationId":"490G00013376","stopLetter":"J","topMostParentId":"490G00013376","towards":"Selhurst Or Thornton Heath"},{"icsId":"1013314","id":"490013314N","lat":51.39077,"lon":-0.09473,"name":"The Crescent","parentId":"490G00013314","stationId":"490G00013314","stopLetter":"S","topMostParentId":"490G00013314","towards":"Thornton Heath High Street"},{"icsId":"1010868","id":"490010868N","lat":51.39355,"lon":-0.09382,"name":"Pawsons Road","parentId":"490G00010868","stationId":"490G00010868","stopLetter":"T","topMostParentId":"490G00010868","towards":"Norbury Or Upper Norwood"},{"icsId":"1015026","id":"490015026M","lat":51.39684,"lon":-0.09268,"name":"Talbot Road","parentId":"490G00015026","stationId":"490G00015026","stopLetter":"M","topMostParentId":"490G00015026","towards":"Norbury Or Upper Norwood"},{"icsId":"1005424","id":"490005424E","lat":51.39874,"lon":-0.08909,"name":"Clifton Road","parentId":"490G00005424","stationId":"490G00005424","stopLetter":"->E","topMostParentId":"490G00005424","towards":"Norwood Junction Or Upper Norwood"},{"icsId":"1010818","id":"490010818N","lat":51.40041,"lon":-0.08526,"name":"Selhurst Park Stadium","parentId":"490G00010818","stationId":"490G00010818","stopLetter":"->N","topMostParentId":"490G00010818","towards":"Upper Norwood"},{"icsId":"1014621","id":"490014621N","lat":51.40231,"lon":-0.0835,"name":"Whitworth Road","parentId":"490G00014621","stationId":"490G00014621","stopLetter":"->N","topMostParentId":"490G00014621","towards":"Upper Norwood"},{"icsId":"1008410","id":"490008410N","lat":51.40471,"lon":-0.08209,"name":"Howden Road","parentId":"490G00008410","stationId":"490G00008410","stopLetter":"NA","topMostParentId":"490G00008410","towards":"Crown Point"},{"icsId":"1014227","id":"490014227N","lat":51.40646,"lon":-0.08473,"name":"Wharncliffe Gardens","parentId":"490G00014227","stationId":"490G00014227","stopLetter":"NB","topMostParentId":"490G00014227","towards":"Crown Point"},{"icsId":"1007344","id":"490007344N","lat":51.40778,"lon":-0.08606,"name":"Grange Avenue","parentId":"490G00007344","stationId":"490G00007344","stopLetter":"NC","topMostParentId":"490G00007344","towards":"Crown Point"},{"icsId":"1018970","id":"490003242N","lat":51.40906,"lon":-0.08674,"name":"South Norwood Hill / All Saints Church","parentId":"490G00018970","stationId":"490G00018970","stopLetter":"ND","topMostParentId":"490G00018970","towards":"Crown Point"},{"icsId":"1013929","id":"490013929N","lat":51.4119,"lon":-0.08809,"name":"Upper Beulah Hill","parentId":"490G00013929","stationId":"490G00013929","stopLetter":"NE","topMostParentId":"490G00013929","towards":"Streatham Or West Norwood"},{"icsId":"1003959","id":"490003959N","lat":51.41453,"lon":-0.09291,"name":"Beulah Spa","parentId":"490G00003959","stationId":"490G00003959","stopLetter":"NH","topMostParentId":"490G00003959","towards":"Streatham Or West Norwood"},{"icsId":"1015337","id":"490015337N","lat":51.4171,"lon":-0.09835,"name":"Hermitage Road","parentId":"490G00015337","stationId":"490G00015337","stopLetter":"NJ","topMostParentId":"490G00015337","towards":"Streatham Or West Norwood"},{"icsId":"1005559","id":"490005559N","lat":51.4184,"lon":-0.10151,"name":"Convent Hill","parentId":"490G00005559","stationId":"490G00005559","stopLetter":"NK","topMostParentId":"490G00005559","towards":"Streatham Or West Norwood"},{"icsId":"1003992","id":"490003992N","lat":51.41891,"lon":-0.10502,"name":"Biggin Hill","parentId":"490G00003992","stationId":"490G00003992","stopLetter":"NL","topMostParentId":"490G00003992","towards":"Streatham Or West Norwood"},{"icsId":"1005839","id":"490005839N","lat":51.42172,"lon":-0.10629,"name":"Crown Point / Beulah Hill","parentId":"490G00005839","stationId":"490G00005839","stopLetter":"CS","topMostParentId":"490G00005839","towards":"Streatham Or West Norwood"},{"icsId":"1005840","id":"490005840N","lat":51.42304,"lon":-0.10574,"name":"Crown Point / Knights Hill","parentId":"490G00005840","stationId":"490G00005840","stopLetter":"CL","topMostParentId":"490G00005840","towards":"Tulse Hill"},{"icsId":"1020110","id":"490020110N","lat":51.42477,"lon":-0.10536,"name":"Lakeview Road","parentId":"490G00020110","stationId":"490G00020110","stopLetter":"->N","topMostParentId":"490G00020110","towards":"Upper Norwood"},{"icsId":"1012969","id":"490012969N","lat":51.4271,"lon":-0.10487,"name":"West Norwood Fire Station","parentId":"490G00012969","stationId":"490G00012969","stopLetter":"CM","topMostParentId":"490G00012969","towards":"Tulse Hill"},{"icsId":"1012754","id":"490012754N","lat":51.43015,"lon":-0.10441,"name":"St Julian's Farm Road","parentId":"490G00012754","stationId":"490G00012754","stopLetter":"Y","topMostParentId":"490G00012754","towards":"Brixton, Herne Hill Or Streatham"},{"icsId":"1001331","id":"490001331W","lat":51.43236,"lon":-0.10398,"name":"West Norwood Station","stopLetter":"W","topMostParentId":"490001331W","towards":"Brixton, Herne Hill Or Streatham"},{"icsId":"1013670","id":"490013655M","lat":51.4349,"lon":-0.10404,"name":"Norwood Road / Robson Road","parentId":"490G00013670","stationId":"490G00013670","stopLetter":"M","topMostParentId":"490G00013670","towards":"Herne Hill"},{"icsId":"1008927","id":"490008927J","lat":51.43719,"lon":-0.1054,"name":"Lancaster Avenue","parentId":"490G00008927","stationId":"490G00008927","stopLetter":"J","topMostParentId":"490G00008927","towards":"Herne Hill"},{"icsId":"1001298","id":"490001298F1","lat":51.44072,"lon":-0.10632,"name":"Tulse Hill Station","stopLetter":"F","topMostParentId":"490001298F1","towards":"Herne Hill"},{"icsId":"1013656","id":"490013656B","lat":51.44212,"lon":-0.10579,"name":"Thurlow Park Road","parentId":"490G00013656","stationId":"490G00013656","stopLetter":"B","topMostParentId":"490G00013656","towards":"Brixton Or Denmark Hill"},{"icsId":"1006058","id":"490006058N","lat":51.44448,"lon":-0.10503,"name":"Deronda Road","parentId":"490G00006058","stationId":"490G00006058","stopLetter":"->N","topMostParentId":"490G00006058","towards":"Brixton Or Denmark Hill"},{"icsId":"1004404","id":"490004404N","lat":51.44657,"lon":-0.1049,"name":"Brockwell Park Gardens","parentId":"490G00004404","stationId":"490G00004404","stopLetter":"Q","topMostParentId":"490G00004404","towards":"Brixton Or Camberwell"},{"icsId":"1011701","id":"490011701N","lat":51.44909,"lon":-0.10177,"name":"Rosendale Road","parentId":"490G00011701","stationId":"490G00011701","stopLetter":"A","topMostParentId":"490G00011701","towards":"Brixton Or Denmark Hill"},{"icsId":"1004403","id":"490004403N","lat":51.45154,"lon":-0.10124,"name":"Brockwell Park","parentId":"490G000428","stationId":"490G000428","stopLetter":"H","topMostParentId":"490G000428","towards":"Brixton Or Camberwell"},{"icsId":"1001149","id":"490001149B","lat":51.45348,"lon":-0.10117,"name":"Herne Hill Station","stopLetter":"B","topMostParentId":"490001149B","towards":"Camberwell Green"},{"icsId":"1008294","id":"490008294N","lat":51.45572,"lon":-0.09871,"name":"Hollingbourne Road","parentId":"490G00008294","stationId":"490G00008294","stopLetter":"S","topMostParentId":"490G00008294","towards":"Camberwell Green"},{"icsId":"1006992","id":"490006992N","lat":51.4572,"lon":-0.09625,"name":"Frankfurt Road","parentId":"490G00006992","stationId":"490G00006992","stopLetter":"T","topMostParentId":"490G00006992","towards":"Camberwell Green"},{"icsId":"1011491","id":"490011491N","lat":51.4601,"lon":-0.09366,"name":"Herne Hill Road","parentId":"490G00011491","stationId":"490G00011491","stopLetter":"->N","topMostParentId":"490G00011491","towards":"Camberwell Green"},{"icsId":"1013027","id":"490013027N","lat":51.46192,"lon":-0.09165,"name":"Deepdene Road","parentId":"490G00013027","stationId":"490G00013027","stopLetter":"N","topMostParentId":"490G00013027","towards":"Elephant & Castle Or Bricklayers Arms"},{"icsId":"1004092","id":"490004092N","lat":51.46415,"lon":-0.0906,"name":"Blanchedowne","parentId":"490G00004092","stationId":"490G00004092","stopLetter":"P","topMostParentId":"490G00004092","towards":"Elephant & Castle"},{"icsId":"1004973","id":"490004973H1","lat":51.46703,"lon":-0.09078,"name":"Champion Hill","parentId":"490G00004973","stationId":"490G00004973","stopLetter":"Q","topMostParentId":"490G00004973","towards":"Elephant & Castle Or Bricklayers Arms"},{"icsId":"1008764","id":"490008764H5","lat":51.46954,"lon":-0.0927,"name":"King's College Hospital","parentId":"490G00008764","stationId":"490G00008764","stopLetter":"R","topMostParentId":"490G00008764","towards":"Oval, Elephant & Castle Or Bricklayers Arms"},{"icsId":"1005464","id":"490005464W","lat":51.47148,"lon":-0.09308,"name":"Coldharbour Lane","parentId":"490G00005464","stationId":"490G00005464","stopLetter":"W","topMostParentId":"490G00005464","towards":"Oval, Elephant & Castle Or Bricklayers Arms"},{"icsId":"1004687","id":"490004687S","lat":51.47306,"lon":-0.09329,"name":"Denmark Hill / Camberwell Green","parentId":"490G00004687","stationId":"490G00004687","stopLetter":"S","topMostParentId":"490G00004687","towards":"Oval Or Elephant & Castle"},{"icsId":"1015298","id":"490015298F","lat":51.47529,"lon":-0.09328,"name":"Camberwell Green","parentId":"490G00015298","stationId":"490G00015298","stopLetter":"F","topMostParentId":"490G00015298","towards":"Elephant & Castle"},{"icsId":"1009784","id":"490009784D","lat":51.47682,"lon":-0.09408,"name":"Medlar Street","parentId":"490G00009784","stationId":"490G00009784","stopLetter":"D","topMostParentId":"490G00009784","towards":"Elephant & Castle"},{"icsId":"1014979","id":"490014979N2","lat":51.4785,"lon":-0.09423,"name":"Wyndham Road","parentId":"490G00014979","stationId":"490G00014979","stopLetter":"U","topMostParentId":"490G00014979","towards":"Tower Bridge Or Elephant & Castle"},{"icsId":"1004221","id":"490004221N","lat":51.48058,"lon":-0.09446,"name":"Bowyer Place","parentId":"490G00004221","stationId":"490G00004221","stopLetter":"Z","topMostParentId":"490G00004221","towards":"Tower Bridge Or Elephant & Castle"},{"icsId":"1003138","id":"490003138N2","lat":51.48168,"lon":-0.09454,"name":"Camberwell Road / Albany Road","parentId":"490G00003138","stationId":"490G00003138","stopLetter":"X","topMostParentId":"490G00003138","towards":"Tower Bridge Or Elephant & Castle"},{"icsId":"1014501","id":"490014501M","lat":51.4841,"lon":-0.09407,"name":"Westmoreland Road","parentId":"490G00014501","stationId":"490G00014501","stopLetter":"M","topMostParentId":"490G00014501","towards":"Waterloo Or Westminster"},{"icsId":"1006380","id":"490006380H","lat":51.48694,"lon":-0.09523,"name":"East Street","parentId":"490G00006380","stationId":"490G00006380","stopLetter":"H","topMostParentId":"490G00006380","towards":"Waterloo Or Westminster"},{"icsId":"1008975","id":"490008975C","lat":51.48997,"lon":-0.09689,"name":"Larcom Street","parentId":"490G00008975","stationId":"490G00008975","stopLetter":"C","topMostParentId":"490G00008975","towards":"Waterloo Or Westminster"},{"icsId":"1008122","id":"490008122N","lat":51.4914,"lon":-0.09784,"name":"Heygate Street","parentId":"490G00008122","stationId":"490G00008122","stopLetter":"Z","topMostParentId":"490G00008122","towards":"Waterloo Or Westminster"},{"icsId":"1000073","id":"490000073V","lat":51.49447,"lon":-0.10085,"name":"Elephant & Castle Station","stopLetter":"V","topMostParentId":"490000073V","towards":"Waterloo Or Westminster","zone":"1+2"},{"icsId":"1009297","id":"490000073F","lat":51.49643,"lon":-0.09998,"name":"Elephant & Castle / Newington Causeway","parentId":"490G000644","stationId":"490G000644","stopLetter":"F","topMostParentId":"490G000644","towards":"Southwark Bridge, Bermondsey Or London Bridge"},{"icsId":"1003548","id":"490012354N","lat":51.49859,"lon":-0.09783,"name":"Inner London Crown Court","parentId":"490G00003548","stationId":"490G00003548","stopLetter":"P","topMostParentId":"490G00003548","towards":"London Bridge Or Rotherhithe"},{"icsId":"1004158","id":"490003871DS","lat":51.49903,"lon":-0.09934,"name":"Borough Road","parentId":"490G00004158","stationId":"490G00004158","stopLetter":"->W","topMostParentId":"490G00004158","towards":"Camberwell"}]}]}