{"direction":"outbound","lineId":"470","lineName":"470","mode":"bus","stopPointSequences":[{"stopPoint":[{"icsId":"1000055","id":"490005223C","lat":51.41772,"lon":-0.17813,"name":"Colliers Wood Station","stopLetter":"C","topMostParentId":"490005223C","towards":"South Wimbledon, Wimbledon Or Morden","zone":"3"},{"icsId":"1005223","id":"490005223K","lat":51.41598,"lon":-0.17807,"name":"Christ Church","parentId":"490G00005223","stationId":"490G00005223","stopLetter":"K","topMostParentId":"490G00005223","towards":"Mitcham Or Morden"},{"icsId":"1016304","id":"490016304W","lat":51.41416,"lon":-0.18114,"name":"Merton Abbey","parentId":"490G00016304","stationId":"490G00016304","stopLetter":"P","topMostParentId":"490G00016304","towards":"Morden"},{"icsId":"1002060","id":"490008586C","lat":51.41081,"lon":-0.19237,"name":"Morden Road Tram Stop","stopLetter":"SK","topMostParentId":"490008586C","towards":"North Cheam Or St Helier"},{"icsId":"1006133","id":"490006133B","lat":51.40675,"lon":-0.19198,"name":"Dorset Road","parentId":"490G000486","stationId":"490G000486","stopLetter":"B","topMostParentId":"490G000486","towards":"North Cheam Or St Helier"},{"icsId":"1010020","id":"490010020D","lat":51.40381,"lon":-0.19148,"name":"Kenley Road","parentId":"490G00010020","stationId":"490G00010020","stopLetter":"D","topMostParentId":"490G00010020","towards":"North Cheam Or St Helier"},{"icsId":"1015390","id":"490000151H","lat":51.40241,"lon":-0.19381,"name":"London Road / Morden Station","parentId":"490G000892","stationId":"490G000892","stopLetter":"H","topMostParentId":"490G000892","towards":"Sutton"},{"icsId":"1000151","id":"490000151C","lat":51.40246,"lon":-0.19432,"name":"Morden Station","stopLetter":"C","topMostParentId":"490000151C","towards":"Mitcham, Rosehill Or St Helier","zone":"4"},{"icsId":"1010021","id":"490010021E","lat":51.40281,"lon":-0.19103,"name":"Morden Hall","parentId":"490G00010021","stationId":"490G00010021","stopLetter":"E","topMostParentId":"490G00010021","towards":"Hackbridge, Mitcham Or Rosehill"},{"icsId":"1004931","id":"490004931S","lat":51.3997,"lon":-0.18773,"name":"Morden Hall Road / Central Road","parentId":"490G00004931","stationId":"490G00004931","stopLetter":"P","topMostParentId":"490G00004931","towards":"Hackbridge, Mitcham Or Rosehill"},{"icsId":"1009839","id":"490009839S1","lat":51.39641,"lon":-0.19085,"name":"The Willows","parentId":"490G00009839","stationId":"490G00009839","stopLetter":"C","topMostParentId":"490G00009839","towards":"Sutton"},{"icsId":"1010026","id":"490010026S2","lat":51.39513,"lon":-0.19282,"name":"Abbotsbury Road","parentId":"490G00010026","stationId":"490G00010026","stopLetter":"D","topMostParentId":"490G00010026","towards":"Sutton"},{"icsId":"1006749","id":"490006749S","lat":51.39263,"lon":-0.19235,"name":"Farm Road","parentId":"490G00006749","stationId":"490G00006749","stopLetter":"->S","topMostParentId":"490G00006749"},{"icsId":"1012440","id":"490012440W","lat":51.38654,"lon":-0.19655,"name":"Love Lane St Helier","parentId":"490G00012440","stationId":"490G00012440","stopLetter":"->W","topMostParentId":"490G00012440"},{"icsId":"1006935","id":"490006935E","lat":51.38396,"lon":-0.20191,"name":"Forest Road / Sutton","parentId":"490G00006935","stationId":"490G00006935","stopLetter":"->E","topMostParentId":"490G00006935"},{"icsId":"1013065","id":"490013065S","lat":51.37932,"lon":-0.20114,"name":"Glenthorne High School","parentId":"490G00013065","stationId":"490G00013065","stopLetter":"SB","topMostParentId":"490G00013065","towards":"Sutton"},{"icsId":"1013069","id":"490013069S","lat":51.37681,"lon":-0.19887,"name":"Broomloan Lane","parentId":"490G00013069","stationId":"490G00013069","stopLetter":"->S","topMostParentId":"490G00013069"},{"icsId":"1020241","id":"490020241W","lat":51.37489,"lon":-0.19864,"name":"Marlborough Road Benhilton","parentId":"490G00020241","stationId":"490G00020241","stopLetter":"->W","topMostParentId":"490G00020241"},{"icsId":"1020242","id":"490020242W","lat":51.37465,"lon":-0.20163,"name":"Dibdin Road","parentId":"490G00020242","stationId":"490G00020242","stopLetter":"->W","topMostParentId":"490G00020242"},{"icsId":"1020243","id":"490020243E","lat":51.37245,"lon":-0.19813,"name":"Pylbrook Road","parentId":"490G00020243","stationId":"490G00020243","stopLetter":"->E","topMostParentId":"490G00020243"},{"icsId":"1013072","id":"490013072B","lat":51.3698,"lon":-0.19493,"name":"Sutton Green","parentId":"490G00013072","stationId":"490G00013072","stopLetter":"B","topMostParentId":"490G00013072","towards":"Belmont, Carshalton Beeches Or Cheam"},{"icsId":"1013062","id":"490013062C","lat":51.36787,"lon":-0.19497,"name":"High Street / Marshalls Road","parentId":"490G00013062","stationId":"490G00013062","stopLetter":"C","topMostParentId":"490G00013062","towards":"Belmont, Cheam Or West Sutton"},{"icsId":"1003892","id":"490003892E","lat":51.36717,"lon":-0.19331,"name":"Benhill Avenue","parentId":"490G00003892","stationId":"490G00003892","stopLetter":"E","topMostParentId":"490G00003892","towards":"Belmont Or North Cheam"},{"icsId":"1009575","id":"490009575I","lat":51.36548,"lon":-0.19268,"name":"Manor Place","parentId":"490G00009575","stationId":"490G00009575","stopLetter":"I","topMostParentId":"490G00009575","towards":"Belmont, Carshalton Or North Cheam"},{"icsId":"1013679","id":"490013679J","lat":51.36374,"lon":-0.1919,"name":"Times Square","parentId":"490G00013679","stationId":"490G00013679","stopLetter":"J","topMostParentId":"490G00013679","towards":"Belmont, Carshalton Or North Cheam"},{"icsId":"1013081","id":"490013081K","lat":51.36165,"lon":-0.19069,"name":"Sutton Police Station","parentId":"490G00013081","stationId":"490G00013081","stopLetter":"K","topMostParentId":"490G00013081","towards":"Belmont, Carshalton Or North Cheam"},{"icsId":"1001286","id":"490001286O","lat":51.35914,"lon":-0.19119,"name":"Sutton Station","stopLetter":"O","topMostParentId":"490001286O","towards":"Belmont Or Carshalton Beeches"},{"icsId":"1001286","id":"490013060Z","lat":51.35893,"lon":-0.19068,"name":"Sutton Station","stopLetter":"AD","topMostParentId":"490013060Z","towards":"Morden And Colliers Wood"}]}]}