{"direction":"outbound","lineId":"476","lineName":"476","mode":"bus","stopPointSequences":[{"stopPoint":[{"icsId":"1001213","id":"490001213S","lat":51.60258,"lon":-0.05534,"name":"Northumberland Park","stopLetter":"NA","topMostParentId":"490001213S","towards":"Tottenham Or Wood Green"},{"icsId":"1004961","id":"490004961W","lat":51.59922,"lon":-0.05879,"name":"Chalgrove Road","parentId":"490G00004961","stationId":"490G00004961","stopLetter":"NJ","topMostParentId":"490G00004961","towards":"Tottenham Or North Middlesex Hospital"},{"icsId":"1012383","id":"490012383W","lat":51.5989,"lon":-0.06265,"name":"Spencer Road","parentId":"490G00012383","stationId":"490G00012383","stopLetter":"NK","topMostParentId":"490G00012383","towards":"Tottenham Or North Middlesex Hospital"},{"icsId":"1013731","id":"490013731F","lat":51.59852,"lon":-0.06765,"name":"Tottenham High Road","parentId":"490G00013731","stationId":"490G00013731","stopLetter":"W","topMostParentId":"490G00013731","towards":"Tottenham Or North Middlesex Hospital"},{"icsId":"1011950","id":"490011950S","lat":51.59725,"lon":-0.06802,"name":"Scotland Green","parentId":"490G00011950","stationId":"490G00011950","stopLetter":"B","topMostParentId":"490G00011950","towards":"Manor House Or Stamford Hill"},{"icsId":"1019454","id":"490019454S","lat":51.59305,"lon":-0.06965,"name":"Tottenham High Road / Bruce Grove Stn","parentId":"490G00019454","stationId":"490G00019454","stopLetter":"C","topMostParentId":"490G00019454","towards":"Manor House Or Stamford Hill"},{"icsId":"1013736","id":"490013736T","lat":51.59125,"lon":-0.06988,"name":"Tottenham Police Station","parentId":"490G00013736","stationId":"490G00013736","stopLetter":"D","topMostParentId":"490G00013736","towards":"Manor House Or Stamford Hill"},{"icsId":"1015083","id":"490013739N","lat":51.58793,"lon":-0.07066,"name":"Tottenham Town Hall","parentId":"490G000860","stationId":"490G000860","stopLetter":"W","topMostParentId":"490G000860","towards":"Manor House Or Stamford Hill"},{"icsId":"1013739","id":"490015083G","lat":51.5857,"lon":-0.0716,"name":"College of North East London","parentId":"490G00013739","stationId":"490G00013739","stopLetter":"G","topMostParentId":"490G00013739","towards":"Manor House Or Stamford Hill"},{"icsId":"1000201","id":"490015081Q","lat":51.58318,"lon":-0.07208,"name":"Seven Sisters Station","stopLetter":"K","topMostParentId":"490015081Q","towards":"Stoke Newington","zone":"3"},{"icsId":"1001264","id":"490001264W","lat":51.58058,"lon":-0.07256,"name":"South Tottenham Station","stopLetter":"TD","topMostParentId":"490001264W","towards":"Stoke Newington"},{"icsId":"1012433","id":"490012433S","lat":51.57775,"lon":-0.07302,"name":"St Ann's Road","parentId":"490G00012433","stationId":"490G00012433","stopLetter":"TE","topMostParentId":"490G00012433","towards":"Stoke Newington"},{"icsId":"1006456","id":"490006456F","lat":51.5745,"lon":-0.07226,"name":"Egerton Road","parentId":"490G00006456","stationId":"490G00006456","stopLetter":"SK","topMostParentId":"490G00006456","towards":"Stoke Newington"},{"icsId":"1012524","id":"490012524SH","lat":51.57254,"lon":-0.07251,"name":"Stamford Hill Broadway","parentId":"490G00012524","stationId":"490G00012524","stopLetter":"SH","topMostParentId":"490G00012524","towards":"Newington Green"},{"icsId":"1006261","id":"490006261S","lat":51.56997,"lon":-0.07279,"name":"Stamford Hill Library","parentId":"490G00006261","stationId":"490G00006261","stopLetter":"SM","topMostParentId":"490G00006261","towards":"Dalston Junction Or Newington Green"},{"icsId":"1009477","id":"490009477S","lat":51.56776,"lon":-0.07294,"name":"Lynmouth Road","parentId":"490G00009477","stationId":"490G00009477","stopLetter":"SN","topMostParentId":"490G00009477","towards":"Dalston Junction Or Newington Green"},{"icsId":"1001273","id":"490001273C","lat":51.56478,"lon":-0.07305,"name":"Stoke Newington Station","stopLetter":"C","topMostParentId":"490001273C","towards":"Clapton Pond, Dalston Or Newington Green"},{"icsId":"1010427","id":"490010427D","lat":51.56302,"lon":-0.07187,"name":"Northwold Road / Stoke Newington Common","parentId":"490G00010427","stationId":"490G00010427","stopLetter":"D","topMostParentId":"490G00010427","towards":"Newington Green, Clapton Pond Or Dalston"},{"icsId":"1004452","id":"490004452U","lat":51.56065,"lon":-0.07344,"name":"Stoke Newington High Street","parentId":"490G00004452","stationId":"490G00004452","stopLetter":"U","topMostParentId":"490G00004452","towards":"Highbury Corner Or Newington Green"},{"icsId":"1014699","id":"490014699V","lat":51.56205,"lon":-0.07547,"name":"William Patten School","parentId":"490G00014699","stationId":"490G00014699","stopLetter":"V","topMostParentId":"490G00014699","towards":"Highbury Corner Or Newington Green"},{"icsId":"1004202","id":"490004202W","lat":51.56218,"lon":-0.07801,"name":"Abney Park","parentId":"490G00004202","stationId":"490G00004202","stopLetter":"->W","topMostParentId":"490G00004202","towards":"Highbury Corner Or Newington Green"},{"icsId":"1003003","id":"490012840W2","lat":51.56118,"lon":-0.08293,"name":"Stoke Newington Town Hall","parentId":"490G00003003","stationId":"490G00003003","stopLetter":"->W","topMostParentId":"490G00003003","towards":"Highbury Corner Or Newington Green"},{"icsId":"1003591","id":"490004808S","lat":51.55893,"lon":-0.08243,"name":"Barbauld Road","parentId":"490G00003591","stationId":"490G00003591","stopLetter":"->S","topMostParentId":"490G00003591","towards":"Angel Islington"},{"icsId":"1005432","id":"490005432S2","lat":51.55637,"lon":-0.08394,"name":"Clissold Crescent","parentId":"490G00005432","stationId":"490G00005432","stopLetter":"NA","topMostParentId":"490G00005432","towards":"Angel Islington"},{"icsId":"1019676","id":"490019676NB","lat":51.55248,"lon":-0.08518,"name":"Green Lanes","parentId":"490G000937","stationId":"490G000937","stopLetter":"NB","topMostParentId":"490G000937","towards":"Angel Islington"},{"icsId":"1015396","id":"490015396S","lat":51.55164,"lon":-0.08453,"name":"Newington Green","parentId":"490G000893","stationId":"490G000893","stopLetter":"NE","topMostParentId":"490G000893","towards":"Angel Islington, Finsbury Park Or Hoxton"},{"icsId":"1003915","id":"490003915S","lat":51.5498,"lon":-0.0869,"name":"Beresford Road","parentId":"490G00003915","stationId":"490G00003915","stopLetter":"CA","topMostParentId":"490G00003915","towards":"Angel Islington"},{"icsId":"1003569","id":"490003569S2","lat":51.54721,"lon":-0.08663,"name":"Balls Pond Road","parentId":"490G00003569","stationId":"490G00003569","stopLetter":"CB","topMostParentId":"490G00003569","towards":"Angel Islington"},{"icsId":"1009688","id":"490009688S","lat":51.54558,"lon":-0.08768,"name":"Essex Road / Marquess Road","parentId":"490G00009688","stationId":"490G00009688","stopLetter":"CG","topMostParentId":"490G00009688","towards":"Angel Islington"},{"icsId":"1010326","id":"490010326S","lat":51.54351,"lon":-0.09052,"name":"Northchurch Road","parentId":"490G00010326","stationId":"490G00010326","stopLetter":"EH","topMostParentId":"490G00010326","towards":"Angel Islington"},{"icsId":"1001103","id":"490001103S1","lat":51.5409,"lon":-0.09529,"name":"Essex Road Station","stopLetter":"EJ","topMostParentId":"490001103S1","towards":"Angel Islington"},{"icsId":"1005816","id":"490005816E","lat":51.53821,"lon":-0.09938,"name":"Cross Street","parentId":"490G00005816","stationId":"490G00005816","stopLetter":"E","topMostParentId":"490G00005816","towards":"Barbican, Holborn Or Kings Cross"},{"icsId":"1010709","id":"490010709S","lat":51.53684,"lon":-0.10108,"name":"Packington Street","parentId":"490G00010709","stationId":"490G00010709","stopLetter":"A","topMostParentId":"490G00010709","towards":"Barbican, Holborn Or Kings Cross"},{"icsId":"1008515","id":"490008515D","lat":51.53576,"lon":-0.10317,"name":"Islington Green","parentId":"490G00008515","stationId":"490G00008515","stopLetter":"D","topMostParentId":"490G00008515","towards":"Barbican, Holborn Or Kings Cross"},{"icsId":"1000007","id":"490000007F","lat":51.53374,"lon":-0.10546,"name":"Angel Station","stopLetter":"F","topMostParentId":"490000007F","towards":"Chancery Lane, Holborn Or Kings Cross","zone":"1"},{"icsId":"1018977","id":"490000007R","lat":51.53178,"lon":-0.10776,"name":"Pentonville Road / Baron Street","parentId":"490G00018977","stationId":"490G00018977","stopLetter":"R","topMostParentId":"490G00018977","towards":"Kings Cross"},{"icsId":"1010928","id":"490010928W","lat":51.53164,"lon":-0.11044,"name":"Penton Street / Chapel Market","parentId":"490G00010928","stationId":"490G00010928","stopLetter":"PN","topMostParentId":"490G00010928","towards":"Kings Cross"},{"icsId":"1005904","id":"490005904W","lat":51.53121,"lon":-0.11531,"name":"Penton Rise","parentId":"490G00005904","stationId":"490G00005904","stopLetter":"PM","topMostParentId":"490G00005904","towards":"Camden Town Or Euston"},{"icsId":"1005909","id":"490001172X","lat":51.53084,"lon":-0.12052,"name":"King's Cross / Caledonian Road","parentId":"490G00005909","stationId":"490G00005909","stopLetter":"X","topMostParentId":"HUBKGX","towards":"Camden Town Or Euston"},{"icsId":"1005916","id":"490001171G","lat":51.53128,"lon":-0.12268,"name":"King's Cross Station   / York Way","parentId":"490G000479","stationId":"490G000479","stopLetter":"G","topMostParentId":"HUBKGX","towards":"Archway Or Holloway"}]}]}