{"direction":"outbound","lineId":"490","lineName":"490","mode":"bus","stopPointSequences":[{"stopPoint":[{"icsId":"1018677","id":"490018677N","lat":51.46533,"lon":-0.30558,"name":"Pools on the Park","parentId":"490G00018677","stationId":"490G00018677","stopLetter":"->N","topMostParentId":"490G00018677","towards":"Twickenham"},{"icsId":"1000192","id":"490000192S","lat":51.46324,"lon":-0.30217,"name":"Richmond Station","stopLetter":"E","topMostParentId":"490000192S","towards":"Isleworth Or Twickenham","zone":"4"},{"icsId":"1013511","id":"490013511F","lat":51.46193,"lon":-0.30294,"name":"The Quadrant","parentId":"490G00013511","stationId":"490G00013511","stopLetter":"F","topMostParentId":"490G00013511","towards":"Ham, St Margarets Or Twickenham"},{"icsId":"1011556","id":"490011556J","lat":51.4591,"lon":-0.30458,"name":"Richmond Bus Station","parentId":"490G00011556","stationId":"490G00011556","stopLetter":"J","topMostParentId":"490G00011556","towards":"Ham, St Margarets Or Twickenham"},{"icsId":"1005755","id":"490005755W","lat":51.45611,"lon":-0.30919,"name":"Cresswell Road","parentId":"490G00005755","stationId":"490G00005755","stopLetter":"X","topMostParentId":"490G00005755","towards":"Isleworth, Twickenham Or Whitton"},{"icsId":"1004705","id":"490004705W","lat":51.45454,"lon":-0.31175,"name":"Cambridge Park","parentId":"490G00004705","stationId":"490G00004705","stopLetter":"B","topMostParentId":"490G00004705","towards":"Fulwell, Hanworth Or Teddington"},{"icsId":"1012460","id":"490012460S","lat":51.45302,"lon":-0.31321,"name":"St Stephen's Church","parentId":"490G00012460","stationId":"490G00012460","stopLetter":"C","topMostParentId":"490G00012460","towards":"Fulwell, Hanworth Or Teddington"},{"icsId":"1005841","id":"490005841T","lat":51.45169,"lon":-0.3168,"name":"Marble Hill Park / Crown Road","parentId":"490G00005841","stationId":"490G00005841","stopLetter":"D","topMostParentId":"490G00005841","towards":"Fulwell, Hanworth Or Teddington"},{"icsId":"1018556","id":"490018556E","lat":51.45071,"lon":-0.32044,"name":"Orleans Park School","parentId":"490G00018556","stationId":"490G00018556","stopLetter":"E","topMostParentId":"490G00018556","towards":"Fulwell, Hanworth Or Teddington"},{"icsId":"1009053","id":"490009053W","lat":51.44885,"lon":-0.32393,"name":"Lebanon Court","parentId":"490G00009053","stationId":"490G00009053","stopLetter":"F","topMostParentId":"490G00009053","towards":"Fulwell, Hanworth Or Teddington"},{"icsId":"1015022","id":"490015022W","lat":51.44707,"lon":-0.32771,"name":"York Street / Twickenham","parentId":"490G00015022","stationId":"490G00015022","stopLetter":"G","topMostParentId":"490G00015022","towards":"Hanworth, Teddington Or Whitton"},{"icsId":"1020202","id":"490020202SW","lat":51.4454,"lon":-0.33051,"name":"Heath Road / Twickenham","parentId":"490G00020202","stationId":"490G00020202","stopLetter":"L","topMostParentId":"490G00020202","towards":"Hanworth Or Whitton"},{"icsId":"1008009","id":"490008009W","lat":51.44527,"lon":-0.33632,"name":"Heath Road / Grove Avenue","parentId":"490G00008009","stationId":"490G00008009","stopLetter":"GS","topMostParentId":"490G00008009","towards":"Fulwell Or Hanworth"},{"icsId":"1013869","id":"490013869W","lat":51.44438,"lon":-0.34197,"name":"Twickenham Green","parentId":"490G00013869","stationId":"490G00013869","stopLetter":"GC","topMostParentId":"490G00013869","towards":"Hanworth Or Whitton"},{"icsId":"1013506","id":"490013564W","lat":51.44415,"lon":-0.34592,"name":"First Cross Road","parentId":"490G00013506","stationId":"490G00013506","stopLetter":"GD","topMostParentId":"490G00013506","towards":"Hanworth Or Whitton"},{"icsId":"1009771","id":"490009771E","lat":51.44328,"lon":-0.34927,"name":"Meadway","parentId":"490G00009771","stationId":"490G00009771","stopLetter":"GE","topMostParentId":"490G00009771","towards":"Hanworth Or Whitton"},{"icsId":"1009919","id":"490009919W","lat":51.44137,"lon":-0.35389,"name":"Mill Road","parentId":"490G00009919","stationId":"490G00009919","stopLetter":"GF","topMostParentId":"490G00009919","towards":"Hanworth Or Whitton"},{"icsId":"1012184","id":"490012184W","lat":51.43949,"lon":-0.35996,"name":"Sixth Cross Road","parentId":"490G00012184","stationId":"490G00012184","stopLetter":"T","topMostParentId":"490G00012184","towards":"Feltham Or Whitton"},{"icsId":"1014251","id":"490014251W","lat":51.43877,"lon":-0.36411,"name":"Warwick Lodge / Staines Road","parentId":"490G00014251","stationId":"490G00014251","stopLetter":"U","topMostParentId":"490G00014251","towards":"Feltham Or Hanworth"},{"icsId":"1005651","id":"490005651W","lat":51.43804,"lon":-0.368,"name":"Court Close Avenue","parentId":"490G00005651","stationId":"490G00005651","stopLetter":"V","topMostParentId":"490G00005651","towards":"Feltham Or Sunbury"},{"icsId":"1013868","id":"490013868W","lat":51.4373,"lon":-0.37189,"name":"Twickenham Golf Centre","parentId":"490G00013868","stationId":"490G00013868","stopLetter":"K","topMostParentId":"490G00013868","towards":"Feltham Or Sunbury"},{"icsId":"1007764","id":"490007764W2","lat":51.4366,"lon":-0.37666,"name":"Twickenham Road","parentId":"490G00007764","stationId":"490G00007764","stopLetter":"L","topMostParentId":"490G00007764","towards":"Feltham Or Sunbury"},{"icsId":"1015342","id":"490015342W1","lat":51.43725,"lon":-0.38054,"name":"Apex Corner / Hampton Road West","parentId":"490G00015342","stationId":"490G00015342","stopLetter":"U","topMostParentId":"490G00015342","towards":"Feltham"},{"icsId":"1007730","id":"490007730N","lat":51.43826,"lon":-0.38304,"name":"Popham Close","parentId":"490G00007730","stationId":"490G00007730","stopLetter":"V","topMostParentId":"490G00007730","towards":"Feltham"},{"icsId":"1008402","id":"490008402W","lat":51.43981,"lon":-0.38703,"name":"Hounslow Road / Hanworth","parentId":"490G00008402","stationId":"490G00008402","stopLetter":"AH","topMostParentId":"490G00008402","towards":"Feltham"},{"icsId":"1006780","id":"490006780N","lat":51.44237,"lon":-0.39258,"name":"Hanworth Air Park Leisure Ctr & Library","parentId":"490G00006780","stationId":"490G00006780","stopLetter":"AJ","topMostParentId":"490G00006780","towards":"Feltham"},{"icsId":"1014673","id":"490014673S2","lat":51.44346,"lon":-0.3952,"name":"Wigley Road","parentId":"490G00014673","stationId":"490G00014673","stopLetter":"AK","topMostParentId":"490G00014673","towards":"Feltham"},{"icsId":"1004504","id":"490004504N","lat":51.44482,"lon":-0.39838,"name":"Browells Lane","parentId":"490G00004504","stationId":"490G00004504","stopLetter":"AL","topMostParentId":"490G00004504","towards":"Feltham"},{"icsId":"1006784","id":"490006784W","lat":51.44663,"lon":-0.4038,"name":"Feltham Police Station","parentId":"490G00006784","stationId":"490G00006784","stopLetter":"Y","topMostParentId":"490G00006784","towards":"Hatton Cross"},{"icsId":"1018664","id":"490001107E","lat":51.44734,"lon":-0.40817,"name":"High Street / Feltham","parentId":"490G00018664","stationId":"490G00018664","stopLetter":"E","topMostParentId":"490G00018664","towards":"Hatton Cross"},{"icsId":"1001107","id":"49001107HW","lat":51.4488,"lon":-0.40814,"name":"Feltham Station","stopLetter":"M","topMostParentId":"49001107HW","towards":"Hatton Cross"},{"icsId":"1015730","id":"490006781N","lat":51.45071,"lon":-0.40675,"name":"Feltham Assembly Hall","parentId":"490G00015730","stationId":"490G00015730","stopLetter":"T","topMostParentId":"490G00015730","towards":"Hatton Cross, Hounslow Or Sparrow Farm"},{"icsId":"1008412","id":"490008400W","lat":51.45271,"lon":-0.40639,"name":"Harlington Road East","parentId":"490G00008412","stationId":"490G00008412","stopLetter":"E","topMostParentId":"490G00008412","towards":"Hatton Cross Or Hounslow"},{"icsId":"1007813","id":"490007813N","lat":51.4564,"lon":-0.40954,"name":"Lansbury Avenue","parentId":"490G00007813","stationId":"490G00007813","stopLetter":"F","topMostParentId":"490G00007813","towards":"Hatton Cross Or Hounslow"},{"icsId":"1004940","id":"490004940N","lat":51.45996,"lon":-0.41296,"name":"Central Way","parentId":"490G00004940","stationId":"490G00004940","stopLetter":"G","topMostParentId":"490G00004940","towards":"Hatton Cross"},{"icsId":"1007902","id":"490007902N","lat":51.46375,"lon":-0.41613,"name":"Hatton Green","parentId":"490G00007902","stationId":"490G00007902","stopLetter":"->N","topMostParentId":"490G00007902","towards":"Terminals 4 & 5 Or Harlington Corner"},{"icsId":"1007904","id":"490007904J","lat":51.46601,"lon":-0.42162,"name":"Great South West Road","parentId":"490G00007904","stationId":"490G00007904","stopLetter":"J","topMostParentId":"490G00007904","towards":"Harlington Corner, Terminals 4 & 5 Or Bedfont"},{"icsId":"1000103","id":"490000103E","lat":51.46674,"lon":-0.42374,"name":"Hatton Cross Station","stopLetter":"A","topMostParentId":"490000103E","zone":"5+6"},{"icsId":"1012056","id":"490012056W","lat":51.4601,"lon":-0.43898,"name":"Sheffield Way","parentId":"490G00012056","stationId":"490G00012056","stopLetter":"->W","topMostParentId":"490G00012056","towards":"Ashford Or Terminal 5"},{"icsId":"1000104","id":"490000104N","lat":51.45891,"lon":-0.44681,"name":"Heathrow Terminal 4","stopLetter":"11","topMostParentId":"490000104N","towards":"Ashford Or Terminal 5","zone":"6"},{"icsId":"1011963","id":"490011963W","lat":51.45655,"lon":-0.44759,"name":"Scylla Road","parentId":"490G00011963","stationId":"490G00011963","stopLetter":"->W","topMostParentId":"490G00011963","towards":"Ashford, Feltham Or Terminal 5"},{"icsId":"1004355","id":"490004355N","lat":51.45872,"lon":-0.46066,"name":"Cargo Centre","parentId":"490G00004355","stationId":"490G00004355","stopLetter":"->N","topMostParentId":"490G00004355","towards":"Terminal 5"},{"icsId":"1011966","id":"490011966W","lat":51.45754,"lon":-0.46154,"name":"Sealand Road","parentId":"490G00011966","stationId":"490G00011966","stopLetter":"->W","topMostParentId":"490G00011966","towards":"Terminal 5"},{"icsId":"1015440","id":"490015440S","lat":51.45877,"lon":-0.46807,"name":"Stirling Road","parentId":"490G00015440","stationId":"490G00015440","stopLetter":"->S","topMostParentId":"490G00015440","towards":"Hatton Cross Or Terminal 5"},{"icsId":"1016430","id":"4900164301H","lat":51.47314,"lon":-0.48967,"name":"Heathrow Terminal 5","parentId":"910GHTRBUS5","stationId":"910GHTRBUS5","stopLetter":"1","topMostParentId":"HUBHX5","zone":"6"}]}]}