{"direction":"outbound","lineId":"492","lineName":"492","mode":"bus","stopPointSequences":[{"stopPoint":[{"icsId":"1001249","id":"490001249F","lat":51.43359,"lon":0.10541,"name":"Sidcup Station","stopLetter":"F","topMostParentId":"490001249F","towards":"Chislehurst Or Foots Cray"},{"icsId":"1015177","id":"490015177H","lat":51.43285,"lon":0.10347,"name":"Hatherley Crescent / Sidcup Station","parentId":"490G000869","stationId":"490G000869","stopLetter":"H","topMostParentId":"490G000869","towards":"Chislehurst Or Foots Cray"},{"icsId":"1005743","id":"490005743M","lat":51.43053,"lon":0.10215,"name":"Station Road / Crescent Road","parentId":"490G00005743","stationId":"490G00005743","stopLetter":"M","topMostParentId":"490G00005743","towards":"Chislehurst Or Foots Cray"},{"icsId":"1012140","id":"490012140T","lat":51.42642,"lon":0.10199,"name":"Sidcup High Street / Station Road","parentId":"490G00012140","stationId":"490G00012140","stopLetter":"T","topMostParentId":"490G00012140","towards":"Albany Park Or Foots Cray"},{"icsId":"1005299","id":"490005299Y","lat":51.42492,"lon":0.10656,"name":"Church Road","parentId":"490G00005299","stationId":"490G00005299","stopLetter":"Y","topMostParentId":"490G00005299","towards":"Bexley, Orpington Or Swanley"},{"icsId":"1008885","id":"490008885E","lat":51.42165,"lon":0.11117,"name":"Knoll Road","parentId":"490G00008885","stationId":"490G00008885","stopLetter":"->E","topMostParentId":"490G00008885","towards":"Bexley, Orpington Or Swanley"},{"icsId":"1009854","id":"490009854E","lat":51.42021,"lon":0.11469,"name":"Middleton Avenue","parentId":"490G00009854","stationId":"490G00009854","stopLetter":"->E","topMostParentId":"490G00009854","towards":"Bexley, Orpington Or Swanley"},{"icsId":"1011467","id":"490011463E","lat":51.41839,"lon":0.11872,"name":"Rectory Lane","parentId":"490G00011467","stationId":"490G00011467","stopLetter":"FC","topMostParentId":"490G00011467","towards":"Bexley Or Swanley"},{"icsId":"1012143","id":"490012143E","lat":51.41774,"lon":0.12033,"name":"Five Arches Business Estate","parentId":"490G00012143","stationId":"490G00012143","stopLetter":"FD","topMostParentId":"490G00012143","towards":"Bexley Or Swanley"},{"icsId":"1010734","id":"490010734E","lat":51.41671,"lon":0.12283,"name":"Palm Avenue","parentId":"490G00010734","stationId":"490G00010734","stopLetter":"FE","topMostParentId":"490G00010734","towards":"Bexley Or Swanley"},{"icsId":"1019342","id":"490015422E","lat":51.4157,"lon":0.12492,"name":"Ruxley Corner","parentId":"490G00019342","stationId":"490G00019342","stopLetter":"FF","topMostParentId":"490G00019342","towards":"Bexley Or Swanley"},{"icsId":"1003662","id":"490003662N","lat":51.41643,"lon":0.12842,"name":"Barton Road","parentId":"490G00003662","stationId":"490G00003662","stopLetter":"FJ","topMostParentId":"490G00003662","towards":"Bexley"},{"icsId":"1006482","id":"490006482N","lat":51.41975,"lon":0.13237,"name":"Ellenborough Road","parentId":"490G00006482","stationId":"490G00006482","stopLetter":"->N","topMostParentId":"490G00006482","towards":"Bexley"},{"icsId":"1010858","id":"490010858N","lat":51.42647,"lon":0.13527,"name":"Parsonage Lane / North Cray Church","parentId":"490G00010858","stationId":"490G00010858","stopLetter":"->N","topMostParentId":"490G00010858","towards":"Bexley"},{"icsId":"1004578","id":"490004578N","lat":51.43079,"lon":0.14009,"name":"Bunkers Hill / the White Cross","parentId":"490G00004578","stationId":"490G00004578","stopLetter":"->N","topMostParentId":"490G00004578","towards":"Bexleyheath"},{"icsId":"1010083","id":"490010083N","lat":51.43458,"lon":0.14611,"name":"Mount Mascal Farm","parentId":"490G00010083","stationId":"490G00010083","topMostParentId":"490G00010083","towards":"Bexleyheath"},{"icsId":"1014042","id":"490014042L","lat":51.43788,"lon":0.15129,"name":"North Cray Road / Vicarage Road","parentId":"490G00014042","stationId":"490G00014042","stopLetter":"L","topMostParentId":"490G00014042","towards":"Bexleyheath"},{"icsId":"1003984","id":"490003984F","lat":51.44239,"lon":0.1507,"name":"Bexley Library","parentId":"490G00003984","stationId":"490G00003984","stopLetter":"F","topMostParentId":"490G00003984","towards":"Bexleyheath"},{"icsId":"1007872","id":"490007872H","lat":51.44486,"lon":0.15201,"name":"Hartford Road","parentId":"490G00007872","stationId":"490G00007872","stopLetter":"H","topMostParentId":"490G00007872","towards":"Bexleyheath"},{"icsId":"1007386","id":"490007386N","lat":51.44922,"lon":0.15638,"name":"Gravel Hill Close","parentId":"490G00007386","stationId":"490G00007386","stopLetter":"F","topMostParentId":"490G00007386","towards":"Bexleyheath"},{"icsId":"1004489","id":"490004489N","lat":51.45142,"lon":0.15259,"name":"Broomfield Road","parentId":"490G00004489","stationId":"490G00004489","stopLetter":"G","topMostParentId":"490G00004489","towards":"Crayford Or Erith"},{"icsId":"1007662","id":"490007662N","lat":51.45294,"lon":0.15184,"name":"Halcot Avenue","parentId":"490G00007662","stationId":"490G00007662","stopLetter":"H","topMostParentId":"490G00007662","towards":"Crayford Or Erith"},{"icsId":"1003972","id":"490003972W","lat":51.45579,"lon":0.15006,"name":"Bexleyheath / Highland Road","parentId":"490G00003972","stationId":"490G00003972","stopLetter":"Y","topMostParentId":"490G00003972","towards":"Erith Or Welling"},{"icsId":"1019056","id":"490003975S","lat":51.45688,"lon":0.14798,"name":"Mayplace Rd West / Bexleyheath Clock Twr","parentId":"490G00019056","stationId":"490G00019056","stopLetter":"S","topMostParentId":"490G00019056","towards":"Crayford, Erith Or Slade Green"},{"icsId":"1006620","id":"490006620E","lat":51.45855,"lon":0.15196,"name":"Foresters Crescent","parentId":"490G00006620","stationId":"490G00006620","stopLetter":"NG","topMostParentId":"490G00006620","towards":"Crayford, Erith Or Slade Green"},{"icsId":"1015380","id":"490015380E","lat":51.45915,"lon":0.15505,"name":"Mayplace Road East / Pinnacle Hill","parentId":"490G00015380","stationId":"490G00015380","stopLetter":"NH","topMostParentId":"490G00015380","towards":"Crayford Or Slade Green"},{"icsId":"1003626","id":"490003626E","lat":51.45984,"lon":0.16002,"name":"Mayplace Road East / Barnehurst Road","parentId":"490G00003626","stationId":"490G00003626","stopLetter":"NJ","topMostParentId":"490G00003626","towards":"Crayford Or Slade Green"},{"icsId":"1009596","id":"490009596E","lat":51.45904,"lon":0.16668,"name":"Mayplace Road East / Manor Way","parentId":"490G00009596","stationId":"490G00009596","stopLetter":"->E","topMostParentId":"490G00009596","towards":"Dartford"},{"icsId":"1014899","id":"490014899E","lat":51.45823,"lon":0.17083,"name":"Woodside Road","parentId":"490G00014899","stationId":"490G00014899","stopLetter":"->E","topMostParentId":"490G00014899","towards":"Dartford"},{"icsId":"1009585","id":"490009585E1","lat":51.45693,"lon":0.17284,"name":"Manor Road / Manor Close","parentId":"490G00009585","stationId":"490G00009585","stopLetter":"->E","topMostParentId":"490G00009585","towards":"Dartford"},{"icsId":"1010578","id":"490010578E","lat":51.45406,"lon":0.17439,"name":"Old Road / Perry Street","parentId":"490G00010578","stationId":"490G00010578","stopLetter":"->E","topMostParentId":"490G00010578","towards":"Dartford"},{"icsId":"1005727","id":"490005727H","lat":51.45263,"lon":0.17789,"name":"Crayford High Street","parentId":"490G00005727","stationId":"490G00005727","stopLetter":"C","topMostParentId":"490G00005727","towards":"Dartford"},{"icsId":"1005725","id":"490005725D","lat":51.45112,"lon":0.17939,"name":"Crayford Bridge","parentId":"490G00005725","stationId":"490G00005725","stopLetter":"D","topMostParentId":"490G00005725","towards":"Dartford"},{"icsId":"1005728","id":"490005728J","lat":51.45046,"lon":0.18081,"name":"Crayford Town Hall","parentId":"490G00005728","stationId":"490G00005728","stopLetter":"E","topMostParentId":"490G00005728","towards":"Dartford"},{"icsId":"1001073","id":"490001073N","lat":51.44791,"lon":0.1809,"name":"Crayford Station","stopLetter":"H","topMostParentId":"490001073N","towards":"Dartford"},{"icsId":"1011774","id":"490011774S","lat":51.44634,"lon":0.18043,"name":"Royston Road","parentId":"490G00011774","stationId":"490G00011774","stopLetter":"J","topMostParentId":"490G00011774","towards":"Dartford"},{"icsId":"1002043","id":"490002043ZZ","lat":51.4444,"lon":0.18098,"name":"Station Road / Chastilian Road","parentId":"490G00002043","stationId":"490G00002043","stopLetter":"->S","topMostParentId":"490G00002043","towards":"Dartford"},{"icsId":"1010400","id":"2400102531","lat":51.444074,"lon":0.184564,"name":"North Road","topMostParentId":"2400102531","towards":"Dartford"},{"icsId":"1011967","id":"2400A070830A","lat":51.443195,"lon":0.189271,"name":"Seaton Road","topMostParentId":"2400A070830A","towards":"Dartford"},{"icsId":"1011211","id":"2400102535","lat":51.443359,"lon":0.19446,"name":"Princes Road","topMostParentId":"2400102535","towards":"Dartford"},{"icsId":"1007909","id":"2400A072640A","lat":51.441792,"lon":0.196946,"name":"Shepherds Lane / Havelock Road","topMostParentId":"2400A072640A","towards":"Bluewater"},{"icsId":"1012228","id":"2400102541","lat":51.443864,"lon":0.2006,"name":"Somerset Road","topMostParentId":"2400102541","towards":"Bluewater"},{"icsId":"1015720","id":"2400102545","lat":51.443876,"lon":0.20381,"name":"Dartford Grammar School For Girls","topMostParentId":"2400102545","towards":"Bluewater"},{"icsId":"1019804","id":"240090627","lat":51.445165,"lon":0.206045,"name":"Dartford Grammar School For Boys","topMostParentId":"240090627","towards":"Bluewater"},{"icsId":"1014474","id":"2400102547","lat":51.446013,"lon":0.207784,"name":"West Hill / Shepherds Lane","topMostParentId":"2400102547","towards":"Bluewater"},{"icsId":"1011228","id":"2400A019780A","lat":51.445549,"lon":0.210496,"name":"Priory Hill","topMostParentId":"2400A019780A","towards":"Bluewater"},{"icsId":"1001082","id":"2400A019910A","lat":51.446675,"lon":0.217991,"name":"Dartford Station","parentId":"240GHMGRDN","stationId":"240GHMGRDN","stopLetter":"D","topMostParentId":"910GDARTFD","towards":"Bluewater"},{"icsId":"1015609","id":"240075089","lat":51.444664,"lon":0.220642,"name":"Hanau Bridge","parentId":"240G75087","stationId":"240G75087","stopLetter":"H","topMostParentId":"240G75087","towards":"428  Darent Valley Hospital & Bluewater Only"},{"icsId":"1015725","id":"2400A060520A","lat":51.442626,"lon":0.228516,"name":"Livingstone Hospital","topMostParentId":"2400A060520A"},{"icsId":"1010821","id":"2400102527","lat":51.44191,"lon":0.232625,"name":"Shenley Road","topMostParentId":"2400102527"},{"icsId":"1019120","id":"2400A018820A","lat":51.44207,"lon":0.23554,"name":"The Brent","topMostParentId":"2400A018820A"},{"icsId":"1019121","id":"2400A018830A","lat":51.442331,"lon":0.236934,"name":"Brentfield Road","topMostParentId":"2400A018830A"},{"icsId":"1009877","id":"2400A018840A","lat":51.44273,"lon":0.241947,"name":"Milestone Road","topMostParentId":"2400A018840A"},{"icsId":"1015721","id":"2400A018850A","lat":51.443703,"lon":0.246096,"name":"Brent School","topMostParentId":"2400A018850A"},{"icsId":"1015723","id":"2400A018860A","lat":51.444054,"lon":0.249826,"name":"Welsh Tavern","topMostParentId":"2400A018860A"},{"icsId":"1006518","id":"2400A018870A","lat":51.445721,"lon":0.25991,"name":"Elm Road","topMostParentId":"2400A018870A"},{"icsId":"1014867","id":"2400A018880A","lat":51.446432,"lon":0.263644,"name":"The Bull","parentId":"240GA018880A","stationId":"240GA018880A","topMostParentId":"910GSTCR"},{"icsId":"1014788","id":"2400A018890A","lat":51.447088,"lon":0.270153,"name":"Winston Close","topMostParentId":"2400A018890A"},{"icsId":"1019868","id":"2400A018900A","lat":51.448327,"lon":0.27767,"name":"Waterstone Park","topMostParentId":"2400A018900A"},{"icsId":"1004120","id":"2400A070060A","lat":51.437415,"lon":0.276465,"name":"Bluewater Shopping Centre","parentId":"240G070000A","stationId":"240G070000A","stopLetter":"7","topMostParentId":"240G070000A"}]}]}