{"direction":"outbound","lineId":"497","lineName":"497","mode":"bus","stopPointSequences":[{"stopPoint":[{"icsId":"1005929","id":"490005929N","lat":51.605563,"lon":0.243433,"name":"Dagnam Park Square","parentId":"490G00005929","stationId":"490G00005929","stopLetter":"DJ","topMostParentId":"490G00005929","towards":"Gallows Corner"},{"icsId":"1012054","id":"490012054N","lat":51.60666,"lon":0.24249,"name":"Sheffield Drive","parentId":"490G00012054","stationId":"490G00012054","stopLetter":"DK","topMostParentId":"490G00012054","towards":"Gallows Corner"},{"icsId":"1011997","id":"490011997W","lat":51.608299,"lon":0.24,"name":"Settle Road","parentId":"490G00011997","stationId":"490G00011997","stopLetter":"DL","topMostParentId":"490G00011997","towards":"Gallows Corner"},{"icsId":"1011971","id":"490011971W","lat":51.609507,"lon":0.234687,"name":"Sedgefield Crescent","parentId":"490G00011971","stationId":"490G00011971","stopLetter":"DT","topMostParentId":"490G00011971","towards":"Gallows Corner"},{"icsId":"1007799","id":"490007799W","lat":51.609071,"lon":0.229206,"name":"Harkness Close","parentId":"490G00007799","stationId":"490G00007799","stopLetter":"DV","topMostParentId":"490G00007799","towards":"Harold Wood Or Gallows Corner"},{"icsId":"1004473","id":"490004473W","lat":51.608503,"lon":0.22408,"name":"Brookside School","parentId":"490G00004473","stationId":"490G00004473","stopLetter":"DU","topMostParentId":"490G00004473","towards":"Harold Wood Or Gallows Corner"},{"icsId":"1005187","id":"490005187W","lat":51.607926,"lon":0.220816,"name":"Chippenham Road","parentId":"490G00005187","stationId":"490G00005187","stopLetter":"HH","topMostParentId":"490G00005187","towards":"Noak Hill Or Gallows Corner"},{"icsId":"1006762","id":"490006762W","lat":51.60715,"lon":0.217616,"name":"Hilldene Avenue Shopping Centre","parentId":"490G00006762","stationId":"490G00006762","stopLetter":"->W","topMostParentId":"490G00006762","towards":"Noak Hill Or Gallows Corner"},{"icsId":"1002193","id":"490004992Y","lat":51.604412,"lon":0.215027,"name":"Chatteris Avenue  Chippenham Road","parentId":"490G000800","stationId":"490G000800","stopLetter":"->S","topMostParentId":"490G000800"},{"icsId":"1002164","id":"490002164HS","lat":51.603125,"lon":0.216986,"name":"Myrtle Road  Chatteris Avenue","parentId":"490G000461","stationId":"490G000461","stopLetter":"->S","topMostParentId":"490G000461"},{"icsId":"1002166","id":"490002166HS","lat":51.601787,"lon":0.218741,"name":"Coltsfoot Path","parentId":"490G000467","stationId":"490G000467","stopLetter":"->S","topMostParentId":"490G000467"},{"icsId":"1002165","id":"490002165HS","lat":51.600596,"lon":0.220892,"name":"Broadford Primary School","parentId":"490G000463","stationId":"490G000463","stopLetter":"->S","topMostParentId":"490G000463"},{"icsId":"1002192","id":"490005051W","lat":51.599724,"lon":0.221326,"name":"Faringdon Avenue / Chatteris Avenue","parentId":"490G000771","stationId":"490G000771","stopLetter":"->W","topMostParentId":"490G000771","towards":"Gallows Corner"},{"icsId":"1002194","id":"490003451W","lat":51.598232,"lon":0.218899,"name":"Faringdon Avenue / Ashton Road","parentId":"490G000810","stationId":"490G000810","stopLetter":"->W","topMostParentId":"490G000810","towards":"Gallows Corner"},{"icsId":"1003451","id":"490003451Y","lat":51.596606,"lon":0.219788,"name":"Ashton Road","parentId":"490G00003451","stationId":"490G00003451","stopLetter":"->S","topMostParentId":"490G00003451"},{"icsId":"1007096","id":"490007096N","lat":51.59263,"lon":0.21981,"name":"Gallows Corner / Tesco","parentId":"490G00007096","stationId":"490G00007096","stopLetter":"GA","topMostParentId":"490G00007096","towards":"Harold Hill, Harold Wood Or Romford"},{"icsId":"1002172","id":"490002172HE","lat":51.591626,"lon":0.222504,"name":"Lister Avenue","parentId":"490G000550","stationId":"490G000550","topMostParentId":"490G000550"},{"icsId":"1002173","id":"490002173HE","lat":51.591232,"lon":0.223857,"name":"Sallow Road","parentId":"490G000566","stationId":"490G000566","topMostParentId":"490G000566"},{"icsId":"1002167","id":"490002167HS","lat":51.592998,"lon":0.227452,"name":"Huntingdon Drive","parentId":"490G000497","stationId":"490G000497","topMostParentId":"490G000497"},{"icsId":"1002168","id":"490002168HE","lat":51.593296,"lon":0.230729,"name":"Wessex Lane","parentId":"490G000503","stationId":"490G000503","topMostParentId":"490G000503"},{"icsId":"1001137","id":"490001137B","lat":51.592985,"lon":0.23288,"name":"Harold Wood Station","parentId":"910GHRLDWOD","stationId":"910GHRLDWOD","stopLetter":"B","topMostParentId":"910GHRLDWOD","towards":"Upminster, Gidea Park Or Hornchurch"}]}]}