{"direction":"outbound","lineId":"5","lineName":"5","mode":"bus","stopPointSequences":[{"stopPoint":[{"icsId":"1011659","id":"490011659E","lat":51.58066,"lon":0.18215,"name":"Romford Market","parentId":"490G00011659","stationId":"490G00011659","stopLetter":"E","topMostParentId":"490G00011659","towards":"Becontree Heath, Queen's Hosp. Or Gidea Pk"},{"icsId":"1009810","id":"490009810K","lat":51.5791,"lon":0.18512,"name":"Mercury Gardens","parentId":"490G00009810","stationId":"490G00009810","stopLetter":"K","topMostParentId":"490G00009810","towards":"Becontree Heath, Dagenham Or Romford Stn"},{"icsId":"1014452","id":"490014452Q","lat":51.57713,"lon":0.18408,"name":"Western Road","parentId":"490G00014452","stationId":"490G00014452","stopLetter":"Q","topMostParentId":"490G00014452","towards":"Hornchurch, Queens Hosp Or Rush Green"},{"icsId":"1001243","id":"490001243T","lat":51.57443,"lon":0.18385,"name":"Romford Station","stopLetter":"T","topMostParentId":"490001243T","towards":"Becontree Heath, Rush Green Or Queens Hosp"},{"icsId":"1011667","id":"490011667HD","lat":51.57138,"lon":0.18216,"name":"Rom Valley Way","parentId":"490G00011667","stationId":"490G00011667","stopLetter":"HD","topMostParentId":"490G00011667","towards":"Becontree Heath, Rush Green Or Elm Park"},{"icsId":"1016444","id":"490016444HL","lat":51.5685,"lon":0.18181,"name":"Queen's Hospital","parentId":"490G00016444","stationId":"490G00016444","stopLetter":"HL","topMostParentId":"490G00016444","towards":"Becontree Heath"},{"icsId":"1010443","id":"490010443W","lat":51.56564,"lon":0.18184,"name":"Norwood Avenue","parentId":"490G00010443","stationId":"490G00010443","stopLetter":"RU","topMostParentId":"490G00010443","towards":"Becontree Heath"},{"icsId":"1000349","id":"490005927W","lat":51.56537,"lon":0.17502,"name":"Rush Green Road / Dagenham Road","parentId":"490G00000349","stationId":"490G00000349","stopLetter":"J","topMostParentId":"490G00000349","towards":"Barking, Dagenham Or Goodmayes"},{"icsId":"1009090","id":"490009090W","lat":51.56467,"lon":0.16971,"name":"Leonard Avenue","parentId":"490G00009090","stationId":"490G00009090","stopLetter":"K","topMostParentId":"490G00009090","towards":"Barking, Dagenham Or Goodmayes"},{"icsId":"1005381","id":"490005381W","lat":51.56371,"lon":0.16565,"name":"Clayton Road","parentId":"490G00005381","stationId":"490G00005381","stopLetter":"L","topMostParentId":"490G00005381","towards":"Barking, Dagenham Or Goodmayes"},{"icsId":"1003660","id":"490003660W","lat":51.56319,"lon":0.16223,"name":"Barton Avenue","parentId":"490G00003660","stationId":"490G00003660","stopLetter":"M","topMostParentId":"490G00003660","towards":"Barking, Dagenham Or Goodmayes"},{"icsId":"1005923","id":"490005923P","lat":51.56186,"lon":0.15594,"name":"Cu London University / Wood Lane","parentId":"490G00005923","stationId":"490G00005923","stopLetter":"P","topMostParentId":"490G00005923","towards":"Barking, Dagenham Or Goodmayes"},{"icsId":"1003763","id":"490003764W","lat":51.56096,"lon":0.15174,"name":"Becontree Heath Leisure Centre","parentId":"490G00003763","stationId":"490G00003763","stopLetter":"H","topMostParentId":"490G00003763","towards":"Barking Or Dagenham Heathway"},{"icsId":"1003762","id":"490003762E","lat":51.55921,"lon":0.14785,"name":"Morris Road","parentId":"490G00003762","stationId":"490G00003762","stopLetter":"E","topMostParentId":"490G00003762","towards":"Barking Or Dagenham Heathway"},{"icsId":"1006867","id":"490006867W","lat":51.55492,"lon":0.14421,"name":"Five Elms School","parentId":"490G00006867","stationId":"490G00006867","stopLetter":"L","topMostParentId":"490G00006867","towards":"Barking"},{"icsId":"1006886","id":"490006865W","lat":51.55382,"lon":0.1407,"name":"Boxoll Road","parentId":"490G00006886","stationId":"490G00006886","stopLetter":"M","topMostParentId":"490G00006886","towards":"Barking"},{"icsId":"1003965","id":"490003965W","lat":51.55268,"lon":0.13674,"name":"Beverley Road","parentId":"490G00003965","stationId":"490G00003965","stopLetter":"WR","topMostParentId":"490G00003965","towards":"Barking"},{"icsId":"1009704","id":"490009704D","lat":51.55164,"lon":0.12925,"name":"Martins Corner / Valence Avenue","parentId":"490G00009704","stationId":"490G00009704","stopLetter":"WS","topMostParentId":"490G00009704","towards":"Barking"},{"icsId":"1003535","id":"490003535W","lat":51.55112,"lon":0.12282,"name":"Bennetts Castle Lane","parentId":"490G00003535","stationId":"490G00003535","stopLetter":"WU","topMostParentId":"490G00003535","towards":"Barking Or Ilford"},{"icsId":"1009182","id":"490009182W","lat":51.55116,"lon":0.11898,"name":"Lindsey Road","parentId":"490G00009182","stationId":"490G00009182","stopLetter":"UA","topMostParentId":"490G00009182","towards":"Barking Or Ilford"},{"icsId":"1009247","id":"490009247W","lat":51.55173,"lon":0.11233,"name":"Lodge Avenue","parentId":"490G00009247","stationId":"490G00009247","stopLetter":"UB","topMostParentId":"490G00009247","towards":"Barking Or Ilford"},{"icsId":"1007288","id":"490007288S","lat":51.55144,"lon":0.10686,"name":"St. Thomas More Catholic Church","parentId":"490G00007288","stationId":"490G00007288","stopLetter":"UC","topMostParentId":"490G00007288","towards":"Barking Or Ilford"},{"icsId":"1004768","id":"490011903W","lat":51.54968,"lon":0.1041,"name":"Capel Gardens","parentId":"490G00004768","stationId":"490G00004768","stopLetter":"UD","topMostParentId":"490G00004768","towards":"Barking Or Ilford"},{"icsId":"1013653","id":"490013653W","lat":51.54845,"lon":0.10003,"name":"Thurlestone Avenue","parentId":"490G00013653","stationId":"490G00013653","stopLetter":"UG","topMostParentId":"490G00013653","towards":"Barking Or Ilford"},{"icsId":"1003605","id":"490003605W","lat":51.54651,"lon":0.09563,"name":"Barking Bus Garage","parentId":"490G00003605","stationId":"490G00003605","stopLetter":"BK","topMostParentId":"490G00003605","towards":"Barking Town Centre Or Ilford"},{"icsId":"1006700","id":"490006700W","lat":51.54528,"lon":0.09253,"name":"Faircross","parentId":"490G00006700","stationId":"490G00006700","stopLetter":"BP","topMostParentId":"490G00006700","towards":"Barking Town Centre"},{"icsId":"1008419","id":"490008419W","lat":51.54323,"lon":0.08771,"name":"Hulse Avenue / Barking Park","parentId":"490G00008419","stationId":"490G00008419","stopLetter":"BR","topMostParentId":"490G00008419","towards":"Barking Riverside, East Ham Or Gascoigne Est."},{"icsId":"1006734","id":"490006734W","lat":51.54157,"lon":0.0847,"name":"Park Avenue","parentId":"490G00006734","stationId":"490G00006734","stopLetter":"WB","topMostParentId":"490G00006734","towards":"Barking Riverside, East Ham Or Gascoigne Est."},{"icsId":"1000015","id":"490000015X","lat":51.53986,"lon":0.08214,"name":"Barking Station","stopLetter":"N","topMostParentId":"490000015X","towards":"East Ham Or East Beckton","zone":"4"},{"icsId":"1003616","id":"490003616C","lat":51.53805,"lon":0.07836,"name":"Barking Town Centre","parentId":"490G00003616","stationId":"490G00003616","stopLetter":"C","topMostParentId":"490G00003616","towards":"East Beckton, Dagenham Or East Ham"},{"icsId":"1010408","id":"490010408F","lat":51.53762,"lon":0.07551,"name":"North Street","parentId":"490G00010408","stationId":"490G00010408","stopLetter":"F","topMostParentId":"490G00010408","towards":"Beckton Or East Ham"},{"icsId":"1003615","id":"490003615S","lat":51.53709,"lon":0.07099,"name":"Barking Tesco","parentId":"490G00003615","stationId":"490G00003615","stopLetter":"Z","topMostParentId":"490G00003615","towards":"Beckton Or East Ham"},{"icsId":"1004592","id":"490004592W","lat":51.53505,"lon":0.06661,"name":"Burges Road","parentId":"490G00004592","stationId":"490G00004592","stopLetter":"R","topMostParentId":"490G00004592","towards":"East Ham"},{"icsId":"1012843","id":"490012843W","lat":51.534,"lon":0.06479,"name":"St Olave's Road","parentId":"490G00012843","stationId":"490G00012843","stopLetter":"S","topMostParentId":"490G00012843","towards":"East Ham"},{"icsId":"1003280","id":"490003280W","lat":51.53361,"lon":0.05919,"name":"Altmore Avenue","parentId":"490G00003280","stationId":"490G00003280","stopLetter":"T","topMostParentId":"490G00003280","towards":"Forest Gate Or Upton Park"},{"icsId":"1010218","id":"490010218W","lat":51.53328,"lon":0.05673,"name":"Newham Town Hall","parentId":"490G00010218","stationId":"490G00010218","stopLetter":"W","topMostParentId":"490G00010218","towards":"Forest Gate Or Upton Park"},{"icsId":"1003659","id":"490003659Q","lat":51.5325,"lon":0.0513,"name":"Bartle Avenue","parentId":"490G00003659","stationId":"490G00003659","stopLetter":"Q","topMostParentId":"490G00003659","towards":"Upton Park"},{"icsId":"1003126","id":"490003126W","lat":51.53201,"lon":0.04877,"name":"Aintree Avenue","parentId":"490G00003126","stationId":"490G00003126","stopLetter":"->W","topMostParentId":"490G00003126","towards":"Forest Gate Or Plaistow"},{"icsId":"1006078","id":"490006078W","lat":51.53113,"lon":0.04368,"name":"Dickens Road","parentId":"490G00006078","stationId":"490G00006078","stopLetter":"->W","topMostParentId":"490G00006078","towards":"Forest Gate Or Plaistow"},{"icsId":"1013959","id":"490013959W","lat":51.53072,"lon":0.04127,"name":"Upton Park / Priory Road","parentId":"490G00013959","stationId":"490G00013959","stopLetter":"Y","topMostParentId":"490G00013959","towards":"Forest Gate Or Plaistow"},{"icsId":"1003273","id":"490013958P","lat":51.5303,"lon":0.03883,"name":"Upton Park / Green Street","parentId":"490G00003273","stationId":"490G00003273","stopLetter":"P","topMostParentId":"490G00003273","towards":"Forest Gate Or Plaistow"},{"icsId":"1010201","id":"490010201W","lat":51.5286,"lon":0.03356,"name":"New City Road","parentId":"490G00010201","stationId":"490G00010201","stopLetter":"S","topMostParentId":"490G00010201","towards":"Prince Regent Or Canning Town"},{"icsId":"1011040","id":"490011040W","lat":51.52549,"lon":0.02865,"name":"Plaistow / Prince Regent Lane","parentId":"490G00011040","stationId":"490G00011040","stopLetter":"BA","topMostParentId":"490G00011040","towards":"Canning Town"},{"icsId":"1011047","id":"490011047W","lat":51.52416,"lon":0.02643,"name":"Plaistow Police Station","parentId":"490G00011047","stationId":"490G00011047","stopLetter":"BB","topMostParentId":"490G00011047","towards":"Canning Town"},{"icsId":"1003551","id":"490003551W","lat":51.52256,"lon":0.02338,"name":"Balaam Street","parentId":"490G00003551","stationId":"490G00003551","stopLetter":"BC","topMostParentId":"490G00003551","towards":"Canning Town"},{"icsId":"1016265","id":"490016265W","lat":51.52156,"lon":0.02134,"name":"Chargeable Lane","parentId":"490G00016265","stationId":"490G00016265","stopLetter":"BD","topMostParentId":"490G00016265","towards":"Canning Town"},{"icsId":"1005860","id":"490005860W","lat":51.52021,"lon":0.01852,"name":"Croydon Road","parentId":"490G00005860","stationId":"490G00005860","stopLetter":"BE","topMostParentId":"490G00005860","towards":"Canning Town"},{"icsId":"1005902","id":"490005902W","lat":51.51874,"lon":0.01491,"name":"Rokeby School","parentId":"490G00005902","stationId":"490G00005902","stopLetter":"P","topMostParentId":"490G00005902","towards":"Limehouse Or West Ham Station"},{"icsId":"1003750","id":"490003750M","lat":51.51766,"lon":0.01252,"name":"Hermit Road","parentId":"490G00003750","stationId":"490G00003750","stopLetter":"M","topMostParentId":"490G00003750","towards":"Limehouse, Silvertown Or West Ham Station"},{"icsId":"1011429","id":"490011429N","lat":51.51642,"lon":0.00967,"name":"Rathbone Market","parentId":"490G00011429","stationId":"490G00011429","stopLetter":"N","topMostParentId":"490G00011429","towards":"Limehouse Or Silvertown"},{"icsId":"1000039","id":"490000039A","lat":51.51455,"lon":0.00818,"name":"Canning Town Station","stopLetter":"A","topMostParentId":"490000039A","zone":"2/3"}]}]}