{"direction":"outbound","lineId":"52","lineName":"52","mode":"bus","stopPointSequences":[{"stopPoint":[{"icsId":"1014050","id":"490014050A","lat":51.49596,"lon":-0.14401,"name":"Victoria Bus Station","parentId":"490G000812","stationId":"490G000812","stopLetter":"A","topMostParentId":"HUBVIC","towards":"Green Park, Oxford Circus, Camden Tn Or Kentish Tn"},{"icsId":"1007544","id":"490007544Q","lat":51.49692,"lon":-0.14556,"name":"Grosvenor Gardens","parentId":"490G000551","stationId":"490G000551","stopLetter":"Q","topMostParentId":"490G000551","towards":"Green Park, Kensington Or Marble Arch"},{"icsId":"1014728","id":"490005138N","lat":51.49938,"lon":-0.14828,"name":"Wilton Street","parentId":"490G00014728","stationId":"490G00014728","stopLetter":"U","topMostParentId":"490G00014728","towards":"Green Park, Kensington Or Marble Arch"},{"icsId":"1000119","id":"490000119K","lat":51.50135,"lon":-0.15105,"name":"Hyde Park Corner","stopLetter":"K","topMostParentId":"490000119K","towards":"Green Park, Kensington Or Marble Arch","zone":"1"},{"icsId":"1000119","id":"490000119M","lat":51.50275,"lon":-0.15327,"name":"Hyde Park Corner Station","stopLetter":"M","topMostParentId":"490000119M","towards":"Kensington High Street","zone":"1"},{"icsId":"1007853","id":"490000130KE","lat":51.50163,"lon":-0.16191,"name":"Knightsbridge Station  / Harrods","stopLetter":"KE","topMostParentId":"490000130KE","towards":"Notting Hill Gate Or Olympia"},{"icsId":"1008875","id":"490011822W","lat":51.5017,"lon":-0.16604,"name":"Knightsbridge Barracks","parentId":"490G00008875","stationId":"490G00008875","stopLetter":"KF","topMostParentId":"490G00008875","towards":"Notting Hill Gate Or Olympia"},{"icsId":"1011198","id":"490011198W","lat":51.50184,"lon":-0.1693,"name":"Prince of Wales Gate","parentId":"490G00011198","stationId":"490G00011198","stopLetter":"RA","topMostParentId":"490G00011198","towards":"Notting Hill Gate Or Olympia"},{"icsId":"1006691","id":"490006691W","lat":51.50176,"lon":-0.17331,"name":"Exhibition Road","parentId":"490G00006691","stationId":"490G00006691","stopLetter":"RB","topMostParentId":"490G00006691","towards":"Notting Hill Gate Or Olympia"},{"icsId":"1011750","id":"490011750W","lat":51.50146,"lon":-0.17884,"name":"Royal Albert Hall","parentId":"490G00011750","stationId":"490G00011750","stopLetter":"RC","topMostParentId":"490G00011750","towards":"Hammersmith Or Notting Hill Gate"},{"icsId":"1010728","id":"490010728W","lat":51.50147,"lon":-0.18295,"name":"Palace Gate","parentId":"490G00010728","stationId":"490G00010728","stopLetter":"RE","topMostParentId":"490G00010728","towards":"Hammersmith Or Notting Hill Gate"},{"icsId":"1011761","id":"490011761N","lat":51.50224,"lon":-0.18776,"name":"Kensington Palace","parentId":"490G00011761","stationId":"490G00011761","stopLetter":"N","topMostParentId":"490G00011761","towards":"Hammersmith Or Notting Hill Gate"},{"icsId":"1008288","id":"490008288H","lat":51.5031,"lon":-0.19165,"name":"Kensington Church Street / Holland St","parentId":"490G00008288","stationId":"490G00008288","stopLetter":"H","topMostParentId":"490G00008288","towards":"Ladbroke Grove Or Westbourne Park"},{"icsId":"1012055","id":"490012055N","lat":51.50612,"lon":-0.19448,"name":"Sheffield Terrace","parentId":"490G00012055","stationId":"490G00012055","stopLetter":"X","topMostParentId":"490G00012055","towards":"Ladbroke Grove Or Westbourne Park"},{"icsId":"1000167","id":"490000167G","lat":51.50877,"lon":-0.1953,"name":"Notting Hill Gate Station","stopLetter":"G","topMostParentId":"490000167G","towards":"Ladbroke Grove Or Westbourne Park","zone":"1+2"},{"icsId":"1019160","id":"490000167A","lat":51.51011,"lon":-0.19841,"name":"Ladbroke Road","parentId":"490G00019160","stationId":"490G00019160","stopLetter":"A","topMostParentId":"490G00019160","towards":"Ladbroke Grove"},{"icsId":"1012550","id":"490012550N","lat":51.51208,"lon":-0.20221,"name":"Stanley Gardens","parentId":"490G00012550","stationId":"490G00012550","stopLetter":"PT","topMostParentId":"490G00012550","towards":"Ladbroke Grove"},{"icsId":"1003399","id":"490006476N","lat":51.51445,"lon":-0.20519,"name":"Portobello and Golborne Market","parentId":"490G00003399","stationId":"490G00003399","stopLetter":"PP","topMostParentId":"490G00003399","towards":"Kensal Rise Or Westbourne Park"},{"icsId":"1004099","id":"490004099N","lat":51.51475,"lon":-0.20823,"name":"Blenheim Crescent","parentId":"490G00004099","stationId":"490G00004099","stopLetter":"PR","topMostParentId":"490G00004099","towards":"Kensal Rise Or Westbourne Park"},{"icsId":"1000131","id":"490000131A","lat":51.51727,"lon":-0.21007,"name":"Ladbroke Grove Station","stopLetter":"A","topMostParentId":"490000131A","towards":"Westbourne Park, East Acton Or Kensal Rise","zone":"2"},{"icsId":"1005139","id":"490005139D","lat":51.51978,"lon":-0.21154,"name":"Chesterton Road","parentId":"490G00005139","stationId":"490G00005139","stopLetter":"D","topMostParentId":"490G00005139","towards":"East Acton,kensal Rise Or Westbourne Park"},{"icsId":"1008898","id":"490008898F","lat":51.52134,"lon":-0.21241,"name":"St Charles Square","parentId":"490G00008898","stationId":"490G00008898","stopLetter":"F","topMostParentId":"490G00008898","towards":"Kensal Rise, East Acton Or Maida Hill"},{"icsId":"1003619","id":"490003619M","lat":51.52343,"lon":-0.21364,"name":"Barlby Road","parentId":"490G00003619","stationId":"490G00003619","stopLetter":"M","topMostParentId":"490G00003619","towards":"East Acton, Kensal Rise Or Westbourne Park"},{"icsId":"1004737","id":"490004737R","lat":51.52554,"lon":-0.21487,"name":"Kensal House","parentId":"490G00004737","stationId":"490G00004737","stopLetter":"R","topMostParentId":"490G00004737","towards":"Kensal Rise Or Queens Park"},{"icsId":"1008897","id":"490008897T","lat":51.52569,"lon":-0.21552,"name":"Ladbroke Grove Sainsbury's","parentId":"490G00008897","stationId":"490G00008897","stopLetter":"T","topMostParentId":"490G00008897","towards":"Acton, Kilburn Or Willesden"},{"icsId":"1007861","id":"490007860N","lat":51.52844,"lon":-0.2161,"name":"Kilburn Lane / Harrow Road","parentId":"490G000044","stationId":"490G000044","stopLetter":"KT","topMostParentId":"490G000044","towards":"Willesden Or Cricklewood"},{"icsId":"1003583","id":"490003583N","lat":51.53057,"lon":-0.21652,"name":"Banister Road","parentId":"490G00003583","stationId":"490G00003583","stopLetter":"KS","topMostParentId":"490G00003583","towards":"Willesden Or Cricklewood"},{"icsId":"1001161","id":"490001161N","lat":51.5337,"lon":-0.21915,"name":"Kensal Rise Station","stopLetter":"KR","topMostParentId":"490001161N","towards":"Harlesden Or Willesden"},{"icsId":"1014620","id":"490001161N1","lat":51.53532,"lon":-0.22011,"name":"Wrentham Avenue","parentId":"490G00014620","stationId":"490G00014620","stopLetter":"KP","topMostParentId":"490G00014620","towards":"Harlesden Or Willesden"},{"icsId":"1010521","id":"490010521N","lat":51.5376,"lon":-0.22238,"name":"Okehampton Road","parentId":"490G00010521","stationId":"490G00010521","stopLetter":"KB","topMostParentId":"490G00010521","towards":"Willesden"},{"icsId":"1003256","id":"490003256N","lat":51.54101,"lon":-0.22588,"name":"All Souls Avenue","parentId":"490G00003256","stationId":"490G00003256","stopLetter":"E","topMostParentId":"490G00003256","towards":"Willesden"},{"icsId":"1012147","id":"490012147E","lat":51.54279,"lon":-0.22552,"name":"Hanover Road","parentId":"490G00012147","stationId":"490G00012147","stopLetter":"F","topMostParentId":"490G00012147","towards":"Neasden Or Willesden"},{"icsId":"1014691","id":"490014691W2","lat":51.54683,"lon":-0.22874,"name":"Willesden Green Library","parentId":"490G00014691","stationId":"490G00014691","stopLetter":"L","topMostParentId":"490G00014691","towards":"Neasden Shopping Centre"},{"icsId":"1014088","id":"490014088W","lat":51.5473,"lon":-0.23393,"name":"Villiers Road","parentId":"490G00014088","stationId":"490G00014088","stopLetter":"T","topMostParentId":"490G00014088","towards":"Harlesden Or Neasden"},{"icsId":"1014688","id":"490014687S","lat":51.54773,"lon":-0.2365,"name":"Strode Road","parentId":"490G00014688","stationId":"490G00014688","stopLetter":"WZ","topMostParentId":"490G00014688","towards":"Neasden"},{"icsId":"1014701","id":"490014687W1","lat":51.5486,"lon":-0.23995,"name":"Pound Lane","parentId":"490G00014701","stationId":"490G00014701","stopLetter":"WU","topMostParentId":"490G00014701","towards":"Harlesden"}]}]}