{"direction":"outbound","lineId":"533","lineName":"533","mode":"bus","stopPointSequences":[{"stopPoint":[{"icsId":"1007705","id":"490007705K","lat":51.49242,"lon":-0.22291,"name":"Hammersmith Bus Station","parentId":"490G000565","stationId":"490G000565","stopLetter":"K","topMostParentId":"HUBHMS"},{"icsId":"1007703","id":"490007703K","lat":51.49158,"lon":-0.22663,"name":"Hammersmith Bridge Road","parentId":"490G000564","stationId":"490G000564","stopLetter":"S","topMostParentId":"490G000564","towards":"Chiswick Bridge"},{"icsId":"1008273","id":"490008273S","lat":51.48552,"lon":-0.25394,"name":"Hogarth Roundabout","parentId":"490G00008273","stationId":"490G00008273","stopLetter":"U","topMostParentId":"490G00008273","towards":"Richmond"},{"icsId":"1003206","id":"490003206S","lat":51.48095,"lon":-0.25891,"name":"Alexandra Gardens","parentId":"490G00003206","stationId":"490G00003206","stopLetter":"Z","topMostParentId":"490G00003206","towards":"Richmond Or Chiswick"},{"icsId":"1012629","id":"490012629S","lat":51.47923,"lon":-0.26095,"name":"Staveley Road","parentId":"490G00012629","stationId":"490G00012629","stopLetter":"Y","topMostParentId":"490G00012629","towards":"Richmond"},{"icsId":"1007874","id":"490007874W","lat":51.47535,"lon":-0.2662,"name":"Hartington Road","parentId":"490G00007874","stationId":"490G00007874","stopLetter":"X","topMostParentId":"490G00007874","towards":"Richmond"},{"icsId":"1019979","id":"490019979S","lat":51.47183,"lon":-0.27172,"name":"Thames Bank","parentId":"490G00019979","stationId":"490G00019979","stopLetter":"R","topMostParentId":"490G00019979","towards":"Richmond"},{"icsId":"1005409","id":"490005409S","lat":51.47035,"lon":-0.27405,"name":"Mortlake Cemetery","parentId":"490G00005409","stationId":"490G00005409","stopLetter":"L","topMostParentId":"490G00005409","towards":"Richmond"},{"icsId":"1005410","id":"490005410E","lat":51.46894,"lon":-0.27375,"name":"Clifford Avenue","parentId":"490G00005410","stationId":"490G00005410","stopLetter":"M","topMostParentId":"490G00005410","towards":"Hammersmith Bridge"},{"icsId":"1012467","id":"490012467W","lat":51.46928,"lon":-0.26922,"name":"Ship Lane / Stag Brewery","parentId":"490G000759","stationId":"490G000759","stopLetter":"N","topMostParentId":"490G000759","towards":"Hammersmith Bridge"},{"icsId":"1010046","id":"490010046E","lat":51.4699,"lon":-0.26424,"name":"Sheen Lane / Mortlake Station","parentId":"490G00010046","stationId":"490G00010046","stopLetter":"A","topMostParentId":"490G00010046","towards":"Hammersmith Bridge Or Putney"},{"icsId":"1002152","id":"490003516E","lat":51.46992,"lon":-0.25953,"name":"Avondale Road","parentId":"490G000373","stationId":"490G000373","stopLetter":"S","topMostParentId":"490G000373","towards":"Hammersmith Bridge Or Putney"},{"icsId":"1014596","id":"490014596E","lat":51.4705,"lon":-0.25688,"name":"White Hart Lane","parentId":"490G00014596","stationId":"490G00014596","stopLetter":"T","topMostParentId":"490G00014596","towards":"Hammersmith Bridge Or Putney"},{"icsId":"1001015","id":"490001015BK","lat":51.47256,"lon":-0.25288,"name":"Barnes Bridge Station","stopLetter":"BK","topMostParentId":"490001015BK","towards":"Hammersmith Bridge Or Putney"},{"icsId":"1007168","id":"490007168N","lat":51.47619,"lon":-0.24986,"name":"Lonsdale Road / Nassau Road","parentId":"490G00002422","stationId":"490G00002422","stopLetter":"->N","topMostParentId":"490G00002422"},{"icsId":"1005551","id":"490005551N","lat":51.48006,"lon":-0.24799,"name":"Lonsdale Road / Suffolk Road","parentId":"490G00005551","stationId":"490G00005551","stopLetter":"->N","topMostParentId":"490G00005551"},{"icsId":"1007840","id":"490007840S","lat":51.48103,"lon":-0.24735,"name":"Harrodian School","parentId":"490G00007840","stationId":"490G00007840","stopLetter":"->S","topMostParentId":"490G00007840"},{"icsId":"1002136","id":"490002136ZZ","lat":51.48454,"lon":-0.24485,"name":"Swedish School London","parentId":"490G00002136","stationId":"490G00002136","stopLetter":"->S","topMostParentId":"490G00002136","towards":"Mortlake"},{"icsId":"1009353","id":"490009353E","lat":51.48603,"lon":-0.23422,"name":"Lonsdale Road / Castelnau","parentId":"490G00002412","stationId":"490G00002412","stopLetter":"->E","topMostParentId":"490G00002412"},{"icsId":"1009353","id":"490009353S","lat":51.48535,"lon":-0.23335,"name":"Lonsdale Road","parentId":"490G00009353","stationId":"490G00009353","stopLetter":"K","topMostParentId":"490G00009353","towards":"Mortlake, Putney Or Sheen"}]}]}