{"direction":"outbound","lineId":"549","lineName":"549","mode":"bus","stopPointSequences":[{"stopPoint":[{"icsId":"1000217","id":"490015122C","lat":51.59131,"lon":0.028986,"name":"South Woodford Station","parentId":"490G15122C","stationId":"490G15122C","stopLetter":"C","topMostParentId":"940GZZLUSWF","towards":"Gants Hill, Wanstead Or Woodford Bridge","zone":"4"},{"icsId":"1019203","id":"490008091S","lat":51.590092,"lon":0.030275,"name":"George Lane / Chigwell Road","parentId":"490G00019203","stationId":"490G00019203","stopLetter":"B","topMostParentId":"490G00019203","towards":"Gants Hill, Wanstead Or Woodford Bridge"},{"icsId":"1010601","id":"490010601N","lat":51.590558,"lon":0.032937,"name":"Onslow Gardens","parentId":"490G00010601","stationId":"490G00010601","stopLetter":"A","topMostParentId":"490G00010601","towards":"Woodford Bridge Or Gants Hill"},{"icsId":"1005002","id":"490005002N","lat":51.592836,"lon":0.036432,"name":"Charlie Brown's Roundabout","parentId":"490G00005002","stationId":"490G00005002","stopLetter":"D","topMostParentId":"490G00005002","towards":"Woodford Bridge Or Gants Hill"},{"icsId":"1011430","id":"490011430N","lat":51.595161,"lon":0.038167,"name":"Raven Road","parentId":"490G00011430","stationId":"490G00011430","stopLetter":"B","topMostParentId":"490G00011430","towards":"Woodford Bridge"},{"icsId":"1009730","id":"490009730N","lat":51.597628,"lon":0.039577,"name":"Maybank Road","parentId":"490G00009730","stationId":"490G00009730","stopLetter":"C","topMostParentId":"490G00009730","towards":"Buckhurst Hill"},{"icsId":"1019138","id":"490004374W","lat":51.6009,"lon":0.042251,"name":"Broadmead Road / Chigwell Road","parentId":"490G00019138","stationId":"490G00019138","stopLetter":"U","topMostParentId":"490G00019138","towards":"South Woodford Or Woodford Station"},{"icsId":"1010612","id":"490010612W","lat":51.601995,"lon":0.038228,"name":"Orchard Estate","parentId":"490G00010612","stationId":"490G00010612","stopLetter":"V","topMostParentId":"490G00010612","towards":"South Woodford Or Woodford Station"},{"icsId":"1012403","id":"490009879N","lat":51.603661,"lon":0.034432,"name":"Spring Gardens","parentId":"490G00012403","stationId":"490G00012403","stopLetter":"H","topMostParentId":"490G00012403","towards":"Buckhurst Hill Or Woodford Bridge"},{"icsId":"1000274","id":"490000274A","lat":51.607434,"lon":0.035742,"name":"Woodford Station","parentId":"490G00274S","stationId":"490G00274S","stopLetter":"A","topMostParentId":"940GZZLUWOF","towards":"Buckhurst Hill Or Woodford Bridge","zone":"4"},{"icsId":"1008238","id":"490008238N","lat":51.61099,"lon":0.038096,"name":"Hillside Close","parentId":"490G00008238","stationId":"490G00008238","stopLetter":"AA","topMostParentId":"490G00008238","towards":"Buckhurst Hill"},{"icsId":"1008099","id":"490008099N","lat":51.613438,"lon":0.040055,"name":"Heronway","parentId":"490G00008099","stationId":"490G00008099","stopLetter":"->N","topMostParentId":"490G00008099","towards":"Buckhurst Hill"},{"icsId":"1004654","id":"490004654N","lat":51.615776,"lon":0.044147,"name":"Bush Road","parentId":"490G000435","stationId":"490G000435","stopLetter":"->N","topMostParentId":"490G000435","towards":"Buckhurst Hill"},{"icsId":"1018534","id":"1500IM1938","lat":51.61842,"lon":0.045681,"name":"Monkhams Inn","parentId":"150G00000940","stationId":"150G00000940","topMostParentId":"150G00000940","towards":"Buckhurst Hill"},{"icsId":"1019148","id":"150042020005","lat":51.621587,"lon":0.046632,"name":"Oak Rise","parentId":"150G00000939","stationId":"150G00000939","topMostParentId":"150G00000939","towards":"Buckhurst Hill"},{"icsId":"1003161","id":"150042020003","lat":51.624712,"lon":0.047394,"name":"Cedar Close","parentId":"150G00000938","stationId":"150G00000938","topMostParentId":"150G00000938","towards":"Loughton"},{"icsId":"1003720","id":"150042020001","lat":51.626681,"lon":0.04796,"name":"Buckhurst Court","parentId":"150G00000937","stationId":"150G00000937","topMostParentId":"150G00000937","towards":"Loughton"},{"icsId":"1000317","id":"1500IM359","lat":51.626505,"lon":0.046204,"name":"Buckhurst Hill Station","parentId":"150G00003292","stationId":"150G00003292","topMostParentId":"940GZZLUBKH","towards":"Chigwell, Loughton Or Woodford"},{"icsId":"1010740","id":"150042018005","lat":51.627017,"lon":0.042615,"name":"Roebuck Lane","parentId":"150G00000957","stationId":"150G00000957","topMostParentId":"150G00000957","towards":"Loughton"},{"icsId":"1010739","id":"150042018003","lat":51.627118,"lon":0.037316,"name":"Westbury Road","parentId":"150G00000956","stationId":"150G00000956","topMostParentId":"150G00000956","towards":"Loughton"},{"icsId":"1010737","id":"1500BUCKPALM","lat":51.626924,"lon":0.03345,"name":"The Green","parentId":"150G00000955","stationId":"150G00000955","topMostParentId":"150G00000955","towards":"Loughton"},{"icsId":"1004548","id":"150042011004","lat":51.627664,"lon":0.033324,"name":"Russell Road","parentId":"150G00000897","stationId":"150G00000897","topMostParentId":"150G00000897","towards":"Loughton Station Or Debden"},{"icsId":"1004549","id":"150042011006","lat":51.63133,"lon":0.03606,"name":"Cricket Ground","parentId":"150G00000898","stationId":"150G00000898","topMostParentId":"150G00000898","towards":"Loughton Station Or Debden"},{"icsId":"1004544","id":"150042011009","lat":51.638079,"lon":0.041493,"name":"North Farm","parentId":"150G00000899","stationId":"150G00000899","topMostParentId":"150G00000899","towards":"Debden Or Loughton Station"},{"icsId":"1009388","id":"150042010001","lat":51.64067,"lon":0.045598,"name":"Spring Grove","parentId":"150G00000900","stationId":"150G00000900","topMostParentId":"150G00000900","towards":"Loughton Station Or Debden"},{"icsId":"1009389","id":"150042010003","lat":51.642545,"lon":0.049412,"name":"Upper Park","topMostParentId":"150042010003","towards":"Debden Or Loughton Station"},{"icsId":"1009382","id":"1500IM504","lat":51.644201,"lon":0.052449,"name":"The Crown","parentId":"150G00000959","stationId":"150G00000959","topMostParentId":"150G00000959","towards":"Debden, Buckhurst Hill Or  Chingford"},{"icsId":"1000316","id":"1500IM358","lat":51.641953,"lon":0.055036,"name":"Loughton Station","parentId":"150G00000960","stationId":"150G00000960","stopLetter":"B","topMostParentId":"940GZZLULGN"}]}]}