{"direction":"outbound","lineId":"55","lineName":"55","mode":"bus","stopPointSequences":[{"stopPoint":[{"icsId":"1014164","id":"490014164A","lat":51.5834,"lon":-0.02049,"name":"Walthamstow Bus Station","parentId":"490G000817","stationId":"490G000817","stopLetter":"A","topMostParentId":"490G000817","towards":"Hackney, Leyton Or Stratford"},{"icsId":"1007547","id":"490007547S","lat":51.57945,"lon":-0.01799,"name":"Grosvenor Park Road","parentId":"490G00007547","stationId":"490G00007547","stopLetter":"K","topMostParentId":"490G00007547","towards":"Clapton, Leyton Or Whipps Cross"},{"icsId":"1007576","id":"490007576S","lat":51.57758,"lon":-0.01637,"name":"Grove Road","parentId":"490G00007576","stationId":"490G00007576","stopLetter":"SJ","topMostParentId":"490G00007576","towards":"Clapton, Leyton Or Whipps Cross"},{"icsId":"1015099","id":"490015099A","lat":51.5762,"lon":-0.0148,"name":"Bakers Avenue","parentId":"490G00015099","stationId":"490G00015099","stopLetter":"SK","topMostParentId":"490G00015099","towards":"Clapton, Leyton Or Whipps Cross"},{"icsId":"1009130","id":"490009130L","lat":51.57407,"lon":-0.01454,"name":"High Road Leyton / Bakers Arms","parentId":"490G00009130","stationId":"490G00009130","stopLetter":"WH","topMostParentId":"490G00009130","towards":"Clapton"},{"icsId":"1012123","id":"490012123W","lat":51.57308,"lon":-0.01629,"name":"Shortlands Road","parentId":"490G00012123","stationId":"490G00012123","stopLetter":"WJ","topMostParentId":"490G00012123","towards":"Clapton"},{"icsId":"1009583","id":"490009583W","lat":51.57209,"lon":-0.01982,"name":"Manor Road","parentId":"490G00009583","stationId":"490G00009583","stopLetter":"LJ","topMostParentId":"490G00009583","towards":"Clapton"},{"icsId":"1009668","id":"490009668W","lat":51.57067,"lon":-0.0241,"name":"Markhouse Road","parentId":"490G00009668","stationId":"490G00009668","stopLetter":"LK","topMostParentId":"490G00009668","towards":"Clapton"},{"icsId":"1009131","id":"490009131W","lat":51.56883,"lon":-0.02897,"name":"Emmanuel Parish Church","parentId":"490G00009131","stationId":"490G00009131","stopLetter":"LL","topMostParentId":"490G00009131","towards":"Clapton"},{"icsId":"1000499","id":"490010956W","lat":51.568,"lon":-0.03146,"name":"Bloxhall Road","parentId":"490G00000499","stationId":"490G00000499","stopLetter":"LM","topMostParentId":"490G00000499","towards":"Clapton"},{"icsId":"1001349","id":"490011583W","lat":51.5667,"lon":-0.03478,"name":"Lea Bridge Station","parentId":"910GLEABDGE","stationId":"910GLEABDGE","stopLetter":"LN","topMostParentId":"910GLEABDGE","towards":"Clapton"},{"icsId":"1009073","id":"490009073W","lat":51.56403,"lon":-0.04114,"name":"Lea Valley Riding Centre","parentId":"490G00009073","stationId":"490G00009073","stopLetter":"N","topMostParentId":"490G00009073","towards":"Hackney Central Or Dalston Junction"},{"icsId":"1009072","id":"490009072W","lat":51.56295,"lon":-0.04372,"name":"Lee Valley Ice Centre","parentId":"490G00009072","stationId":"490G00009072","stopLetter":"P","topMostParentId":"490G00009072","towards":"Hackney Central Or Dalston Junction"},{"icsId":"1005048","id":"490005048W","lat":51.561,"lon":-0.04827,"name":"Chatsworth Road","parentId":"490G00005048","stationId":"490G00005048","stopLetter":"Q","topMostParentId":"490G00005048","towards":"Hackney Central Or Dalston Junction"},{"icsId":"1014310","id":"490014310E1","lat":51.55995,"lon":-0.05076,"name":"Wattisfield Road","parentId":"490G00014310","stationId":"490G00014310","stopLetter":"U","topMostParentId":"490G00014310","towards":"Hackney Central Or Dalston Junction"},{"icsId":"1009035","id":"490005337T","lat":51.55866,"lon":-0.05434,"name":"Lea Bridge Roundabout","parentId":"490G00009035","stationId":"490G00009035","stopLetter":"T","topMostParentId":"490G00009035","towards":"Hackney Central Or Dalston Junction"},{"icsId":"1005340","id":"490009035E","lat":51.5568,"lon":-0.05569,"name":"Clapton Pond","parentId":"490G00005340","stationId":"490G00005340","stopLetter":"E","topMostParentId":"490G00005340","towards":"Homerton Hospital, Dalston Or Hackney"},{"icsId":"1009896","id":"490009896G","lat":51.55497,"lon":-0.05451,"name":"Millfields Road","parentId":"490G00009896","stationId":"490G00009896","stopLetter":"G","topMostParentId":"490G00009896","towards":"Homerton Hospital, Dalston Or Cambridge Heath"},{"icsId":"1009195","id":"490009195S1","lat":51.55285,"lon":-0.05284,"name":"Clapton Girls' Academy","parentId":"490G00009195","stationId":"490G00009195","stopLetter":"N","topMostParentId":"490G00009195","towards":"Cambridge Heath"},{"icsId":"1007619","id":"490007619V","lat":51.55054,"lon":-0.05242,"name":"Hackney Baths","parentId":"490G00007619","stationId":"490G00007619","stopLetter":"V","topMostParentId":"490G00007619","towards":"Cambridge Heath"},{"icsId":"1005341","id":"490005341S","lat":51.54984,"lon":-0.05381,"name":"Clapton Square","parentId":"490G00005341","stationId":"490G00005341","stopLetter":"S","topMostParentId":"490G00005341","towards":"Cambridge Heath Or Dalston"},{"icsId":"1010154","id":"490010154Y","lat":51.54947,"lon":-0.05858,"name":"Pembury Circus","parentId":"490G00010154","stationId":"490G00010154","stopLetter":"Y","topMostParentId":"490G00010154","towards":"Cambridge Heath Or Dalston"},{"icsId":"1001127","id":"4900001127H","lat":51.54796,"lon":-0.05664,"name":"Hackney Central Station","stopLetter":"H","topMostParentId":"4900001127H","towards":"Cambridge Heath"},{"icsId":"1007626","id":"490007626B","lat":51.54528,"lon":-0.0552,"name":"Hackney Town Hall","parentId":"490G000560","stationId":"490G000560","stopLetter":"B","topMostParentId":"490G000560","towards":"Bethnal Green, Shoreditch Or Mile End"},{"icsId":"1012462","id":"490012462S","lat":51.54247,"lon":-0.05519,"name":"St Thomas's Square","parentId":"490G000758","stationId":"490G000758","stopLetter":"LZ","topMostParentId":"490G000758","towards":"Bethnal Green Or Shoreditch"},{"icsId":"1014373","id":"490014373LA","lat":51.53955,"lon":-0.05608,"name":"Mare Street / Well Street","parentId":"490G00014373","stationId":"490G00014373","stopLetter":"LA","topMostParentId":"490G00014373","towards":"Shoreditch"},{"icsId":"1008739","id":"490008739S","lat":51.53737,"lon":-0.05685,"name":"King Edward's Road","parentId":"490G00008739","stationId":"490G00008739","stopLetter":"LE","topMostParentId":"490G00008739","towards":"Shoreditch, Mile End Or Whitechapel"},{"icsId":"1003314","id":"490007624S","lat":51.53493,"lon":-0.05714,"name":"Mare Street / Victoria Park Road","parentId":"490G00003314","stationId":"490G00003314","stopLetter":"Q","topMostParentId":"490G00003314","towards":"Shoreditch, Mile End Or Whitechapel"},{"icsId":"1001044","id":"490001044N","lat":51.5324,"lon":-0.0581,"name":"Cambridge Heath Station","stopLetter":"N","topMostParentId":"490001044N","towards":"Liverpool Street Or Old Street"},{"icsId":"1011243","id":"490011243W","lat":51.53171,"lon":-0.062,"name":"Pritchard's Road","parentId":"490G00011243","stationId":"490G00011243","stopLetter":"HC","topMostParentId":"490G00011243","towards":"Liverpool Street Or Old Street"},{"icsId":"1011306","id":"490011306W","lat":51.53131,"lon":-0.06499,"name":"Warner Place","parentId":"490G00011306","stationId":"490G00011306","stopLetter":"HD","topMostParentId":"490G00011306","towards":"Liverpool Street Or Old Street"},{"icsId":"1011325","id":"490011325W","lat":51.53092,"lon":-0.0707,"name":"Queensbridge Road","parentId":"490G00011325","stationId":"490G00011325","stopLetter":"HE","topMostParentId":"490G00011325","towards":"Liverpool Street Or Old Street"},{"icsId":"1001570","id":"490010230W","lat":51.52916,"lon":-0.07502,"name":"Hoxton Station","stopLetter":"HF","topMostParentId":"490010230W","towards":"Liverpool Street Or Old Street"},{"icsId":"1007625","id":"490003487S","lat":51.52749,"lon":-0.07679,"name":"Shoreditch Church","parentId":"490G00007625","stationId":"490G00007625","stopLetter":"S","topMostParentId":"490G00007625","towards":"Liverpool Street Or Old Street"},{"icsId":"1010585","id":"490016408W","lat":51.52717,"lon":-0.07889,"name":"Shoreditch Town Hall","parentId":"490G00010585","stationId":"490G00010585","stopLetter":"W","topMostParentId":"490G00010585","towards":"Holborn"},{"icsId":"1005619","id":"490005619YA","lat":51.52653,"lon":-0.08327,"name":"Great Eastern Street","parentId":"490G00005619","stationId":"490G00005619","stopLetter":"YA","topMostParentId":"490G00005619","towards":"Holborn"},{"icsId":"1000169","id":"490000169L","lat":51.52608,"lon":-0.0854,"name":"Old Street Station","stopLetter":"L","topMostParentId":"490000169L","towards":"Holborn Or Islington","zone":"1"},{"icsId":"1018554","id":"490015194G","lat":51.52538,"lon":-0.08949,"name":"Bunhill Row","parentId":"490G00018554","stationId":"490G00018554","stopLetter":"G","topMostParentId":"490G00018554","towards":"Holborn"},{"icsId":"1003657","id":"490012769W","lat":51.52474,"lon":-0.09354,"name":"St Luke's Music Education Centre","parentId":"490G00003657","stationId":"490G00003657","stopLetter":"H","topMostParentId":"490G00003657","towards":"Holborn"},{"icsId":"1019702","id":"490019702BX","lat":51.52364,"lon":-0.09751,"name":"Goswell Road","parentId":"490G00019702","stationId":"490G00019702","stopLetter":"BX","topMostParentId":"490G00019702","towards":"Holborn"},{"icsId":"1012745","id":"490012745W","lat":51.52261,"lon":-0.10114,"name":"Clerkenwell Road / St John Street","parentId":"490G00012745","stationId":"490G00012745","stopLetter":"->W","topMostParentId":"490G00012745","towards":"Holborn Or Angel Islington"},{"icsId":"1005391","id":"490005391K","lat":51.52226,"lon":-0.10561,"name":"Clerkenwell Green","parentId":"490G00005391","stationId":"490G00005391","stopLetter":"K","topMostParentId":"490G00005391","towards":"Holborn"},{"icsId":"1007901","id":"490007901D","lat":51.52197,"lon":-0.10891,"name":"Hatton Garden","parentId":"490G00007901","stationId":"490G00007901","stopLetter":"D","topMostParentId":"490G00007901","towards":"Holborn"},{"icsId":"1011679","id":"490011679W","lat":51.52181,"lon":-0.11154,"name":"Rosebery Avenue","parentId":"490G00011679","stationId":"490G00011679","stopLetter":"CW","topMostParentId":"490G00011679","towards":"Holborn"},{"icsId":"1007391","id":"490007391W","lat":51.52135,"lon":-0.11405,"name":"Gray's Inn Road","parentId":"490G00007391","stationId":"490G00007391","stopLetter":"CP","topMostParentId":"490G00007391","towards":"Aldwych Or Tottenham Court Road"},{"icsId":"1007834","id":"490007834F","lat":51.51997,"lon":-0.11896,"name":"Red Lion Street","parentId":"490G00007834","stationId":"490G00007834","stopLetter":"A","topMostParentId":"490G00007834","towards":"Aldwych Or Tottenham Court Road"},{"icsId":"1004114","id":"490018901W","lat":51.5186,"lon":-0.12172,"name":"Bloomsbury Square","parentId":"490G00004114","stationId":"490G00004114","stopLetter":"B","topMostParentId":"490G00004114","towards":"Piccadilly Or Oxford Circus"},{"icsId":"1010131","id":"490010131W","lat":51.51741,"lon":-0.1246,"name":"Museum Street","parentId":"490G00010131","stationId":"490G00010131","stopLetter":"C","topMostParentId":"490G00010131","towards":"Piccadilly Or Oxford Circus"},{"icsId":"1000235","id":"490000235X","lat":51.51668,"lon":-0.12812,"name":"Tottenham Court Road Station","stopLetter":"X","topMostParentId":"490000235X","towards":"Oxford Circus Or Piccadilly Circus","zone":"1"},{"icsId":"1000235","id":"490000235YB","lat":51.5161,"lon":-0.13407,"name":"Tottenham Court Road Station","stopLetter":"YB","topMostParentId":"490000235YB","towards":"Marble Arch","zone":"1"},{"icsId":"1014214","id":"490014214HE","lat":51.51592,"lon":-0.13542,"name":"Wardour Street","parentId":"490G00014214","stationId":"490G00014214","stopLetter":"OM","topMostParentId":"490G00014214","towards":"Marble Arch"},{"icsId":"1010689","id":"490010689KB","lat":51.51547,"lon":-0.13992,"name":"Great Titchfield St / Oxford Circus Stn","parentId":"490G000691","stationId":"490G000691","stopLetter":"OP","topMostParentId":"490G000691","towards":"Marble Arch"}]}]}