{"direction":"outbound","lineId":"56","lineName":"56","mode":"bus","stopPointSequences":[{"stopPoint":[{"icsId":"1002116","id":"490002116Y","lat":51.58138,"lon":0.00178,"name":"Whipps Cross Bus Stand","parentId":"490G000338","stationId":"490G000338","stopLetter":"R","topMostParentId":"490G000338","towards":"Leyton Bakers Arms"},{"icsId":"1006342","id":"490013295W","lat":51.57951,"lon":-0.00433,"name":"Peterborough Road","parentId":"490G00006342","stationId":"490G00006342","stopLetter":"WA","topMostParentId":"490G00006342","towards":"Clapton Or Walthamstow Central"},{"icsId":"1006644","id":"490006644W","lat":51.57837,"lon":-0.00678,"name":"Essex Road","parentId":"490G00006644","stationId":"490G00006644","stopLetter":"WB","topMostParentId":"490G00006644","towards":"Clapton Or Walthamstow Central"},{"icsId":"1006998","id":"490006998W","lat":51.57728,"lon":-0.00926,"name":"Fraser Road","parentId":"490G00006998","stationId":"490G00006998","stopLetter":"WD","topMostParentId":"490G00006998","towards":"Clapton Or Leytonstone"},{"icsId":"1015102","id":"490015102D","lat":51.57572,"lon":-0.01231,"name":"Lea Bridge Road / Bakers Arms","parentId":"490G00015102","stationId":"490G00015102","stopLetter":"WE","topMostParentId":"490G00015102","towards":"Clapton Or Leytonstone"},{"icsId":"1009130","id":"490009130L","lat":51.57407,"lon":-0.01454,"name":"High Road Leyton / Bakers Arms","parentId":"490G00009130","stationId":"490G00009130","stopLetter":"WH","topMostParentId":"490G00009130","towards":"Clapton"},{"icsId":"1012123","id":"490012123W","lat":51.57308,"lon":-0.01629,"name":"Shortlands Road","parentId":"490G00012123","stationId":"490G00012123","stopLetter":"WJ","topMostParentId":"490G00012123","towards":"Clapton"},{"icsId":"1009583","id":"490009583W","lat":51.57209,"lon":-0.01982,"name":"Manor Road","parentId":"490G00009583","stationId":"490G00009583","stopLetter":"LJ","topMostParentId":"490G00009583","towards":"Clapton"},{"icsId":"1009668","id":"490009668W","lat":51.57067,"lon":-0.0241,"name":"Markhouse Road","parentId":"490G00009668","stationId":"490G00009668","stopLetter":"LK","topMostParentId":"490G00009668","towards":"Clapton"},{"icsId":"1009131","id":"490009131W","lat":51.56883,"lon":-0.02897,"name":"Emmanuel Parish Church","parentId":"490G00009131","stationId":"490G00009131","stopLetter":"LL","topMostParentId":"490G00009131","towards":"Clapton"},{"icsId":"1000499","id":"490010956W","lat":51.568,"lon":-0.03146,"name":"Bloxhall Road","parentId":"490G00000499","stationId":"490G00000499","stopLetter":"LM","topMostParentId":"490G00000499","towards":"Clapton"},{"icsId":"1001349","id":"490011583W","lat":51.5667,"lon":-0.03478,"name":"Lea Bridge Station","parentId":"910GLEABDGE","stationId":"910GLEABDGE","stopLetter":"LN","topMostParentId":"910GLEABDGE","towards":"Clapton"},{"icsId":"1009073","id":"490009073W","lat":51.56403,"lon":-0.04114,"name":"Lea Valley Riding Centre","parentId":"490G00009073","stationId":"490G00009073","stopLetter":"N","topMostParentId":"490G00009073","towards":"Hackney Central Or Dalston Junction"},{"icsId":"1009072","id":"490009072W","lat":51.56295,"lon":-0.04372,"name":"Lee Valley Ice Centre","parentId":"490G00009072","stationId":"490G00009072","stopLetter":"P","topMostParentId":"490G00009072","towards":"Hackney Central Or Dalston Junction"},{"icsId":"1005048","id":"490005048W","lat":51.561,"lon":-0.04827,"name":"Chatsworth Road","parentId":"490G00005048","stationId":"490G00005048","stopLetter":"Q","topMostParentId":"490G00005048","towards":"Hackney Central Or Dalston Junction"},{"icsId":"1014310","id":"490014310E1","lat":51.55995,"lon":-0.05076,"name":"Wattisfield Road","parentId":"490G00014310","stationId":"490G00014310","stopLetter":"U","topMostParentId":"490G00014310","towards":"Hackney Central Or Dalston Junction"},{"icsId":"1009035","id":"490005337T","lat":51.55866,"lon":-0.05434,"name":"Lea Bridge Roundabout","parentId":"490G00009035","stationId":"490G00009035","stopLetter":"T","topMostParentId":"490G00009035","towards":"Hackney Central Or Dalston Junction"},{"icsId":"1005340","id":"490009035E","lat":51.5568,"lon":-0.05569,"name":"Clapton Pond","parentId":"490G00005340","stationId":"490G00005340","stopLetter":"E","topMostParentId":"490G00005340","towards":"Homerton Hospital, Dalston Or Hackney"},{"icsId":"1005768","id":"490005768J","lat":51.55473,"lon":-0.05696,"name":"Cricketfield Road","parentId":"490G00005768","stationId":"490G00005768","stopLetter":"J","topMostParentId":"490G00005768","towards":"Dalston Junction"},{"icsId":"1010900","id":"490010900S","lat":51.55182,"lon":-0.05827,"name":"Pembury Road / Downs Park Road","parentId":"490G00010900","stationId":"490G00010900","stopLetter":"K","topMostParentId":"490G00010900","towards":"Dalston"},{"icsId":"1019875","id":"490001128M","lat":51.54916,"lon":-0.06056,"name":"Hackney Downs Station  / Dalston Lane","parentId":"490G00019875","stationId":"490G00019875","stopLetter":"M","topMostParentId":"490G00019875","towards":"Angel Islington Or Highbury Corner"},{"icsId":"1007432","id":"490007432W","lat":51.54827,"lon":-0.06684,"name":"Cecilia Road / Greenacre Court","parentId":"490G00007432","stationId":"490G00007432","stopLetter":"S","topMostParentId":"490G00007432","towards":"Angel Islington Or Highbury Corner"},{"icsId":"1005944","id":"490005944S","lat":51.54698,"lon":-0.06926,"name":"Graham Road","parentId":"490G00005944","stationId":"490G00005944","stopLetter":"T","topMostParentId":"490G00005944","towards":"Highbury Corner, Angel Or London Fields"},{"icsId":"1001568","id":"490005945G","lat":51.54618,"lon":-0.07463,"name":"Dalston Junction Station","stopLetter":"G","topMostParentId":"490005945G","towards":"Angel Islington Or Highbury Corner"},{"icsId":"1004583","id":"490004583F","lat":51.54613,"lon":-0.07788,"name":"Balls Pond Road / Burder Road","parentId":"490G00004583","stationId":"490G00004583","stopLetter":"F","topMostParentId":"490G00004583","towards":"Angel Islington Or Highbury Corner"},{"icsId":"1012302","id":"490012302W","lat":51.5465,"lon":-0.08307,"name":"Southgate Road","parentId":"490G00012302","stationId":"490G00012302","stopLetter":"BH","topMostParentId":"490G00012302","towards":"Angel Islington Or Highbury Corner"},{"icsId":"1006645","id":"490006645W","lat":51.5465,"lon":-0.08617,"name":"Essex Road / Newington Green Road","parentId":"490G00006645","stationId":"490G00006645","stopLetter":"CD","topMostParentId":"490G00006645","towards":"Angel Islington Or Highbury Corner"},{"icsId":"1009688","id":"490009688S","lat":51.54558,"lon":-0.08768,"name":"Essex Road / Marquess Road","parentId":"490G00009688","stationId":"490G00009688","stopLetter":"CG","topMostParentId":"490G00009688","towards":"Angel Islington"},{"icsId":"1010326","id":"490010326S","lat":51.54351,"lon":-0.09052,"name":"Northchurch Road","parentId":"490G00010326","stationId":"490G00010326","stopLetter":"EH","topMostParentId":"490G00010326","towards":"Angel Islington"},{"icsId":"1001103","id":"490001103S1","lat":51.5409,"lon":-0.09529,"name":"Essex Road Station","stopLetter":"EJ","topMostParentId":"490001103S1","towards":"Angel Islington"},{"icsId":"1005816","id":"490005816E","lat":51.53821,"lon":-0.09938,"name":"Cross Street","parentId":"490G00005816","stationId":"490G00005816","stopLetter":"E","topMostParentId":"490G00005816","towards":"Barbican, Holborn Or Kings Cross"},{"icsId":"1010709","id":"490010709S","lat":51.53684,"lon":-0.10108,"name":"Packington Street","parentId":"490G00010709","stationId":"490G00010709","stopLetter":"A","topMostParentId":"490G00010709","towards":"Barbican, Holborn Or Kings Cross"},{"icsId":"1008515","id":"490008515D","lat":51.53576,"lon":-0.10317,"name":"Islington Green","parentId":"490G00008515","stationId":"490G00008515","stopLetter":"D","topMostParentId":"490G00008515","towards":"Barbican, Holborn Or Kings Cross"},{"icsId":"1000007","id":"490000007G","lat":51.53337,"lon":-0.10564,"name":"Angel Station","stopLetter":"G","topMostParentId":"490000007G","towards":"Barbican Or Old Street","zone":"1"},{"icsId":"1018978","id":"490003327H","lat":51.53165,"lon":-0.10474,"name":"Angel Islington / City Road","parentId":"490G00018978","stationId":"490G00018978","stopLetter":"H","topMostParentId":"490G00018978","towards":"Barbican, Hoxton Or Old Street"},{"icsId":"1006309","id":"490006309S","lat":51.5293,"lon":-0.10167,"name":"Hall Street","parentId":"490G00006309","stationId":"490G00006309","stopLetter":"UM","topMostParentId":"490G00006309","towards":"Barbican"},{"icsId":"1015107","id":"490015107S","lat":51.52822,"lon":-0.10078,"name":"City University","parentId":"490G00015107","stationId":"490G00015107","stopLetter":"UN","topMostParentId":"490G00015107","towards":"Barbican"},{"icsId":"1009099","id":"490009099S","lat":51.52713,"lon":-0.1003,"name":"Percival Street","parentId":"490G00009099","stationId":"490G00009099","stopLetter":"UP","topMostParentId":"490G00009099","towards":"Barbican"},{"icsId":"1019192","id":"490010935S","lat":51.52521,"lon":-0.09952,"name":"Pear Tree Street","parentId":"490G00019192","stationId":"490G00019192","stopLetter":"UR","topMostParentId":"490G00019192","towards":"Barbican"},{"icsId":"1015105","id":"490015105S","lat":51.52375,"lon":-0.09887,"name":"Clerkenwell Road","parentId":"490G00015105","stationId":"490G00015105","stopLetter":"BV","topMostParentId":"490G00015105","towards":"Aldwych Or Barts Hospital"},{"icsId":"1003573","id":"490003573S","lat":51.52234,"lon":-0.09746,"name":"Baltic Street West","parentId":"490G00003573","stationId":"490G00003573","stopLetter":"BP","topMostParentId":"490G00003573","towards":"Aldwych, Moorgate Or St Barts Hospital"},{"icsId":"1000014","id":"490000014B","lat":51.5209,"lon":-0.09738,"name":"Barbican Station","stopLetter":"BB","topMostParentId":"490000014B","towards":"Aldwych, Moorgate Or St Barts Hospital","zone":"1"},{"icsId":"1010130","id":"490010130S","lat":51.51831,"lon":-0.09679,"name":"London Wall","parentId":"490G00010130","stationId":"490G00010130","stopLetter":"BD","topMostParentId":"490G00010130","towards":"Aldwych Or St. Barts Hospital"},{"icsId":"1000225","id":"490000225T","lat":51.51525,"lon":-0.09851,"name":"St Paul's Station","stopLetter":"SQ","topMostParentId":"490000225T","towards":"Aldwych Or Tottenham Court Road","zone":"1"},{"icsId":"1012637","id":"490012637Z","lat":51.51745,"lon":-0.10145,"name":"St. Bartholomew's Hospital","parentId":"490G00012637","stationId":"490G00012637","topMostParentId":"490G00012637"}]}]}