{"direction":"outbound","lineId":"57","lineName":"57","mode":"bus","stopPointSequences":[{"stopPoint":[{"icsId":"1006705","id":"490006705B2","lat":51.41044,"lon":-0.29974,"name":"Fairfield Bus Station","parentId":"490G00006705","stationId":"490G00006705","stopLetter":"D","topMostParentId":"490G00006705","towards":"Ham Or Norbiton"},{"icsId":"1006412","id":"490006412E2","lat":51.41015,"lon":-0.30251,"name":"Eden Street","parentId":"490G00006412","stationId":"490G00006412","stopLetter":"E2","topMostParentId":"490G00006412","towards":"Kingston Hospital Or New Malden"},{"icsId":"1005800","id":"490005800A2","lat":51.41236,"lon":-0.29887,"name":"Cromwell Road Bus Station","parentId":"490G000476","stationId":"490G000476","stopLetter":"A2","topMostParentId":"490G000476","towards":"Kingston Vale, New Malden Or Raynes Park"},{"icsId":"1013664","id":"490013664C1","lat":51.41075,"lon":-0.29599,"name":"Tiffin School / London Road","parentId":"490G00013664","stationId":"490G00013664","stopLetter":"B","topMostParentId":"490G00013664","towards":"Kingston Vale, New Malden Or Raynes Park"},{"icsId":"1010295","id":"490010295E","lat":51.41097,"lon":-0.29312,"name":"Norbiton Church","parentId":"490G00010295","stationId":"490G00010295","stopLetter":"->E","topMostParentId":"490G00010295","towards":"Ham, Kingston Vale Or New Malden"},{"icsId":"1018701","id":"4900018701N","lat":51.41259,"lon":-0.28935,"name":"Gordon Road","parentId":"490G00018701","stationId":"490G00018701","stopLetter":"NZ","topMostParentId":"490G00018701","towards":"Kingston Vale, New Malden Or Raynes Park"},{"icsId":"1010799","id":"490010799NP","lat":51.41462,"lon":-0.28693,"name":"Park Road","parentId":"490G00010799","stationId":"490G00010799","stopLetter":"NP","topMostParentId":"490G00010799","towards":"Kingston Vale, New Malden Or Raynes Park"},{"icsId":"1011351","id":"490011351NM","lat":51.41642,"lon":-0.28353,"name":"Queens Road / Kingston Hospital","parentId":"490G00011351","stationId":"490G00011351","stopLetter":"NM","topMostParentId":"490G00011351","towards":"Kingston Vale, New Malden Or Raynes Park"},{"icsId":"1015315","id":"490015315NK","lat":51.41538,"lon":-0.28065,"name":"Kingston Hospital","parentId":"490G00015315","stationId":"490G00015315","stopLetter":"NK","topMostParentId":"490G00015315","towards":"New Malden, Raynes Park Or Kingston"},{"icsId":"1014807","id":"490014807E","lat":51.41336,"lon":-0.27782,"name":"Wolsey Close","parentId":"490G00014807","stationId":"490G00014807","stopLetter":"NG","topMostParentId":"490G00014807","towards":"Raynes Park"},{"icsId":"1003166","id":"490003166E","lat":51.41356,"lon":-0.27319,"name":"Albion Road","parentId":"490G00003166","stationId":"490G00003166","stopLetter":"->E","topMostParentId":"490G00003166","towards":"Raynes Park"},{"icsId":"1005571","id":"490005571E","lat":51.41567,"lon":-0.2663,"name":"Coombe Hill School","parentId":"490G00005571","stationId":"490G00005571","stopLetter":"->E","topMostParentId":"490G00005571","towards":"Raynes Park"},{"icsId":"1013774","id":"490013774E","lat":51.41681,"lon":-0.26221,"name":"Traps Lane","parentId":"490G00013774","stationId":"490G00013774","stopLetter":"->E","topMostParentId":"490G00013774","towards":"Raynes Park"},{"icsId":"1010265","id":"490010265E","lat":51.41643,"lon":-0.25476,"name":"New Victoria Hospital","parentId":"490G00010265","stationId":"490G00010265","stopLetter":"->E","topMostParentId":"490G00010265","towards":"Raynes Park"},{"icsId":"1008282","id":"490008282E","lat":51.41441,"lon":-0.24837,"name":"Holland Avenue","parentId":"490G00008282","stationId":"490G00008282","topMostParentId":"490G00008282","towards":"Wimbledon"},{"icsId":"1005632","id":"490005632E","lat":51.41345,"lon":-0.24605,"name":"Cottenham Park Road","parentId":"490G00005632","stationId":"490G00005632","stopLetter":"->E","topMostParentId":"490G00005632","towards":"Wimbledon"},{"icsId":"1004707","id":"490004707E","lat":51.412,"lon":-0.24149,"name":"Cambridge Road","parentId":"490G00004707","stationId":"490G00004707","stopLetter":"->E","topMostParentId":"490G00004707","towards":"Wimbledon"},{"icsId":"1003496","id":"490003496E","lat":51.41044,"lon":-0.23772,"name":"Avenue Road","parentId":"490G00003496","stationId":"490G00003496","topMostParentId":"490G00003496","towards":"Wimbledon"},{"icsId":"1014397","id":"490014397E","lat":51.40972,"lon":-0.23384,"name":"Durham Road","parentId":"490G00014397","stationId":"490G00014397","stopLetter":"A","topMostParentId":"490G00014397","towards":"Wimbledon"},{"icsId":"1001237","id":"490001237C","lat":51.40968,"lon":-0.23078,"name":"Raynes Park Station","stopLetter":"B","topMostParentId":"490001237C","towards":"Wimbledon"},{"icsId":"1011457","id":"490011457E","lat":51.41063,"lon":-0.22874,"name":"Raynes Park Methodist Church","parentId":"490G00011457","stationId":"490G00011457","stopLetter":"D","topMostParentId":"490G00011457","towards":"Wimbledon"},{"icsId":"1003392","id":"490003392W1","lat":51.41243,"lon":-0.22411,"name":"Arterberry Road","parentId":"490G00003392","stationId":"490G00003392","stopLetter":"E","topMostParentId":"490G00003392","towards":"Wimbledon"},{"icsId":"1015361","id":"490015361E","lat":51.4136,"lon":-0.222,"name":"Lower Downs Road","parentId":"490G00015361","stationId":"490G00015361","stopLetter":"->E","topMostParentId":"490G00015361","towards":"Wimbledon"},{"icsId":"1003155","id":"490003155E","lat":51.41518,"lon":-0.21949,"name":"Albert Grove","parentId":"490G00003155","stationId":"490G00003155","stopLetter":"->E","topMostParentId":"490G00003155","towards":"Wimbledon"},{"icsId":"1005961","id":"490005961E","lat":51.41716,"lon":-0.21621,"name":"Darlaston Road","parentId":"490G00005961","stationId":"490G00005961","stopLetter":"->E","topMostParentId":"490G00005961","towards":"Colliers Wood"},{"icsId":"1012378","id":"490012378E","lat":51.41923,"lon":-0.21266,"name":"Spencer Hill","parentId":"490G00012378","stationId":"490G00012378","stopLetter":"W","topMostParentId":"490G00012378","towards":"Colliers Wood"},{"icsId":"1006987","id":"490006987N","lat":51.4212,"lon":-0.20962,"name":"Francis Grove","parentId":"490G00006987","stationId":"490G00006987","stopLetter":"N","topMostParentId":"490G00006987","towards":"Colliers Wood, Southfields Or Wimbledon Chase"},{"icsId":"1000272","id":"490015472D","lat":51.42066,"lon":-0.20543,"name":"Wimbledon Station","stopLetter":"D","topMostParentId":"490015472D","towards":"Colliers Wood, Morden Or Wimbledon Chase","zone":"3"},{"icsId":"1014742","id":"490014742X","lat":51.4192,"lon":-0.19978,"name":"Wimbledon Theatre","parentId":"490G00014742","stationId":"490G00014742","stopLetter":"X","topMostParentId":"490G00014742","towards":"Morden Or Colliers Wood"},{"icsId":"1013807","id":"490013807E","lat":51.41942,"lon":-0.19588,"name":"The Polka Theatre","parentId":"490G00013807","stationId":"490G00013807","stopLetter":"SU","topMostParentId":"490G00013807","towards":"Colliers Wood Or Morden"},{"icsId":"1009835","id":"490009835J","lat":51.41746,"lon":-0.19251,"name":"Merton Road","parentId":"490G00009835","stationId":"490G00009835","stopLetter":"SV","topMostParentId":"490G00009835","towards":"Colliers Wood Or Morden"},{"icsId":"1000216","id":"490000216D","lat":51.41572,"lon":-0.19051,"name":"South Wimbledon Station","stopLetter":"SZ","topMostParentId":"490000216D","towards":"Mitcham Or Tooting","zone":"3+4"},{"icsId":"1007938","id":"490007938F","lat":51.41611,"lon":-0.18536,"name":"Abbey Road","parentId":"490G00007938","stationId":"490G00007938","stopLetter":"SH","topMostParentId":"490G00007938","towards":"Mitcham Or Tooting"},{"icsId":"1009830","id":"490009830E","lat":51.41642,"lon":-0.18153,"name":"Merton Abbey","parentId":"490G00009830","stationId":"490G00009830","stopLetter":"E","topMostParentId":"490G00009830","towards":"Mitcham Or Tooting"},{"icsId":"1000055","id":"490000055D","lat":51.41889,"lon":-0.17755,"name":"Colliers Wood Station","stopLetter":"D","topMostParentId":"490000055D","towards":"Tooting Broadway","zone":"3"},{"icsId":"1014149","id":"490014149N","lat":51.42094,"lon":-0.17556,"name":"Walpole Road","parentId":"490G00014149","stationId":"490G00014149","stopLetter":"L","topMostParentId":"490G00014149","towards":"Tooting Broadway"},{"icsId":"1009332","id":"490009332H11","lat":51.42336,"lon":-0.1731,"name":"Longley Road","parentId":"490G00009332","stationId":"490G00009332","stopLetter":"HQ","topMostParentId":"490G00009332","towards":"Streatham Or Tooting Bec"},{"icsId":"1010468","id":"490010468H8","lat":51.42569,"lon":-0.17028,"name":"Nutwell Street","parentId":"490G00010468","stationId":"490G00010468","stopLetter":"HN","topMostParentId":"490G00010468","towards":"Mitcham, Streatham Or Tooting Bec"},{"icsId":"1000234","id":"490000234ZZ","lat":51.42709,"lon":-0.16917,"name":"Tooting Broadway Station","stopLetter":"->N","topMostParentId":"490000234ZZ","towards":"Mitcham Or Streatham","zone":"3"},{"icsId":"1003995","id":"490000234C","lat":51.42718,"lon":-0.16669,"name":"Mitcham Road / Tooting Broadway Stn","parentId":"490G000417","stationId":"490G000417","stopLetter":"C","topMostParentId":"490G000417","towards":"Streatham"},{"icsId":"1013709","id":"490013709R","lat":51.42542,"lon":-0.16438,"name":"Tooting / the Mitre","parentId":"490G00013709","stationId":"490G00013709","stopLetter":"TJ","topMostParentId":"490G00013709","towards":"Mitcham Or Streatham"},{"icsId":"1003295","id":"490003295U","lat":51.42367,"lon":-0.16189,"name":"Amen Corner","parentId":"490G00003295","stationId":"490G00003295","stopLetter":"TL","topMostParentId":"490G00003295","towards":"Mitcham Or Streatham"},{"icsId":"1005830","id":"490005830E","lat":51.42267,"lon":-0.15835,"name":"Crowborough Road","parentId":"490G00005830","stationId":"490G00005830","stopLetter":"TM","topMostParentId":"490G00005830","towards":"Mitcham Or Streatham"},{"icsId":"1006319","id":"490006319E","lat":51.42178,"lon":-0.15509,"name":"Eastbourne Road","parentId":"490G00006319","stationId":"490G00006319","stopLetter":"TN","topMostParentId":"490G00006319","towards":"Mitcham Or Streatham"},{"icsId":"1010284","id":"490010284E","lat":51.42076,"lon":-0.15155,"name":"Nimrod Road","parentId":"490G00010284","stationId":"490G00010284","stopLetter":"T","topMostParentId":"490G00010284","towards":"Mitcham Or Streatham"},{"icsId":"1012269","id":"490012269E","lat":51.41965,"lon":-0.14732,"name":"Southcroft Road / Mitcham Lane","parentId":"490G00012269","stationId":"490G00012269","stopLetter":"U","topMostParentId":"490G00012269","towards":"Mitcham Or Streatham"},{"icsId":"1005931","id":"490005931N","lat":51.42151,"lon":-0.14499,"name":"Dahomey Road","parentId":"490G00005931","stationId":"490G00005931","stopLetter":"R","topMostParentId":"490G00005931","towards":"Streatham"},{"icsId":"1013647","id":"490013647N","lat":51.42355,"lon":-0.14253,"name":"Thrale Road","parentId":"490G00013647","stationId":"490G00013647","stopLetter":"S","topMostParentId":"490G00013647","towards":"Streatham"},{"icsId":"1003189","id":"490003189N","lat":51.42502,"lon":-0.14066,"name":"Aldrington Road","parentId":"490G00003189","stationId":"490G00003189","stopLetter":"->N","topMostParentId":"490G00003189","towards":"Streatham"},{"icsId":"1005566","id":"490005566N","lat":51.42677,"lon":-0.1361,"name":"Conyers Road","parentId":"490G00005566","stationId":"490G00005566","stopLetter":"SP","topMostParentId":"490G00005566","towards":"Brixton Or Tulse Hill"},{"icsId":"1003292","id":"490003292S2","lat":51.42746,"lon":-0.13406,"name":"Ambleside Avenue","parentId":"490G00003292","stationId":"490G00003292","stopLetter":"SR","topMostParentId":"490G00003292","towards":"Brixton Or Tulse Hill"},{"icsId":"1012933","id":"490012761SV","lat":51.42832,"lon":-0.1323,"name":"Streatham / St Leonard's Church","parentId":"490G00012933","stationId":"490G00012933","stopLetter":"ST","topMostParentId":"490G00012933","towards":"Brixton Or Tulse Hill"},{"icsId":"1003758","id":"490003758O","lat":51.43256,"lon":-0.12917,"name":"Becmead Avenue","parentId":"490G00003758","stationId":"490G00003758","stopLetter":"O","topMostParentId":"490G00003758","towards":"Brixton, Clapham Common Or Tulse Hill"},{"icsId":"1008765","id":"490008765M","lat":51.43449,"lon":-0.12862,"name":"Kingscourt Road","parentId":"490G00008765","stationId":"490G00008765","stopLetter":"M","topMostParentId":"490G00008765","towards":"Clapham Common, Brixton Or Tulse Hill"},{"icsId":"1010078","id":"490010078K","lat":51.43594,"lon":-0.12819,"name":"Mount Ephraim Road","parentId":"490G00010078","stationId":"490G00010078","stopLetter":"K","topMostParentId":"490G00010078","towards":"Clapham Common, Brixton Or Tulse Hill"},{"icsId":"1019944","id":"490001281A","lat":51.43941,"lon":-0.12626,"name":"Streatham Hill Stn  / Streatham Hill","parentId":"490G000969","stationId":"490G000969","stopLetter":"A","topMostParentId":"490G000969","towards":"Brixton"},{"icsId":"1003598","id":"490003598S","lat":51.44078,"lon":-0.12557,"name":"Barrhill Road","parentId":"490G00003598","stationId":"490G00003598","stopLetter":"S","topMostParentId":"490G00003598","towards":"Clapham Common, Brixton Or Tulse Hill"},{"icsId":"1013186","id":"490013186TA","lat":51.44261,"lon":-0.12476,"name":"Telford Avenue","parentId":"490G00013186","stationId":"490G00013186","stopLetter":"TA","topMostParentId":"490G00013186","towards":"Brixton Or Clapham Common"},{"icsId":"1005234","id":"490005234N","lat":51.44459,"lon":-0.12475,"name":"Christchurch Road","parentId":"490G00005234","stationId":"490G00005234","stopLetter":"BS","topMostParentId":"490G00005234","towards":"Brixton Or Clapham Common"},{"icsId":"1012931","id":"490012931W","lat":51.44596,"lon":-0.12687,"name":"Streatham Place","parentId":"490G00012931","stationId":"490G00012931","stopLetter":"BP","topMostParentId":"490G00012931","towards":"Clapham Common"},{"icsId":"1010243","id":"490010243W","lat":51.44716,"lon":-0.12954,"name":"Atkins Road / New Park Road","parentId":"490G00010243","stationId":"490G00010243","stopLetter":"H","topMostParentId":"490G00010243","towards":"Clapham Common"}]}]}