{"direction":"outbound","lineId":"60","lineName":"60","mode":"bus","stopPointSequences":[{"stopPoint":[{"icsId":"1002123","id":"490002123Z","lat":51.29928,"lon":-0.11188,"name":"Oasis Academy","parentId":"490G000345","stationId":"490G000345","stopLetter":"->W","topMostParentId":"490G000345"},{"icsId":"1008495","id":"490008895W","lat":51.2993,"lon":-0.1147,"name":"Lacey Drive","parentId":"490G00008495","stationId":"490G00008495","stopLetter":"->W","topMostParentId":"490G00008495","towards":"Caterham-On-The-Hill"},{"icsId":"1013168","id":"490013168N","lat":51.30133,"lon":-0.11803,"name":"Taunton Lane","parentId":"490G00013168","stationId":"490G00013168","stopLetter":"A","topMostParentId":"490G00013168","towards":"Purley"},{"icsId":"1013317","id":"490013317N","lat":51.30472,"lon":-0.11881,"name":"The Crossways","parentId":"490G00013317","stationId":"490G00013317","stopLetter":"B","topMostParentId":"490G00013317","towards":"Coulsdon Or Purley"},{"icsId":"1010535","id":"490010535W","lat":51.30664,"lon":-0.11991,"name":"Old Coulsdon / Tudor Rose","parentId":"490G00010535","stationId":"490G00010535","stopLetter":"L","topMostParentId":"490G00010535","towards":"Coulsdon"},{"icsId":"1013688","id":"490013688W","lat":51.30586,"lon":-0.12465,"name":"Mead Way / Tollers Lane","parentId":"490G00013688","stationId":"490G00013688","stopLetter":"->W","topMostParentId":"490G00013688","towards":"Purley"},{"icsId":"1009770","id":"490009770W","lat":51.30772,"lon":-0.12837,"name":"New Hill","parentId":"490G00009770","stationId":"490G00009770","stopLetter":"->W","topMostParentId":"490G00009770","towards":"Purley"},{"icsId":"1009776","id":"490009776W","lat":51.30931,"lon":-0.13268,"name":"Mead Way / Chaldon Way","parentId":"490G00009776","stationId":"490G00009776","stopLetter":"->W","topMostParentId":"490G00009776","towards":"Purley"},{"icsId":"1004231","id":"490004231N","lat":51.31142,"lon":-0.13413,"name":"Bradmore Way","parentId":"490G00004231","stationId":"490G00004231","stopLetter":"->N","topMostParentId":"490G00004231","towards":"Purley"},{"icsId":"1004958","id":"490004958N","lat":51.31348,"lon":-0.13491,"name":"Chaldon Way Gardens","parentId":"490G00004958","stationId":"490G00004958","stopLetter":"->N","topMostParentId":"490G00004958","towards":"Purley"},{"icsId":"1001072","id":"490001072P","lat":51.31658,"lon":-0.13746,"name":"Coulsdon South Station","stopLetter":"P","topMostParentId":"490001072P","towards":"Purley"},{"icsId":"1005640","id":"490005640G","lat":51.31962,"lon":-0.13915,"name":"Coulsdon Library","parentId":"490G00005640","stationId":"490G00005640","stopLetter":"G","topMostParentId":"490G00005640","towards":"Purley Or The Mount"},{"icsId":"1001253","id":"490005637N1","lat":51.32145,"lon":-0.13757,"name":"Coulsdon Town Station","stopLetter":"J","topMostParentId":"490005637N1","towards":"Purley Or the Mount"},{"icsId":"1005657","id":"490001253A","lat":51.32279,"lon":-0.13584,"name":"The Avenue","parentId":"490G00005657","stationId":"490G00005657","stopLetter":"A","topMostParentId":"490G00005657","towards":"Purley"},{"icsId":"1014704","id":"490014704N","lat":51.32374,"lon":-0.13447,"name":"Willow Court","parentId":"490G00014704","stationId":"490G00014704","stopLetter":"RA","topMostParentId":"490G00014704","towards":"Purley"},{"icsId":"1015438","id":"490012207N","lat":51.32706,"lon":-0.12961,"name":"Smitham Downs Road","parentId":"490G00015438","stationId":"490G00015438","stopLetter":"RB","topMostParentId":"490G00015438","towards":"South Croydon"},{"icsId":"1010565","id":"490010565C","lat":51.33085,"lon":-0.12549,"name":"Brighton Road / Old Lodge Lane","parentId":"490G000687","stationId":"490G000687","stopLetter":"RC","topMostParentId":"490G000687","towards":"South Croydon"},{"icsId":"1007560","id":"490007560N","lat":51.33315,"lon":-0.1231,"name":"Grovelands Road","parentId":"490G00007560","stationId":"490G00007560","stopLetter":"RD","topMostParentId":"490G00007560","towards":"Croydon"},{"icsId":"1011274","id":"490011274W","lat":51.33709,"lon":-0.11882,"name":"Purley Tesco","parentId":"490G000716","stationId":"490G000716","stopLetter":"W","topMostParentId":"490G000716","towards":"South Croydon"},{"icsId":"1011259","id":"490011259D","lat":51.33917,"lon":-0.11611,"name":"Purley / Downlands Precinct","parentId":"490G00011259","stationId":"490G00011259","stopLetter":"D","topMostParentId":"490G00011259","towards":"Croydon"},{"icsId":"1005236","id":"490005236N","lat":51.34067,"lon":-0.11336,"name":"Christchurch Road / Purley Hospital","parentId":"490G00005236","stationId":"490G00005236","stopLetter":"E","topMostParentId":"490G00005236","towards":"Croydon Or Sanderstead"},{"icsId":"1010002","id":"490010002N","lat":51.34298,"lon":-0.10903,"name":"Montpelier Road","parentId":"490G00010002","stationId":"490G00010002","stopLetter":"F","topMostParentId":"490G00010002","towards":"Croydon Or Sanderstead"},{"icsId":"1013543","id":"490013543N","lat":51.34443,"lon":-0.10632,"name":"Brighton Road / Purley Downs Road","parentId":"490G00013543","stationId":"490G00013543","stopLetter":"J","topMostParentId":"490G00013543","towards":"Croydon Or Sanderstead"},{"icsId":"1003117","id":"490003117A","lat":51.34712,"lon":-0.10273,"name":"Biddulph Road","parentId":"490G00003117","stationId":"490G00003117","stopLetter":"GA","topMostParentId":"490G00003117","towards":"Croydon Town Centre"},{"icsId":"1013603","id":"490013603N","lat":51.34871,"lon":-0.10136,"name":"Purley Oaks Station","parentId":"490G00013603","stationId":"490G00013603","stopLetter":"GB","topMostParentId":"490G00013603","towards":"Croydon Town Centre"},{"icsId":"1011481","id":"490011481N","lat":51.35253,"lon":-0.0984,"name":"Sanderstead Road","parentId":"490G00011481","stationId":"490G00011481","stopLetter":"GC","topMostParentId":"490G00011481","towards":"Croydon Town Centre"},{"icsId":"1012272","id":"490012272N","lat":51.35522,"lon":-0.09786,"name":"South Croydon Bus Garage","parentId":"490G00012272","stationId":"490G00012272","stopLetter":"GD","topMostParentId":"490G00012272","towards":"Croydon Town Centre"},{"icsId":"1007670","id":"490007670N","lat":51.3585,"lon":-0.09786,"name":"Haling Park Road","parentId":"490G00007670","stationId":"490G00007670","stopLetter":"GE","topMostParentId":"490G00007670","towards":"Croydon Town Centre"},{"icsId":"1013920","id":"490013920N","lat":51.36057,"lon":-0.0981,"name":"Upland Road","parentId":"490G00013920","stationId":"490G00013920","stopLetter":"GF","topMostParentId":"490G00013920","towards":"Croydon Town Centre"},{"icsId":"1013100","id":"490013100H","lat":51.36341,"lon":-0.09852,"name":"Swan and Sugar Loaf","parentId":"490G00013100","stationId":"490G00013100","stopLetter":"H","topMostParentId":"490G00013100","towards":"West Croydon"},{"icsId":"1005574","id":"490005574V","lat":51.36725,"lon":-0.09908,"name":"Coombe Road","parentId":"490G00005574","stationId":"490G00005574","stopLetter":"V","topMostParentId":"490G00005574","towards":"West Croydon"},{"icsId":"1005855","id":"490005855C1","lat":51.37002,"lon":-0.10002,"name":"Croydon Flyover","parentId":"490G00005855","stationId":"490G00005855","stopLetter":"KS","topMostParentId":"490G00005855","towards":"West Croydon"},{"icsId":"1002406","id":"490005858NY","lat":51.37297,"lon":-0.09864,"name":"Croydon / St. George's Walk","parentId":"490G00002323","stationId":"490G00002323","stopLetter":"KL","topMostParentId":"490G00002323","towards":"Thornton Heath"},{"icsId":"1014614","id":"490014614E15","lat":51.3761,"lon":-0.0984,"name":"Whitgift Centre","parentId":"490G00014614","stationId":"490G00014614","stopLetter":"WL","topMostParentId":"490G00014614","towards":"Thornton Heath"},{"icsId":"1014420","id":"490014420Y","lat":51.37907,"lon":-0.10148,"name":"West Croydon Bus Station","parentId":"490G000824","stationId":"490G000824","stopLetter":"B4","topMostParentId":"HUBWCY"},{"icsId":"1001324","id":"490001324W2","lat":51.37853,"lon":-0.10369,"name":"West Croydon Station","stopLetter":"WT","topMostParentId":"490001324W2","towards":"Thornton Heath"},{"icsId":"1005856","id":"490005856W3","lat":51.38033,"lon":-0.10531,"name":"Montague Road","parentId":"490G00005856","stationId":"490G00005856","stopLetter":"LD","topMostParentId":"490G00005856","towards":"Thornton Heath"},{"icsId":"1004367","id":"490004367N","lat":51.38377,"lon":-0.10843,"name":"Sumner Road","parentId":"490G00004367","stationId":"490G00004367","stopLetter":"LE","topMostParentId":"490G00004367","towards":"Norbury, Pollards Hill Or Waddon"},{"icsId":"1004368","id":"490004368N","lat":51.3848,"lon":-0.10942,"name":"Broad Green Avenue","parentId":"490G00004368","stationId":"490G00004368","stopLetter":"LF","topMostParentId":"490G00004368","towards":"Norbury, Pollards Hill Or Waddon"},{"icsId":"1009743","id":"490009732B","lat":51.3869,"lon":-0.11105,"name":"Canterbury Road","parentId":"490G00009743","stationId":"490G00009743","stopLetter":"B","topMostParentId":"490G00009743","towards":"Norbury, Pollards Hill Or Waddon"},{"icsId":"1009732","id":"490006250D","lat":51.39028,"lon":-0.11234,"name":"Croydon University Hospital","parentId":"490G00009732","stationId":"490G00009732","stopLetter":"D","topMostParentId":"490G00009732","towards":"Norbury, Pollards Hill Or Waddon"},{"icsId":"1013632","id":"490013632H","lat":51.39298,"lon":-0.1143,"name":"Thornton Heath Pond","parentId":"490G00013632","stationId":"490G00013632","stopLetter":"H","topMostParentId":"490G00013632","towards":"Pollards Hill Or Thornton Heath High Street"},{"icsId":"1005501","id":"490005501S","lat":51.39521,"lon":-0.1149,"name":"Colliers Water Lane","parentId":"490G00005501","stationId":"490G00005501","stopLetter":"S","topMostParentId":"490G00005501","towards":"Norbury Or Pollards Hill"},{"icsId":"1008939","id":"490008942N","lat":51.39767,"lon":-0.11608,"name":"Langdale Road","parentId":"490G00008939","stationId":"490G00008939","stopLetter":"A","topMostParentId":"490G00008939","towards":"Norbury Or Pollards Hill"},{"icsId":"1007099","id":"490007099W","lat":51.40074,"lon":-0.11854,"name":"Galpins Road / London Road","parentId":"490G00007099","stationId":"490G00007099","stopLetter":"C","topMostParentId":"490G00007099","towards":"Pollards Hill"},{"icsId":"1007277","id":"490007277W","lat":51.39937,"lon":-0.12143,"name":"Goldwell Road","parentId":"490G00007277","stationId":"490G00007277","stopLetter":"->W","topMostParentId":"490G00007277","towards":"Streatham Vale"},{"icsId":"1012159","id":"490012159A","lat":51.39813,"lon":-0.124,"name":"Silverleigh Road","parentId":"490G00012159","stationId":"490G00012159","stopLetter":"A","topMostParentId":"490G00012159","towards":"Streatham Vale"},{"icsId":"1015020","id":"490015020D","lat":51.39899,"lon":-0.12853,"name":"Yorkshire Road","parentId":"490G00015020","stationId":"490G00015020","stopLetter":"D","topMostParentId":"490G00015020","towards":"Streatham"},{"icsId":"1005148","id":"490005148G","lat":51.39967,"lon":-0.13129,"name":"Pollards Hill Library","parentId":"490G00005148","stationId":"490G00005148","stopLetter":"G","topMostParentId":"490G00005148","towards":"Mitcham Or Streatham"},{"icsId":"1008527","id":"490008527K","lat":51.40221,"lon":-0.13522,"name":"Ivy Gardens","parentId":"490G00008527","stationId":"490G00008527","stopLetter":"K","topMostParentId":"490G00008527","towards":"Eastfields Or Streatham"},{"icsId":"1010321","id":"490010321P","lat":51.40433,"lon":-0.13737,"name":"Northborough Road","parentId":"490G00010321","stationId":"490G00010321","stopLetter":"P","topMostParentId":"490G00010321","towards":"Eastfields Or Streatham"},{"icsId":"1011739","id":"490011739N","lat":51.40671,"lon":-0.14058,"name":"Stanford Way","parentId":"490G00011739","stationId":"490G00011739","stopLetter":"VA","topMostParentId":"490G00011739","towards":"Eastfields Or Streatham"},{"icsId":"1009338","id":"490009338E1","lat":51.40929,"lon":-0.14217,"name":"Longthornton Road","parentId":"490G00009338","stationId":"490G00009338","stopLetter":"VE","topMostParentId":"490G00009338","towards":"Streatham"},{"icsId":"1011737","id":"490011737N","lat":51.4113,"lon":-0.14055,"name":"Rowan Crescent","parentId":"490G00011737","stationId":"490G00011737","stopLetter":"VF","topMostParentId":"490G00011737","towards":"Streatham"},{"icsId":"1007531","id":"490007531W","lat":51.41275,"lon":-0.1413,"name":"Greyhound Terrace","parentId":"490G00007531","stationId":"490G00007531","stopLetter":"VH","topMostParentId":"490G00007531","towards":"Streatham"},{"icsId":"1004233","id":"490004233N","lat":51.41502,"lon":-0.1402,"name":"Braeside Road","parentId":"490G00004233","stationId":"490G00004233","stopLetter":"VJ","topMostParentId":"490G00004233","towards":"Streatham Hill"},{"icsId":"1003057","id":"490003057S1","lat":51.4178,"lon":-0.13628,"name":"Streatham Common Station","parentId":"490G00003057","stationId":"490G00003057","stopLetter":"CS","topMostParentId":"490G00003057"},{"icsId":"1001287","id":"490001280SA","lat":51.41872,"lon":-0.13456,"name":"Tankerville Road","parentId":"490G00001287","stationId":"490G00001287","stopLetter":"CT","topMostParentId":"490G00001287","towards":"Streatham"},{"icsId":"1012922","id":"490012922SC","lat":51.42163,"lon":-0.12964,"name":"Greyhound Lane / Streatham High Road","parentId":"490G00012922","stationId":"490G00012922","stopLetter":"CU","topMostParentId":"490G00012922","towards":"Streatham Hill"},{"icsId":"1001279","id":"490001279S3","lat":51.42512,"lon":-0.13092,"name":"Streatham Station","stopLetter":"SJ","topMostParentId":"490001279S3","towards":"Streatham Hill"}]}]}