{"direction":"outbound","lineId":"613","lineName":"613","mode":"bus","stopPointSequences":[{"stopPoint":[{"icsId":"1001295","id":"490001295A","lat":51.37739,"lon":-0.27902,"name":"Tolworth Station","stopLetter":"A","topMostParentId":"490001295A","towards":"Surbiton"},{"icsId":"1013706","id":"490013702D","lat":51.38034,"lon":-0.27973,"name":"Tolworth Tower / Tolworth Station","parentId":"490G00013706","stationId":"490G00013706","stopLetter":"D","topMostParentId":"490G00013706","towards":"New Malden"},{"icsId":"1014236","id":"490014236N","lat":51.38257,"lon":-0.27745,"name":"Warren Drive North","parentId":"490G00014236","stationId":"490G00014236","stopLetter":"->N","topMostParentId":"490G00014236","towards":"New Malden"},{"icsId":"1008155","id":"490008155E","lat":51.38651,"lon":-0.27347,"name":"Highfield Road / Oakdene Drive","parentId":"490G00008155","stationId":"490G00008155","stopLetter":"->E","topMostParentId":"490G00008155","towards":"New Malden"},{"icsId":"1006493","id":"490006493N","lat":51.3882,"lon":-0.27061,"name":"Elmbridge Avenue / Southwood Drive","parentId":"490G00006493","stationId":"490G00006493","stopLetter":"->N","topMostParentId":"490G00006493","towards":"Shannon Corner"},{"icsId":"1009526","id":"490015370NGS","lat":51.38967,"lon":-0.26748,"name":"Manor Drive North","parentId":"490G00009526","stationId":"490G00009526","stopLetter":"MS","topMostParentId":"490G00009526","towards":"Shannon Corner"},{"icsId":"1012311","id":"490010680N","lat":51.3909,"lon":-0.26499,"name":"South Lane","parentId":"490G00012311","stationId":"490G00012311","stopLetter":"MT","topMostParentId":"490G00012311","towards":"Shannon Corner"},{"icsId":"1009523","id":"490009523NGS","lat":51.39446,"lon":-0.2554,"name":"Malden Way / Malden Road","parentId":"490G00009523","stationId":"490G00009523","stopLetter":"MU","topMostParentId":"490G00009523","towards":"Shannon Corner"},{"icsId":"1004091","id":"490004091S","lat":51.39351,"lon":-0.25291,"name":"Blakes Lane","parentId":"490G00004091","stationId":"490G00004091","stopLetter":"MB","topMostParentId":"490G00004091","towards":"Raynes Park, Tolworth Or Worcester Park"},{"icsId":"1010058","id":"490010058S","lat":51.38986,"lon":-0.25303,"name":"Motspur Park","parentId":"490G00010058","stationId":"490G00010058","stopLetter":"MC","topMostParentId":"490G00010058","towards":"North Cheam"},{"icsId":"1009467","id":"490009467S","lat":51.38799,"lon":-0.25302,"name":"Lyndhurst Drive","parentId":"490G00009467","stationId":"490G00009467","stopLetter":"MD","topMostParentId":"490G00009467","towards":"North Cheam"},{"icsId":"1013501","id":"490013501S","lat":51.38532,"lon":-0.25215,"name":"Plough Green","parentId":"490G00013501","stationId":"490G00013501","stopLetter":"ME","topMostParentId":"490G00013501","towards":"North Cheam"},{"icsId":"1009521","id":"490009521E","lat":51.38329,"lon":-0.24954,"name":"Malden Green Avenue","parentId":"490G00009521","stationId":"490G00009521","stopLetter":"MF","topMostParentId":"490G00009521","towards":"North Cheam"},{"icsId":"1001346","id":"490001346B","lat":51.38144,"lon":-0.24628,"name":"Worcester Park Station","stopLetter":"B","topMostParentId":"490001346B","towards":"North Cheam"},{"icsId":"1009304","id":"490014261E","lat":51.37885,"lon":-0.24204,"name":"Longfellow Road","parentId":"490G00009304","stationId":"490G00009304","stopLetter":"E","topMostParentId":"490G00009304","towards":"Cheam Or Stoneleigh"},{"icsId":"1009181","id":"490009181S","lat":51.37674,"lon":-0.23732,"name":"Lindsay Road","parentId":"490G00009181","stationId":"490G00009181","stopLetter":"->E","topMostParentId":"490G00009181","towards":"Cheam Or Stoneleigh"},{"icsId":"1014815","id":"490014815S","lat":51.37333,"lon":-0.2324,"name":"Woodbine Lane","parentId":"490G00014815","stationId":"490G00014815","stopLetter":"->S","topMostParentId":"490G00014815","towards":"Cheam"},{"icsId":"1010323","id":"490009283B","lat":51.37152,"lon":-0.2287,"name":"North Cheam / London Road","parentId":"490G00010323","stationId":"490G00010323","stopLetter":"B","topMostParentId":"490G00010323","towards":"Sutton"},{"icsId":"1010335","id":"490010323J","lat":51.36989,"lon":-0.22672,"name":"Church Hill Road","parentId":"490G00010335","stationId":"490G00010335","stopLetter":"J","topMostParentId":"490G00010335","towards":"Sutton"},{"icsId":"1005059","id":"490005059S","lat":51.36803,"lon":-0.22517,"name":"Cheam Leisure Centre","parentId":"490G00005059","stationId":"490G00005059","stopLetter":"T","topMostParentId":"490G00005059","towards":"Sutton"},{"icsId":"1009524","id":"490009524R","lat":51.36568,"lon":-0.22307,"name":"Malden Road / Priory Road","parentId":"490G00009524","stationId":"490G00009524","stopLetter":"R","topMostParentId":"490G00009524","towards":"Sutton"},{"icsId":"1013668","id":"490013668S","lat":51.36355,"lon":-0.22023,"name":"Tilehurst Road","parentId":"490G00013668","stationId":"490G00013668","stopLetter":"->S","topMostParentId":"490G00013668","towards":"Sutton"},{"icsId":"1009451","id":"490009451P","lat":51.36163,"lon":-0.21863,"name":"Lumley Road","parentId":"490G00009451","stationId":"490G00009451","stopLetter":"P","topMostParentId":"490G00009451","towards":"Sutton"},{"icsId":"1005056","id":"490005056C","lat":51.3585,"lon":-0.21651,"name":"Cheam Broadway","parentId":"490G00005056","stationId":"490G00005056","stopLetter":"C","topMostParentId":"490G00005056","towards":"Sutton"},{"icsId":"1012437","id":"490012437H","lat":51.3591,"lon":-0.21167,"name":"St Dunstan's Hill","parentId":"490G00012437","stationId":"490G00012437","stopLetter":"H","topMostParentId":"490G00012437","towards":"Sutton"},{"icsId":"1007103","id":"490007103E","lat":51.3599,"lon":-0.2065,"name":"Cheam Road / Gander Green Lane","parentId":"490G00007103","stationId":"490G00007103","stopLetter":"C","topMostParentId":"490G00007103","towards":"Rosehill"},{"icsId":"1014453","id":"490014453E","lat":51.36055,"lon":-0.20267,"name":"Western Road","parentId":"490G00014453","stationId":"490G00014453","stopLetter":"D","topMostParentId":"490G00014453","towards":"Rosehill"},{"icsId":"1011969","id":"490011969U","lat":51.36127,"lon":-0.19739,"name":"Secombe Centre","parentId":"490G00011969","stationId":"490G00011969","stopLetter":"U","topMostParentId":"490G00011969","towards":"Rosehill"},{"icsId":"1013064","id":"490013064V","lat":51.36191,"lon":-0.1945,"name":"Sutton Civic Centre","parentId":"490G00013064","stationId":"490G00013064","stopLetter":"V","topMostParentId":"490G00013064","towards":"Rosehill Or Sutton Common"},{"icsId":"1011856","id":"490011856W","lat":51.36548,"lon":-0.19541,"name":"St Nicholas Centre","parentId":"490G00011856","stationId":"490G00011856","stopLetter":"W","topMostParentId":"490G00011856","towards":"Rosehill Or Sutton Common"},{"icsId":"1005844","id":"490005844Y","lat":51.36828,"lon":-0.19571,"name":"Crown Road","parentId":"490G00005844","stationId":"490G00005844","stopLetter":"Y","topMostParentId":"490G00005844","towards":"Carshalton, Mitcham Or Morden"},{"icsId":"1019749","id":"490013072Z","lat":51.37043,"lon":-0.19558,"name":"Bushey Road / the Green","parentId":"490G00019749","stationId":"490G00019749","stopLetter":"Z","topMostParentId":"490G00019749","towards":"Sutton Common"},{"icsId":"1013063","id":"490013063W","lat":51.36907,"lon":-0.19888,"name":"Sutton Bus Garage","parentId":"490G00013063","stationId":"490G00013063","stopLetter":"H","topMostParentId":"490G00013063","towards":"Sutton Common"},{"icsId":"1005504","id":"490005504N","lat":51.3687,"lon":-0.20114,"name":"Collingwood Road / Bushey Road","parentId":"490G00005504","stationId":"490G00005504","stopLetter":"J","topMostParentId":"490G00005504","towards":"Morden"},{"icsId":"1003202","id":"490003202N2","lat":51.37046,"lon":-0.20369,"name":"Alexandra Avenue","parentId":"490G00003202","stationId":"490G00003202","stopLetter":"->N","topMostParentId":"490G00003202","towards":"Morden"},{"icsId":"1005503","id":"490005503N","lat":51.37248,"lon":-0.20563,"name":"Collingwood Road / Oldfields Road","parentId":"490G00005503","stationId":"490G00005503","stopLetter":"->N","topMostParentId":"490G00005503","towards":"Morden"},{"icsId":"1012631","id":"490012631N","lat":51.37535,"lon":-0.204,"name":"Stayton Road","parentId":"490G00012631","stationId":"490G00012631","stopLetter":"SD","topMostParentId":"490G00012631","towards":"Morden"},{"icsId":"1013065","id":"490013065N","lat":51.37992,"lon":-0.20188,"name":"Glenthorne High School","parentId":"490G00013065","stationId":"490G00013065","stopLetter":"SE","topMostParentId":"490G00013065","towards":"Morden"}]}]}