{"direction":"outbound","lineId":"616","lineName":"616","mode":"bus","stopPointSequences":[{"stopPoint":[{"icsId":"1010575","id":"490010575S","lat":51.63889,"lon":-0.0947,"name":"Old Park Ridings","parentId":"490G00010575","stationId":"490G00010575","stopLetter":"X","topMostParentId":"490G00010575","towards":"Southgate"},{"icsId":"1007635","id":"490007635C","lat":51.64035,"lon":-0.09972,"name":"Hadley Way","parentId":"490G00007635","stationId":"490G00007635","stopLetter":"C","topMostParentId":"490G00007635","towards":"Southgate"},{"icsId":"1003702","id":"490003702W","lat":51.64175,"lon":-0.1037,"name":"Bazile Road","parentId":"490G00003702","stationId":"490G00003702","stopLetter":"->W","topMostParentId":"490G00003702","towards":"Southgate"},{"icsId":"1008170","id":"490008170W","lat":51.64319,"lon":-0.10836,"name":"Eversley Park Road","parentId":"490G00008170","stationId":"490G00008170","stopLetter":"->W","topMostParentId":"490G00008170","towards":"Enfield Town Or Southgate"},{"icsId":"1005042","id":"490005042S","lat":51.64291,"lon":-0.11092,"name":"Chaseville Park Road","parentId":"490G00005042","stationId":"490G00005042","stopLetter":"->S","topMostParentId":"490G00005042","towards":"Southgate"},{"icsId":"1006672","id":"490006672S","lat":51.64088,"lon":-0.11139,"name":"Eversley Mount","parentId":"490G00006672","stationId":"490G00006672","stopLetter":"->S","topMostParentId":"490G00006672","towards":"Whetstone"},{"icsId":"1005265","id":"490005265W","lat":51.63799,"lon":-0.11193,"name":"Church Hill","parentId":"490G00005265","stationId":"490G00005265","topMostParentId":"490G00005265","towards":"Whetstone"},{"icsId":"1010769","id":"490010769W","lat":51.63674,"lon":-0.11629,"name":"Park Gate","parentId":"490G00010769","stationId":"490G00010769","stopLetter":"->W","topMostParentId":"490G00010769","towards":"Whetstone"},{"icsId":"1011310","id":"490011310W","lat":51.63589,"lon":-0.11908,"name":"Queen Elizabeth's Drive","parentId":"490G00011310","stationId":"490G00011310","stopLetter":"P","topMostParentId":"490G00011310","towards":"Whetstone"},{"icsId":"1012955","id":"490012955W","lat":51.63414,"lon":-0.1231,"name":"St Thomas Road","parentId":"490G00012955","stationId":"490G00012955","stopLetter":"R","topMostParentId":"490G00012955","towards":"Whetstone"},{"icsId":"1000210","id":"490000210C","lat":51.63211,"lon":-0.1279,"name":"Southgate Station","stopLetter":"C","topMostParentId":"490000210C","towards":"Arnos Grove, Bounds Green Or Palmers Green","zone":"4"},{"icsId":"1012299","id":"490012299S","lat":51.62933,"lon":-0.12768,"name":"Southgate College","parentId":"490G00012299","stationId":"490G00012299","stopLetter":"S","topMostParentId":"490G00012299","towards":"Arnos Grove, Bounds Green Or Palmers Green"},{"icsId":"1009773","id":"490009773S","lat":51.62535,"lon":-0.12452,"name":"Meadway","parentId":"490G00009773","stationId":"490G00009773","stopLetter":"A","topMostParentId":"490G00009773","towards":"Arnos Grove, Bounds Green Or Palmers Green"},{"icsId":"1014999","id":"490014999S","lat":51.6243,"lon":-0.12349,"name":"Ye Olde Cherry Tree","parentId":"490G00014999","stationId":"490G00014999","stopLetter":"B","topMostParentId":"490G00014999","towards":"Bounds Green Or Palmers Green"},{"icsId":"1006908","id":"490006908S","lat":51.62155,"lon":-0.12163,"name":"Forestdale","parentId":"490G00006908","stationId":"490G00006908","stopLetter":"C","topMostParentId":"490G00006908","towards":"Bounds Green Or Palmers Green"},{"icsId":"1004488","id":"490004488E","lat":51.61993,"lon":-0.11631,"name":"Broomfield Park","parentId":"490G00004488","stationId":"490G00004488","stopLetter":"D","topMostParentId":"490G00004488","towards":"Edmonton Or Wood Green"},{"icsId":"1001222","id":"490001222E","lat":51.61859,"lon":-0.11148,"name":"Palmers Green Station","stopLetter":"E","topMostParentId":"490001222E","towards":"Edmonton Or Wood Green"},{"icsId":"1009248","id":"490009248C","lat":51.61948,"lon":-0.10717,"name":"Lodge Drive","parentId":"490G00009248","stationId":"490G00009248","stopLetter":"C","topMostParentId":"490G00009248","towards":"Edmonton Green Or Enfield Town"},{"icsId":"1004196","id":"490004196N","lat":51.62276,"lon":-0.10488,"name":"Bourne Hill","parentId":"490G00004196","stationId":"490G00004196","stopLetter":"->N","topMostParentId":"490G00004196","towards":"Edmonton Green Or Enfield Town"},{"icsId":"1009941","id":"490003437E","lat":51.62093,"lon":-0.09484,"name":"Hedge Lane","parentId":"490G00009941","stationId":"490G00009941","stopLetter":"->E","topMostParentId":"490G00009941"},{"icsId":"1002227","id":"490002227Z","lat":51.61955,"lon":-0.09104,"name":"Hedge Lane / Firs Lane","parentId":"490G00002227","stationId":"490G00002227","stopLetter":"->E","topMostParentId":"490G00002227","towards":"North Middlesex Hospital"},{"icsId":"1006996","id":"490006996Y","lat":51.6179,"lon":-0.08803,"name":"Great Cambridge Road","parentId":"490G00006996","stationId":"490G00006996","topMostParentId":"490G00006996","towards":"North Middlesex Hospital"},{"icsId":"1015300","id":"490015300N","lat":51.61743,"lon":-0.08642,"name":"Cambridge Roundabout / North Side","parentId":"490G00015300","stationId":"490G00015300","stopLetter":"ND","topMostParentId":"490G00015300","towards":"Enfield Town Or Waltham Cross"},{"icsId":"1013348","id":"490013348N","lat":51.62255,"lon":-0.08241,"name":"The Fairway","parentId":"490G00013348","stationId":"490G00013348","stopLetter":"NE","topMostParentId":"490G00013348","towards":"Enfield Town Or Waltham Cross"},{"icsId":"1006010","id":"490006010N","lat":51.62548,"lon":-0.0811,"name":"Deansway","parentId":"490G00006010","stationId":"490G00006010","stopLetter":"EJ","topMostParentId":"490G00006010","towards":"Enfield Town Or Waltham Cross"},{"icsId":"1007889","id":"490007889E","lat":51.62805,"lon":-0.07349,"name":"Haselbury Road","parentId":"490G00007889","stationId":"490G00007889","stopLetter":"EC","topMostParentId":"490G00007889","towards":"Picketts Lock"},{"icsId":"1003396","id":"490003396E","lat":51.62693,"lon":-0.0688,"name":"Edmonton Fire Station","parentId":"490G00003396","stationId":"490G00003396","stopLetter":"ED","topMostParentId":"490G00003396","towards":"Picketts Lock"},{"icsId":"1003245","id":"490003245E","lat":51.62635,"lon":-0.06591,"name":"All Saints Church","parentId":"490G00003245","stationId":"490G00003245","stopLetter":"T","topMostParentId":"490G00003245","towards":"Picketts Lock"},{"icsId":"1001092","id":"490001092E","lat":51.62527,"lon":-0.06172,"name":"Edmonton Green Station","stopLetter":"U","topMostParentId":"490001092E","towards":"Picketts Lock"},{"icsId":"1009983","id":"490009983A","lat":51.62518,"lon":-0.05888,"name":"Edmonton Green Bus Station","parentId":"490G00009983","stationId":"490G00009983","stopLetter":"A","topMostParentId":"490G00009983"}]}]}