{"direction":"outbound","lineId":"638","lineName":"638","mode":"bus","stopPointSequences":[{"stopPoint":[{"icsId":"1003099","id":"490003099N","lat":51.37074,"lon":-0.00204,"name":"Addington Road / Glebe Way","parentId":"490G00003099","stationId":"490G00003099","stopLetter":"C","topMostParentId":"490G00003099","towards":"Hayes"},{"icsId":"1005545","id":"490005545N","lat":51.37388,"lon":0.00156,"name":"Tiepigs Lane","parentId":"490G00005545","stationId":"490G00005545","stopLetter":"D","topMostParentId":"490G00005545","towards":"Bromley Or Orpington"},{"icsId":"1008289","id":"490008289W1","lat":51.37585,"lon":0.00648,"name":"Holland Way","parentId":"490G00008289","stationId":"490G00008289","stopLetter":"H","topMostParentId":"490G00008289","towards":"Bromley Or Orpington"},{"icsId":"1001145","id":"490001145C","lat":51.37625,"lon":0.01087,"name":"Hayes Station","stopLetter":"C","topMostParentId":"490001145C","towards":"Bromley Or Orpington"},{"icsId":"1007941","id":"490007941D","lat":51.37749,"lon":0.01036,"name":"Hayes / Station Approach","parentId":"490G000580","stationId":"490G000580","stopLetter":"D","topMostParentId":"490G000580","towards":"Bromley Or Orpington"},{"icsId":"1007949","id":"490007949S2","lat":51.37892,"lon":0.00689,"name":"Hayes Hill Road","parentId":"490G00007949","stationId":"490G00007949","stopLetter":"E","topMostParentId":"490G00007949","towards":"Bromley South"},{"icsId":"1005758","id":"490005758N","lat":51.3812,"lon":0.00458,"name":"Crest Road","parentId":"490G00005758","stationId":"490G00005758","stopLetter":"A","topMostParentId":"490G00005758","towards":"Bromley South"},{"icsId":"1013498","id":"490013498N","lat":51.38334,"lon":0.00277,"name":"The Pickhurst","parentId":"490G00013498","stationId":"490G00013498","stopLetter":"B","topMostParentId":"490G00013498","towards":"Bromley North"},{"icsId":"1009778","id":"490009774N","lat":51.38729,"lon":0.00267,"name":"The Avenue","parentId":"490G00009778","stationId":"490G00009778","stopLetter":"C","topMostParentId":"490G00009778","towards":"Bromley North"},{"icsId":"1007282","id":"490007282N","lat":51.39018,"lon":0.00145,"name":"Pickhurst Lane / Goodhart Way","parentId":"490G00007282","stationId":"490G00007282","stopLetter":"D","topMostParentId":"490G00007282","towards":"Bromley"},{"icsId":"1003644","id":"490003644E","lat":51.39281,"lon":0.00224,"name":"Westmoreland Road / Barnfield Wood Road","parentId":"490G00003644","stationId":"490G00003644","stopLetter":"E","topMostParentId":"490G00003644","towards":"Bromley North"},{"icsId":"1004376","id":"490004376N","lat":51.39383,"lon":0.00501,"name":"Broadoaks Way","parentId":"490G00004376","stationId":"490G00004376","stopLetter":"F","topMostParentId":"490G00004376","towards":"Bromley North"},{"icsId":"1019189","id":"490004897E","lat":51.39611,"lon":0.00963,"name":"Westmoreland Road / Cumberland Road","parentId":"490G00019189","stationId":"490G00019189","stopLetter":"G","topMostParentId":"490G00019189","towards":"Bromley North"},{"icsId":"1011304","id":"490011304D","lat":51.39804,"lon":0.01398,"name":"Queen Anne Avenue","parentId":"490G00011304","stationId":"490G00011304","stopLetter":"D","topMostParentId":"490G00011304","towards":"Bromley North"},{"icsId":"1012775","id":"490012775E","lat":51.39883,"lon":0.01659,"name":"St Mark's Church","parentId":"490G00012775","stationId":"490G00012775","stopLetter":"E","topMostParentId":"490G00012775","towards":"Bromley North"},{"icsId":"1001037","id":"490001037A","lat":51.40034,"lon":0.01679,"name":"Bromley South Station","stopLetter":"A","topMostParentId":"490001037A","towards":"Chislehurst, Downham Or Grove Park"},{"icsId":"1004410","id":"490004410V","lat":51.40279,"lon":0.01675,"name":"Elmfield Road / the Mall","parentId":"490G00004410","stationId":"490G00004410","stopLetter":"V","topMostParentId":"490G00004410","towards":"Downham Or Sundridge"},{"icsId":"1008665","id":"490008665Q","lat":51.40424,"lon":0.01849,"name":"Bromley Civic Centre","parentId":"490G00008665","stationId":"490G00008665","stopLetter":"Q","topMostParentId":"490G00008665","towards":"Chislehurst, Downham Or Grove Park"},{"icsId":"1004435","id":"4900004408P","lat":51.40604,"lon":0.01685,"name":"Bromley Town Hall","parentId":"490G00004435","stationId":"490G00004435","stopLetter":"P","topMostParentId":"490G00004435","towards":"Downham, Grove Park Or Shortlands"},{"icsId":"1004425","id":"490004425N","lat":51.40693,"lon":0.01466,"name":"West Street","parentId":"490G00004425","stationId":"490G00004425","stopLetter":"N","topMostParentId":"490G00004425","towards":"Elmstead Woods, Downham Or Grove Park"},{"icsId":"1015515","id":"490015515B","lat":51.40972,"lon":0.01421,"name":"Hammelton Road","parentId":"490G00015515","stationId":"490G00015515","stopLetter":"B","topMostParentId":"490G00015515","towards":"Elmstead Woods, Catford Or Grove Park"},{"icsId":"1010031","id":"490010031N","lat":51.41239,"lon":0.01501,"name":"Morgan Road","parentId":"490G00010031","stationId":"490G00010031","stopLetter":"->N","topMostParentId":"490G00010031","towards":"Elmstead Woods, Catford Or Grove Park"},{"icsId":"1009279","id":"490009279N","lat":51.41383,"lon":0.01621,"name":"Plaistow Green","parentId":"490G00009279","stationId":"490G00009279","stopLetter":"C","topMostParentId":"490G00009279","towards":"Elmstead Woods, Catford Or Grove Park"},{"icsId":"1010750","id":"490010750N","lat":51.41746,"lon":0.01688,"name":"Park Avenue","parentId":"490G00010750","stationId":"490G00010750","stopLetter":"H","topMostParentId":"490G00010750","towards":"Catford Or Grove Park"},{"icsId":"1012325","id":"490012325E","lat":51.41973,"lon":0.01823,"name":"Burnt Ash Lane / Southover","parentId":"490G00012325","stationId":"490G00012325","stopLetter":"J","topMostParentId":"490G00012325","towards":"Lee Green Or Mottingham"},{"icsId":"1010263","id":"490010263N","lat":51.42266,"lon":0.02148,"name":"New Street Hill","parentId":"490G00010263","stationId":"490G00010263","stopLetter":"K","topMostParentId":"490G00010263","towards":"Lee Green Or Mottingham"},{"icsId":"1013782","id":"490013782N","lat":51.42623,"lon":0.02105,"name":"Treewall Gardens","parentId":"490G00013782","stationId":"490G00013782","stopLetter":"L","topMostParentId":"490G00013782","towards":"Lee Green Or Mottingham"},{"icsId":"1008993","id":"490008993N","lat":51.4282,"lon":0.02123,"name":"Launcelot Road","parentId":"490G00008993","stationId":"490G00008993","stopLetter":"K","topMostParentId":"490G00008993","towards":"Lee Green Or Mottingham"},{"icsId":"1001124","id":"490001124E","lat":51.4304,"lon":0.02123,"name":"Grove Park Station","stopLetter":"L","topMostParentId":"490001124E","towards":"Lee Green Or Mottingham"},{"icsId":"1015553","id":"490015553G","lat":51.4316,"lon":0.02295,"name":"Chinbrook Road / Baring Road","parentId":"490G000909","stationId":"490G000909","stopLetter":"G","topMostParentId":"490G000909","towards":"Chislehurst Or Mottingham"},{"icsId":"1013403","id":"490013403E","lat":51.43159,"lon":0.03055,"name":"Marvels Lane / Chinbrook Road","parentId":"490G00013403","stationId":"490G00013403","stopLetter":"A","topMostParentId":"490G00013403","towards":"Chislehurst Or Mottingham"},{"icsId":"1007683","id":"490007683E","lat":51.4339,"lon":0.03675,"name":"Hall View","parentId":"490G00007683","stationId":"490G00007683","stopLetter":"->E","topMostParentId":"490G00007683","towards":"Chislehurst"},{"icsId":"1006538","id":"490006538E","lat":51.43748,"lon":0.04065,"name":"Eltham College","parentId":"490G00006538","stationId":"490G00006538","stopLetter":"->E","topMostParentId":"490G00006538","towards":"Chislehurst"},{"icsId":"1010067","id":"490010067S","lat":51.43579,"lon":0.04577,"name":"Mottingham Road / Court Road","parentId":"490G00010067","stationId":"490G00010067","stopLetter":"ME","topMostParentId":"490G00010067","towards":"Chislehurst Or Grove Park"},{"icsId":"1010064","id":"490010064S","lat":51.43315,"lon":0.04879,"name":"Mottingham / Prince of Wales","parentId":"490G00010064","stationId":"490G00010064","stopLetter":"MF","topMostParentId":"490G00010064","towards":"Chislehurst Or Grove Park"},{"icsId":"1011447","id":"490011447S","lat":51.43079,"lon":0.05192,"name":"Mottingham Road / Ravensworth Road","parentId":"490G00011447","stationId":"490G00011447","stopLetter":"MH","topMostParentId":"490G00011447","towards":"Chislehurst Or Grove Park"},{"icsId":"1006521","id":"490006521S","lat":51.42715,"lon":0.05541,"name":"Elmstead Lane","parentId":"490G00006521","stationId":"490G00006521","stopLetter":"D","topMostParentId":"490G00006521","towards":"Chislehurst"},{"icsId":"1010478","id":"490010478E","lat":51.42455,"lon":0.05873,"name":"Oakdene Avenue","parentId":"490G00010478","stationId":"490G00010478","stopLetter":"E","topMostParentId":"490G00010478","towards":"Chislehurst"},{"icsId":"1013496","id":"490013496S","lat":51.42147,"lon":0.06291,"name":"Ingleby Way","parentId":"490G00013496","stationId":"490G00013496","stopLetter":"C","topMostParentId":"490G00013496","towards":"Petts Wood"},{"icsId":"1003139","id":"490003139H","lat":51.41969,"lon":0.06598,"name":"Albany Road","parentId":"490G00003139","stationId":"490G00003139","stopLetter":"D","topMostParentId":"490G00003139","towards":"Petts Wood"},{"icsId":"1010817","id":"490010817K","lat":51.41737,"lon":0.06846,"name":"Chislehurst / Ashfield Lane","parentId":"490G00010817","stationId":"490G00010817","stopLetter":"K","topMostParentId":"490G00010817","towards":"Petts Wood"},{"icsId":"1005205","id":"490005205P","lat":51.41302,"lon":0.07351,"name":"Centre Common Road / War Memorial","parentId":"490G00005205","stationId":"490G00005205","stopLetter":"P","topMostParentId":"490G00005205","towards":"Bromley, Petts Wood Or Sidcup"},{"icsId":"1015269","id":"490015269S","lat":51.4127,"lon":0.07567,"name":"Bromley Lane / Chislehurst War Memorial","parentId":"490G00015269","stationId":"490G00015269","stopLetter":"S","topMostParentId":"490G00015269","towards":"Sidcup"},{"icsId":"1003427","id":"490003427E","lat":51.41514,"lon":0.08184,"name":"Ashfield Lane","parentId":"490G00003427","stationId":"490G00003427","stopLetter":"Y","topMostParentId":"490G00003427","towards":"Sidcup"},{"icsId":"1003735","id":"490003735E","lat":51.41661,"lon":0.0897,"name":"Beaverwood Road","parentId":"490G00003735","stationId":"490G00003735","stopLetter":"->E","topMostParentId":"490G00003735","towards":"Sidcup"},{"icsId":"1009041","id":"490009041HK","lat":51.4183,"lon":0.09375,"name":"Leas Green","parentId":"490G00009041","stationId":"490G00009041","stopLetter":"HK","topMostParentId":"490G00009041","towards":"Bexleyheath"},{"icsId":"1016701","id":"490016701S","lat":51.41131,"lon":0.11267,"name":"Kemnal Technology College","parentId":"490G00016701","stationId":"490G00016701","stopLetter":"M","topMostParentId":"490G00016701","towards":"Orpington"}]}]}