{"direction":"outbound","lineId":"640","lineName":"640","mode":"bus","stopPointSequences":[{"stopPoint":[{"icsId":"1000211","id":"490000211F","lat":51.56456,"lon":-0.35398,"name":"South Harrow Station","stopLetter":"F","topMostParentId":"490000211F","towards":"Harrow","zone":"5"},{"icsId":"1012026","id":"490012026N","lat":51.5685,"lon":-0.34806,"name":"Grange Road","parentId":"490G00012026","stationId":"490G00012026","stopLetter":"RD","topMostParentId":"490G00012026","towards":"Harrow"},{"icsId":"1006218","id":"490006218W","lat":51.5704,"lon":-0.35101,"name":"Dudley Road","parentId":"490G00006218","stationId":"490G00006218","stopLetter":"WP","topMostParentId":"490G00006218","towards":"Harrow Weald Or Kenton"},{"icsId":"1002365","id":"490011122N","lat":51.5727,"lon":-0.35313,"name":"Shaftesbury Avenue","parentId":"490G00002365","stationId":"490G00002365","stopLetter":"WR","topMostParentId":"490G00002365","towards":"Kenton Or Harrow Weald"},{"icsId":"1013792","id":"490013792E","lat":51.57571,"lon":-0.34882,"name":"Treve Avenue","parentId":"490G000805","stationId":"490G000805","stopLetter":"WS","topMostParentId":"490G000805","towards":"Kenton Or Harrow Weald"},{"icsId":"1008984","id":"490008984E","lat":51.57731,"lon":-0.34372,"name":"Lascelles Avenue","parentId":"490G00008984","stationId":"490G00008984","stopLetter":"WT","topMostParentId":"490G00008984","towards":"Kenton Or Harrow Weald"},{"icsId":"1012690","id":"490012690X1","lat":51.58102,"lon":-0.33947,"name":"St Georges Centre","parentId":"490G00012690","stationId":"490G00012690","stopLetter":"X1","topMostParentId":"490G00012690"},{"icsId":"1007845","id":"490007845A","lat":51.57996,"lon":-0.33741,"name":"Harrow Bus Station","parentId":"490G000574","stationId":"490G000574","stopLetter":"A","topMostParentId":"HUBHOH","towards":"Wealdstone"},{"icsId":"1015347","id":"490007868T","lat":51.58079,"lon":-0.33403,"name":"Harrow Town Centre","parentId":"490G00015347","stationId":"490G00015347","stopLetter":"T","topMostParentId":"490G00015347","towards":"Kenton Or Wealdstone"},{"icsId":"1019614","id":"490007868R","lat":51.58174,"lon":-0.33313,"name":"Harrow Town Centre / Sheepcote Road","parentId":"490G00019614","stationId":"490G00019614","stopLetter":"R","topMostParentId":"490G00019614","towards":"Kenton Or Wealdstone"},{"icsId":"1011850","id":"490011850W","lat":51.58663,"lon":-0.33229,"name":"Safari Cinema","parentId":"490G00011850","stationId":"490G00011850","stopLetter":"W","topMostParentId":"490G00011850","towards":"Belmont Circle Or Harrow Weald"},{"icsId":"1007846","id":"490007846K","lat":51.58971,"lon":-0.3329,"name":"Harrow Civic Centre / Harrow Mosque","parentId":"490G00007846","stationId":"490G00007846","stopLetter":"K","topMostParentId":"490G00007846","towards":"Belmont Circle Or Harrow Weald"},{"icsId":"1000101","id":"490015249N","lat":51.59229,"lon":-0.33408,"name":"Harrow & Wealdstone Station","stopLetter":"N","topMostParentId":"490015249N","towards":"Belmont Circle Or Harrow Weald","zone":"5"},{"icsId":"1015250","id":"490015250G","lat":51.59428,"lon":-0.33529,"name":"The Wealdstone Centre","parentId":"490G00015250","stationId":"490G00015250","stopLetter":"G","topMostParentId":"490G00015250","towards":"Bushey, Harrow Weald Or Stanmore"},{"icsId":"1007844","id":"490014328C","lat":51.5962,"lon":-0.33549,"name":"Wealdstone Baptist Church","parentId":"490G00007844","stationId":"490G00007844","stopLetter":"C","topMostParentId":"490G00007844","towards":"Bushey, Harrow Weald Or Stanmore"},{"icsId":"1011882","id":"490011882N","lat":51.60059,"lon":-0.33838,"name":"Salvatorian College / St Joseph's Church","parentId":"490G00011882","stationId":"490G00011882","stopLetter":"WP","topMostParentId":"490G00011882","towards":"Bushey, Harrow Weald Or Stanmore"},{"icsId":"1009302","id":"490009302N","lat":51.60485,"lon":-0.34011,"name":"Long Elmes","parentId":"490G00009302","stationId":"490G00009302","stopLetter":"WS","topMostParentId":"490G00009302","towards":"Bushey Heath, Stanmore Or Belmont Circle"},{"icsId":"1007870","id":"490007870N1","lat":51.60613,"lon":-0.3403,"name":"Harrow Weald Bus Garage","parentId":"490G00007870","stationId":"490G00007870","stopLetter":"WT","topMostParentId":"490G00007870","towards":"Bushey Heath, Stanmore Or Belmont Circle"},{"icsId":"1013972","id":"490013971N","lat":51.60935,"lon":-0.33962,"name":"Monro Gardens","parentId":"490G00013972","stationId":"490G00013972","stopLetter":"WV","topMostParentId":"490G00013972","towards":"Bushey Heath, Stanmore Or Belmont Circle"},{"icsId":"1015094","id":"490015094N","lat":51.61144,"lon":-0.33963,"name":"Uxbridge Road","parentId":"490G00015094","stationId":"490G00015094","stopLetter":"WA","topMostParentId":"490G00015094","towards":"Bushey Heath"},{"icsId":"1014326","id":"490014326N","lat":51.61394,"lon":-0.34013,"name":"Harrow College","parentId":"490G00014326","stationId":"490G00014326","stopLetter":"WB","topMostParentId":"490G00014326","towards":"Bushey Heath"},{"icsId":"1014647","id":"490014647N","lat":51.61638,"lon":-0.34167,"name":"Brookshill Gate","parentId":"490G00014647","stationId":"490G00014647","stopLetter":"->N","topMostParentId":"490G00014647","towards":"Bushey Heath"},{"icsId":"1005326","id":"490005326N","lat":51.62033,"lon":-0.34299,"name":"Clamp Hill","parentId":"490G00005326","stationId":"490G00005326","stopLetter":"->N","topMostParentId":"490G00005326","towards":"Bushey Heath"},{"icsId":"1003911","id":"490003911S","lat":51.616,"lon":-0.33633,"name":"Bentley Wood High School","parentId":"490G00003911","stationId":"490G00003911","stopLetter":"->S","topMostParentId":"490G00003911","towards":"Wealdstone"}]}]}