{"direction":"outbound","lineId":"643","lineName":"643","mode":"bus","stopPointSequences":[{"stopPoint":[{"icsId":"1004282","id":"490004282D","lat":51.57576,"lon":-0.22269,"name":"Brent Cross Shopping Centre","parentId":"490G00004282","stationId":"490G00004282","stopLetter":"C","topMostParentId":"490G00004282"},{"icsId":"1012366","id":"490012366E","lat":51.57789,"lon":-0.22155,"name":"Spalding Road","parentId":"490G00012366","stationId":"490G00012366","stopLetter":"E","topMostParentId":"490G00012366","towards":"Hendon"},{"icsId":"1007337","id":"490007337CA","lat":51.58143,"lon":-0.22689,"name":"Graham Road","parentId":"490G000539","stationId":"490G000539","stopLetter":"S","topMostParentId":"490G000539","towards":"Finchley Central Or Mill Hill"},{"icsId":"1000106","id":"490000106F","lat":51.5839,"lon":-0.22868,"name":"Hendon Central Station","stopLetter":"F","topMostParentId":"490000106F","towards":"Finchley Central","zone":"3+4"},{"icsId":"1008056","id":"490008056O","lat":51.58751,"lon":-0.22957,"name":"Hendon Town Hall","parentId":"490G00008056","stationId":"490G00008056","stopLetter":"O","topMostParentId":"490G00008056","towards":"Finchley Central Or Golders Green"},{"icsId":"1005257","id":"490005253Q","lat":51.58937,"lon":-0.22809,"name":"Middlesex University","parentId":"490G00005257","stationId":"490G00005257","stopLetter":"Q","topMostParentId":"490G00005257","towards":"Finchley Central Or Golders Green"},{"icsId":"1005253","id":"490005253Z","lat":51.59001,"lon":-0.22556,"name":"Church End","parentId":"490G00005253","stationId":"490G00005253","stopLetter":"->E","topMostParentId":"490G00005253","towards":"Finchley Central Or Golders Green"},{"icsId":"1013512","id":"490013512E","lat":51.58962,"lon":-0.22065,"name":"The Quadrant","parentId":"490G00013512","stationId":"490G00013512","stopLetter":"S","topMostParentId":"490G00013512","towards":"Finchley Central"},{"icsId":"1003218","id":"490003218E","lat":51.59008,"lon":-0.21503,"name":"Alexandra Road","parentId":"490G00003218","stationId":"490G00003218","stopLetter":"->E","topMostParentId":"490G00003218","towards":"Finchley Central"},{"icsId":"1007411","id":"490007411E1","lat":51.59092,"lon":-0.21274,"name":"Great North Way","parentId":"490G00007411","stationId":"490G00007411","stopLetter":"->E","topMostParentId":"490G00007411","towards":"Finchley Central"},{"icsId":"1007422","id":"490007422E","lat":51.59214,"lon":-0.21023,"name":"Broughton Avenue","parentId":"490G00007422","stationId":"490G00007422","stopLetter":"->E","topMostParentId":"490G00007422","towards":"East Finchley, North Finchley Or Woodside Park"},{"icsId":"1005803","id":"490005803N","lat":51.59357,"lon":-0.20789,"name":"Crooked Usage","parentId":"490G00005803","stationId":"490G00005803","stopLetter":"->N","topMostParentId":"490G00005803","towards":"East Finchley Or Woodside Park"},{"icsId":"1003366","id":"490003366N","lat":51.5957,"lon":-0.2046,"name":"Arden Road","parentId":"490G00003366","stationId":"490G00003366","stopLetter":"P","topMostParentId":"490G00003366","towards":"East Finchley, North Finchley Or Woodside Park"},{"icsId":"1012787","id":"490012787E","lat":51.59777,"lon":-0.20103,"name":"St Mary's Avenue","parentId":"490G00012787","stationId":"490G00012787","stopLetter":"Q","topMostParentId":"490G00012787","towards":"East Finchley, North Finchley Or Woodside Park"},{"icsId":"1007385","id":"490007385W","lat":51.59779,"lon":-0.19827,"name":"Gravel Hill","parentId":"490G00007385","stationId":"490G00007385","stopLetter":"R","topMostParentId":"490G00007385","towards":"East Finchley Or Woodside Park"},{"icsId":"1008311","id":"490008311E","lat":51.59642,"lon":-0.19143,"name":"Holmwood Gardens","parentId":"490G00008311","stationId":"490G00008311","stopLetter":"T","topMostParentId":"490G00008311","towards":"East Finchley"},{"icsId":"1009594","id":"490009594E1","lat":51.59581,"lon":-0.18916,"name":"Manor View","parentId":"490G00009594","stationId":"490G00009594","stopLetter":"V","topMostParentId":"490G00009594","towards":"East Finchley"},{"icsId":"1003670","id":"490003670E","lat":51.59454,"lon":-0.18631,"name":"Basing Way","parentId":"490G00003670","stationId":"490G00003670","stopLetter":"W","topMostParentId":"490G00003670","towards":"Highgate"},{"icsId":"1005243","id":"490005243N","lat":51.59387,"lon":-0.18458,"name":"Christ's College","parentId":"490G00005243","stationId":"490G00005243","stopLetter":"C","topMostParentId":"490G00005243","towards":"Brent Cross"}]}]}