{"direction":"outbound","lineId":"650","lineName":"650","mode":"bus","stopPointSequences":[{"stopPoint":[{"icsId":"1011658","id":"490011658S","lat":51.58372,"lon":0.17483,"name":"Romford Bus Garage","parentId":"490G00011658","stationId":"490G00011658","stopLetter":"NS","topMostParentId":"490G00011658","towards":"Romford Town Centre"},{"icsId":"1004467","id":"490013240S","lat":51.58186,"lon":0.17678,"name":"The Avenue","parentId":"490G00004467","stationId":"490G00004467","stopLetter":"J","topMostParentId":"490G00004467","towards":"Romford Town Centre"},{"icsId":"1011659","id":"490011659G","lat":51.58059,"lon":0.1831,"name":"Romford Market","parentId":"490G00011659","stationId":"490G00011659","stopLetter":"G","topMostParentId":"490G00011659","towards":"Queen's Hospital, Hornchurch Or Gidea Park"},{"icsId":"1009810","id":"490009810M","lat":51.57935,"lon":0.18496,"name":"Mercury Gardens","parentId":"490G00009810","stationId":"490G00009810","stopLetter":"M","topMostParentId":"490G00009810","towards":"Gidea Park Or Hornchurch"},{"icsId":"1014452","id":"490014448S","lat":51.5775,"lon":0.1851,"name":"Western Road","parentId":"490G00014452","stationId":"490G00014452","stopLetter":"QQ","topMostParentId":"490G00014452","towards":"Elm Park, Gidea Park Or Hornchurch"},{"icsId":"1001243","id":"490015181L","lat":51.57442,"lon":0.18463,"name":"Romford Station","stopLetter":"W","topMostParentId":"490015181L","towards":"Gidea Park Or Hornchurch"},{"icsId":"1003157","id":"490003157E","lat":51.57578,"lon":0.18921,"name":"Albert Road","parentId":"490G00003157","stationId":"490G00003157","stopLetter":"VG","topMostParentId":"490G00003157","towards":"Gidea Park Or Hornchurch"},{"icsId":"1009579","id":"490016649E","lat":51.57773,"lon":0.19592,"name":"Manor Road","parentId":"490G00009579","stationId":"490G00009579","stopLetter":"->E","topMostParentId":"490G00009579","towards":"Gallows Corner Or Hornchurch"},{"icsId":"1006714","id":"490006714E","lat":51.57786,"lon":0.19896,"name":"Fairholme Avenue","parentId":"490G00006714","stationId":"490G00006714","stopLetter":"AS","topMostParentId":"490G00006714","towards":"Gallows Corner Or Hornchurch"},{"icsId":"1009647","id":"490009647E","lat":51.57788,"lon":0.20301,"name":"Margaret Road","parentId":"490G00009647","stationId":"490G00009647","stopLetter":"AT","topMostParentId":"490G00009647","towards":"Gallows Corner Or Hornchurch"},{"icsId":"1013327","id":"490003559N","lat":51.57887,"lon":0.2072,"name":"The Drill Roundabout","parentId":"490G00013327","stationId":"490G00013327","stopLetter":"AV","topMostParentId":"490G00013327","towards":"Gallows Corner Or Harold Wood"},{"icsId":"1001115","id":"490001115B","lat":51.58156,"lon":0.20634,"name":"Gidea Park Station","stopLetter":"PB","topMostParentId":"490001115B","towards":"Harold Wood Or Gallows Corner"},{"icsId":"1013327","id":"490013327S1","lat":51.5775,"lon":0.20867,"name":"The Drill Roundabout","parentId":"490G00013327","stationId":"490G00013327","stopLetter":"AC","topMostParentId":"490G00013327","towards":"Hornchurch"},{"icsId":"1004465","id":"490004465S","lat":51.57503,"lon":0.21216,"name":"Brooklands Gardens","parentId":"490G00004465","stationId":"490G00004465","stopLetter":"AD","topMostParentId":"490G00004465","towards":"Hornchurch"},{"icsId":"1014125","id":"490014125E","lat":51.57362,"lon":0.21688,"name":"Walden Way","parentId":"490G00014125","stationId":"490G00014125","stopLetter":"ES","topMostParentId":"490G00014125","towards":"Hornchurch"},{"icsId":"1014977","id":"490014973S","lat":51.57249,"lon":0.21864,"name":"Burntwood Avenue","parentId":"490G00014977","stationId":"490G00014977","stopLetter":"EK","topMostParentId":"490G00014977","towards":"Hornchurch"},{"icsId":"1004661","id":"490004661E","lat":51.57037,"lon":0.22027,"name":"Butts Green Road","parentId":"490G00004661","stationId":"490G00004661","stopLetter":"->E","topMostParentId":"490G00004661","towards":"Campion School Or Emerson Park School"},{"icsId":"1010167","id":"490010167E","lat":51.57034,"lon":0.22474,"name":"Nelmes Road","parentId":"490G00010167","stationId":"490G00010167","stopLetter":"->E","topMostParentId":"490G00010167","towards":"Campion School Or Emerson Park School"},{"icsId":"1010838","id":"490010838E","lat":51.57028,"lon":0.23688,"name":"Wingletye Lane","parentId":"490G00010838","stationId":"490G00010838","stopLetter":"->E","topMostParentId":"490G00010838","towards":"Campion School Or Emerson Park School"},{"icsId":"1006560","id":"490006560W","lat":51.5697,"lon":0.24275,"name":"Emerson Park Academy","parentId":"490G00006560","stationId":"490G00006560","stopLetter":"->W","topMostParentId":"490G00006560"}]}]}