{"direction":"outbound","lineId":"653","lineName":"653","mode":"bus","stopPointSequences":[{"stopPoint":[{"icsId":"1015190","id":"490015187H","lat":51.5901,"lon":-0.1438,"name":"Princes Avenue","parentId":"490G00015190","stationId":"490G00015190","stopLetter":"H","topMostParentId":"490G00015190","towards":"East Finchley"},{"icsId":"1010135","id":"490010135L","lat":51.58978,"lon":-0.14578,"name":"Muswell Hill Road","parentId":"490G00010135","stationId":"490G00010135","stopLetter":"L","topMostParentId":"490G00010135","towards":"East Finchley"},{"icsId":"1004017","id":"490004017K","lat":51.59095,"lon":-0.14841,"name":"Birchwood Avenue","parentId":"490G00004017","stationId":"490G00004017","stopLetter":"K","topMostParentId":"490G00004017","towards":"East Finchley"},{"icsId":"1006947","id":"490006947W","lat":51.59093,"lon":-0.15363,"name":"Midhurst Avenue","parentId":"490G00006947","stationId":"490G00006947","stopLetter":"->W","topMostParentId":"490G00006947","towards":"East Finchley"},{"icsId":"1013880","id":"490013880L","lat":51.59008,"lon":-0.16003,"name":"Twyford Avenue","parentId":"490G00013880","stationId":"490G00013880","stopLetter":"L","topMostParentId":"490G00013880","towards":"Golders Green Or Highgate"},{"icsId":"1003043","id":"490003043W","lat":51.58919,"lon":-0.16985,"name":"Abbots Gardens","parentId":"490G00003043","stationId":"490G00003043","stopLetter":"->W","topMostParentId":"490G00003043","towards":"Finchley Central"},{"icsId":"1013799","id":"490013799W","lat":51.59078,"lon":-0.17364,"name":"Trinity Avenue","parentId":"490G00013799","stationId":"490G00013799","topMostParentId":"490G00013799","towards":"Finchley Central"},{"icsId":"1010656","id":"490010656W2","lat":51.59201,"lon":-0.17971,"name":"Ossulton Way","parentId":"490G00010656","stationId":"490G00010656","stopLetter":"G","topMostParentId":"490G00010656","towards":"Finchley Central"},{"icsId":"1006353","id":"490006353E1","lat":51.59286,"lon":-0.18183,"name":"East Finchley Cemetery","parentId":"490G00006353","stationId":"490G00006353","stopLetter":"H","topMostParentId":"490G00006353","towards":"Finchley Central"},{"icsId":"1003670","id":"490003670W","lat":51.59458,"lon":-0.18673,"name":"Basing Way","parentId":"490G00003670","stationId":"490G00003670","stopLetter":"D","topMostParentId":"490G00003670","towards":"Finchley Central"},{"icsId":"1009594","id":"490009594W1","lat":51.59586,"lon":-0.18957,"name":"Manor View","parentId":"490G00009594","stationId":"490G00009594","stopLetter":"E","topMostParentId":"490G00009594","towards":"North Finchley"},{"icsId":"1008311","id":"490008311W","lat":51.59638,"lon":-0.19269,"name":"Holmwood Gardens","parentId":"490G00008311","stationId":"490G00008311","stopLetter":"F","topMostParentId":"490G00008311","towards":"North Finchley"},{"icsId":"1005254","id":"490005254W","lat":51.59671,"lon":-0.19723,"name":"Church End","parentId":"490G00005254","stationId":"490G00005254","stopLetter":"G","topMostParentId":"490G00005254","towards":"Hendon Or North Finchley"},{"icsId":"1007385","id":"490007385N","lat":51.59765,"lon":-0.19871,"name":"Gravel Hill","parentId":"490G00007385","stationId":"490G00007385","stopLetter":"L","topMostParentId":"490G00007385","towards":"Hendon"},{"icsId":"1012787","id":"490012787W","lat":51.59733,"lon":-0.20161,"name":"St Mary's Avenue","parentId":"490G00012787","stationId":"490G00012787","stopLetter":"M","topMostParentId":"490G00012787","towards":"Hendon"},{"icsId":"1003366","id":"490003366S","lat":51.59496,"lon":-0.20517,"name":"Arden Road","parentId":"490G00003366","stationId":"490G00003366","stopLetter":"N","topMostParentId":"490G00003366","towards":"Hendon"},{"icsId":"1005803","id":"490005803S","lat":51.59326,"lon":-0.20815,"name":"Crooked Usage","parentId":"490G00005803","stationId":"490G00005803","stopLetter":"->S","topMostParentId":"490G00005803","towards":"Hendon"},{"icsId":"1007422","id":"490007411W2","lat":51.592,"lon":-0.21022,"name":"Broughton Avenue","parentId":"490G00007422","stationId":"490G00007422","stopLetter":"->W","topMostParentId":"490G00007422","towards":"Hendon Central Or Brent Cross"},{"icsId":"1007411","id":"490007411W1","lat":51.59054,"lon":-0.21332,"name":"Great North Way","parentId":"490G00007411","stationId":"490G00007411","stopLetter":"->W","topMostParentId":"490G00007411","towards":"Colindale Or Hendon Central"},{"icsId":"1003218","id":"490003218W","lat":51.58979,"lon":-0.2164,"name":"Alexandra Road","parentId":"490G00003218","stationId":"490G00003218","stopLetter":"->W","topMostParentId":"490G00003218","towards":"Colindale Or Hendon Central"},{"icsId":"1013512","id":"490013512T","lat":51.58954,"lon":-0.22093,"name":"Hendon / the Quadrant","parentId":"490G00013512","stationId":"490G00013512","stopLetter":"T","topMostParentId":"490G00013512","towards":"Colindale Or Hendon Central"},{"icsId":"1005253","id":"490005253R","lat":51.58994,"lon":-0.22518,"name":"Church End","parentId":"490G00005253","stationId":"490G00005253","stopLetter":"R","topMostParentId":"490G00005253","towards":"Brent Cross, West Hendon Or Colindale"},{"icsId":"1008056","id":"490008056P","lat":51.58819,"lon":-0.22863,"name":"Hendon Town Hall","parentId":"490G00008056","stationId":"490G00008056","stopLetter":"P","topMostParentId":"490G00008056","towards":"Brent Cross Or West Hendon"},{"icsId":"1015519","id":"490015519N","lat":51.58654,"lon":-0.23009,"name":"Watford Way","parentId":"490G00015519","stationId":"490G00015519","stopLetter":"N","topMostParentId":"490G00015519","towards":"Brent Cross Or West Hendon"},{"icsId":"1005485","id":"490005485K","lat":51.58551,"lon":-0.23154,"name":"Edgeworth Avenue","parentId":"490G00005485","stationId":"490G00005485","stopLetter":"K","topMostParentId":"490G00005485","towards":"Kingsbury"},{"icsId":"1003476","id":"490003476S","lat":51.58312,"lon":-0.23368,"name":"Audley Road","parentId":"490G00003476","stationId":"490G00003476","topMostParentId":"490G00003476","towards":"Kingsbury"},{"icsId":"1001148","id":"490001148B","lat":51.57998,"lon":-0.23801,"name":"Hendon Station","stopLetter":"HE","topMostParentId":"490001148B","towards":"Kingsbury Green"},{"icsId":"1014470","id":"490014470N2","lat":51.57818,"lon":-0.24045,"name":"West Hendon Broadway","parentId":"490G00014470","stationId":"490G00014470","stopLetter":"HL","topMostParentId":"490G00014470","towards":"Colindale Or Kingsbury Green"},{"icsId":"1014561","id":"490014561D","lat":51.57925,"lon":-0.24161,"name":"West Hendon Broadway / Herbert Road","parentId":"490G00014561","stationId":"490G00014561","stopLetter":"HM","topMostParentId":"490G00014561","towards":"Colindale Or Kingsbury Green"},{"icsId":"1014471","id":"490014471N","lat":51.58199,"lon":-0.24535,"name":"Hendon Magistrates Court","parentId":"490G00014471","stationId":"490G00014471","stopLetter":"HP","topMostParentId":"490G00014471","towards":"Colindale Or Kingsbury Green"},{"icsId":"1014469","id":"490014469W","lat":51.5841,"lon":-0.24872,"name":"Edgware Road / the Hyde","parentId":"490G00014469","stationId":"490G00014469","stopLetter":"HS","topMostParentId":"490G00014469","towards":"Kenton Or Wembley"},{"icsId":"1012395","id":"490012395W","lat":51.58259,"lon":-0.253,"name":"Springfield Gardens","parentId":"490G00012395","stationId":"490G00012395","stopLetter":"E","topMostParentId":"490G00012395","towards":"Kenton Or Wembley"},{"icsId":"1013758","id":"490013758W","lat":51.58221,"lon":-0.25761,"name":"Townsend Lane","parentId":"490G00013758","stationId":"490G00013758","stopLetter":"F","topMostParentId":"490G00013758","towards":"Kenton Or Wembley"},{"icsId":"1005997","id":"490005271W","lat":51.58303,"lon":-0.26304,"name":"Kingsbury  / Pipers Green","parentId":"490G00005997","stationId":"490G00005997","stopLetter":"H","topMostParentId":"490G00005997","towards":"Burnt Oak Or Kingsbury"},{"icsId":"1001978","id":"490011635W","lat":51.58441,"lon":-0.26706,"name":"Slough Lane","parentId":"490G000302","stationId":"490G000302","stopLetter":"J","topMostParentId":"490G000302","towards":"Kenton, Wembley Or Queensbury"},{"icsId":"1013997","id":"490013997M","lat":51.58593,"lon":-0.27471,"name":"Valley Drive","parentId":"490G00013997","stationId":"490G00013997","stopLetter":"M","topMostParentId":"490G00013997","towards":"Kenton, Wembley Or Queensbury"},{"icsId":"1000128","id":"490000128B","lat":51.58484,"lon":-0.27935,"name":"Kingsbury Station","stopLetter":"B","topMostParentId":"490000128B","towards":"Kenton Or Wembley","zone":"4"},{"icsId":"1008760","id":"490008760S1","lat":51.58407,"lon":-0.28275,"name":"Kingsbury Circle / the Mall","parentId":"490G000623","stationId":"490G000623","stopLetter":"E","topMostParentId":"490G000623","towards":"Wembley"},{"icsId":"1015769","id":"490015769S","lat":51.58251,"lon":-0.2847,"name":"Lyndsey Park","parentId":"490G00015769","stationId":"490G00015769","stopLetter":"G","topMostParentId":"490G00015769","towards":"Wembley"},{"icsId":"1019179","id":"490015769","lat":51.58139,"lon":-0.28517,"name":"Jewish Free School","parentId":"490G00019179","stationId":"490G00019179","stopLetter":"->E","topMostParentId":"490G00019179"}]}]}