{"direction":"outbound","lineId":"654","lineName":"654","mode":"bus","stopPointSequences":[{"stopPoint":[{"icsId":"1003101","id":"490003101B","lat":51.3565,"lon":-0.03211,"name":"Addington Village Interchange","parentId":"490G000380","stationId":"490G000380","stopLetter":"B","topMostParentId":"490G000380"},{"icsId":"1003095","id":"490003095E","lat":51.36406,"lon":-0.01834,"name":"Addington Road / Pumping Station","parentId":"490G00003095","stationId":"490G00003095","stopLetter":"->E","topMostParentId":"490G00003095","towards":"Hayes"},{"icsId":"1009032","id":"490009032E","lat":51.36933,"lon":-0.00435,"name":"Layhams Road","parentId":"490G00009032","stationId":"490G00009032","stopLetter":"B","topMostParentId":"490G00009032","towards":"Hayes"},{"icsId":"1003099","id":"490003099N","lat":51.37074,"lon":-0.00204,"name":"Addington Road / Glebe Way","parentId":"490G00003099","stationId":"490G00003099","stopLetter":"C","topMostParentId":"490G00003099","towards":"Hayes"},{"icsId":"1003097","id":"490003097E","lat":51.37098,"lon":-0.00067,"name":"Glebe Way","parentId":"490G00003097","stationId":"490G00003097","stopLetter":"P","topMostParentId":"490G00003097","towards":"Keston"},{"icsId":"1005544","id":"490005544E","lat":51.37048,"lon":0.00296,"name":"Coney Hall","parentId":"490G00005544","stationId":"490G00005544","stopLetter":"Q","topMostParentId":"490G00005544","towards":"Keston"},{"icsId":"1007871","id":"490007871E","lat":51.36825,"lon":0.01428,"name":"Hartfield Crescent","parentId":"490G00007871","stationId":"490G00007871","stopLetter":"->E","topMostParentId":"490G00007871","towards":"Keston"},{"icsId":"1003675","id":"490003675E","lat":51.36783,"lon":0.02724,"name":"Baston Road","parentId":"490G00003675","stationId":"490G00003675","stopLetter":"KN","topMostParentId":"490G00003675","towards":"Orpington"},{"icsId":"1008681","id":"490010989E","lat":51.36746,"lon":0.03596,"name":"Al-Emaan Centre / Keston Mosque","parentId":"490G00008681","stationId":"490G00008681","stopLetter":"KP","topMostParentId":"490G00008681","towards":"Orpington"},{"icsId":"1013438","id":"490013438E","lat":51.36726,"lon":0.03991,"name":"Croydon Road / the Keston Mark","parentId":"490G00013438","stationId":"490G00013438","stopLetter":"KQ","topMostParentId":"490G00013438","towards":"Orpington"},{"icsId":"1008683","id":"490008683E","lat":51.36721,"lon":0.04682,"name":"Keston Park Close","parentId":"490G00008683","stationId":"490G00008683","stopLetter":"KR","topMostParentId":"490G00008683","towards":"Orpington"},{"icsId":"1009241","id":"490009241E","lat":51.36665,"lon":0.0504,"name":"Locksbottom / Farnborough Common","parentId":"490G00009241","stationId":"490G00009241","stopLetter":"HH","topMostParentId":"490G00009241","towards":"Orpington"},{"icsId":"1009243","id":"490009243E","lat":51.36681,"lon":0.05427,"name":"Locksbottom / St Michael's Church","parentId":"490G00009243","stationId":"490G00009243","stopLetter":"HJ","topMostParentId":"490G00009243","towards":"Orpington"},{"icsId":"1012600","id":"490012600E","lat":51.36891,"lon":0.0583,"name":"Crofton Road / Starts Hill Road","parentId":"490G00012600","stationId":"490G00012600","stopLetter":"HN","topMostParentId":"490G00012600","towards":"Farnborough, Orpington Or Petts Wood"},{"icsId":"1007255","id":"490007255E","lat":51.37102,"lon":0.06327,"name":"Glyndebourne Park","parentId":"490G00007255","stationId":"490G00007255","stopLetter":"CM","topMostParentId":"490G00007255","towards":"Orpington Or Petts Wood"},{"icsId":"1010512","id":"490010512W2","lat":51.37352,"lon":0.07055,"name":"Oakwood Road / St Paul's Church","parentId":"490G00010512","stationId":"490G00010512","stopLetter":"CN","topMostParentId":"490G00010512","towards":"Orpington Or Petts Wood"},{"icsId":"1005790","id":"490005788E","lat":51.37335,"lon":0.07671,"name":"Crofton Road / Crofton Lane","parentId":"490G00005790","stationId":"490G00005790","stopLetter":"CP","topMostParentId":"490G00005790","towards":"Chislehurst Or Ramsden Estate"},{"icsId":"1011150","id":"490011150E","lat":51.373,"lon":0.08054,"name":"Pound Court Drive","parentId":"490G00011150","stationId":"490G00011150","stopLetter":"CR","topMostParentId":"490G00011150","towards":"Chislehurst Or Ramsden Estate"},{"icsId":"1001220","id":"490001220B","lat":51.37281,"lon":0.08865,"name":"Orpington Station","stopLetter":"B","topMostParentId":"490001220B","towards":"Chislehurst Or Ramsden Estate"},{"icsId":"1013818","id":"490013818H","lat":51.37185,"lon":0.09134,"name":"Tubbenden Lane","parentId":"490G00013818","stationId":"490G00013818","stopLetter":"H","topMostParentId":"490G00013818","towards":"St Mary Cray, Chelsfield Or Chislehurst"},{"icsId":"1008209","id":"490008209M","lat":51.37151,"lon":0.0971,"name":"Hillcrest Road","parentId":"490G00008209","stationId":"490G00008209","stopLetter":"M","topMostParentId":"490G00008209","towards":"Chelsfield Or Green Street Green"},{"icsId":"1013749","id":"490013749S","lat":51.36795,"lon":0.09574,"name":"Sevenoaks Road / Tower Road","parentId":"490G00013749","stationId":"490G00013749","stopLetter":"D","topMostParentId":"490G00013749","towards":"Green Street Green"},{"icsId":"1012592","id":"490010639E","lat":51.36474,"lon":0.09334,"name":"Sevenoaks Road / Orpington Hospital","parentId":"490G00012592","stationId":"490G00012592","stopLetter":"E","topMostParentId":"490G00012592","towards":"Green Street Green"},{"icsId":"1010639","id":"490010639S1","lat":51.36291,"lon":0.09136,"name":"Sevenoaks Road / Cloonmore Avenue","parentId":"490G00010639","stationId":"490G00010639","stopLetter":"F","topMostParentId":"490G00010639","towards":"Downe, Farnborough Or Knockholt Pound"},{"icsId":"1005748","id":"490005748S","lat":51.36083,"lon":0.08918,"name":"Crescent Way","parentId":"490G00005748","stationId":"490G00005748","stopLetter":"G","topMostParentId":"490G00005748","towards":"Downe, Farnborough Or Knockholt Pound"},{"icsId":"1005446","id":"490005446E","lat":51.35959,"lon":0.09871,"name":"Cloonmore Avenue","parentId":"490G00005446","stationId":"490G00005446","stopLetter":"->E","topMostParentId":"490G00005446","towards":"Ramsden Estate"},{"icsId":"1014893","id":"490014893E","lat":51.35793,"lon":0.10306,"name":"Woodside","parentId":"490G00014893","stationId":"490G00014893","stopLetter":"->E","topMostParentId":"490G00014893","towards":"Ramsden Estate"},{"icsId":"1001060","id":"490001060A","lat":51.35742,"lon":0.10685,"name":"Chelsfield Station","stopLetter":"A","topMostParentId":"490001060A","towards":"Orpington"},{"icsId":"1015896","id":"490015896E","lat":51.35812,"lon":0.10921,"name":"Stirling Drive","parentId":"490G00015896","stationId":"490G00015896","stopLetter":"D","topMostParentId":"490G00015896","towards":"Orpington"},{"icsId":"1013419","id":"490013419N","lat":51.36014,"lon":0.11204,"name":"The Highway School","parentId":"490G00013419","stationId":"490G00013419","stopLetter":"E","topMostParentId":"490G00013419","towards":"Orpington"},{"icsId":"1013418","id":"490013418N","lat":51.36317,"lon":0.11361,"name":"The Highway","parentId":"490G00013418","stationId":"490G00013418","stopLetter":"V","topMostParentId":"490G00013418","towards":"Orpington"},{"icsId":"1007264","id":"490007264N","lat":51.36559,"lon":0.11009,"name":"Goddington Lane","parentId":"490G00007264","stationId":"490G00007264","stopLetter":"->N","topMostParentId":"490G00007264","towards":"Orpington"},{"icsId":"1005675","id":"490005675N","lat":51.36998,"lon":0.10933,"name":"Court Road / Spur Road","parentId":"490G00005675","stationId":"490G00005675","stopLetter":"->N","topMostParentId":"490G00005675","towards":"Orpington"},{"icsId":"1007185","id":"490007185E","lat":51.37285,"lon":0.11148,"name":"Tintagel Road / Gillmans Road","parentId":"490G00007185","stationId":"490G00007185","stopLetter":"J","topMostParentId":"490G00007185","towards":"Orpington"},{"icsId":"1006465","id":"490006465N","lat":51.37404,"lon":0.11569,"name":"Eldred Drive","parentId":"490G00006465","stationId":"490G00006465","stopLetter":"K","topMostParentId":"490G00006465","towards":"Orpington"}]}]}