{"direction":"outbound","lineId":"663","lineName":"663","mode":"bus","stopPointSequences":[{"stopPoint":[{"icsId":"1001294","id":"490001294C","lat":51.39846,"lon":-0.09946,"name":"Thornton Heath Station","stopLetter":"C","topMostParentId":"490001294C","towards":"West Croydon"},{"icsId":"1004471","id":"490004471A","lat":51.39755,"lon":-0.10277,"name":"Brook Road","parentId":"490G00004471","stationId":"490G00004471","stopLetter":"A","topMostParentId":"490G00004471","towards":"West Croydon"},{"icsId":"1003905","id":"490003905S1","lat":51.3963,"lon":-0.10616,"name":"Bensham Lane","parentId":"490G00003905","stationId":"490G00003905","stopLetter":"X","topMostParentId":"490G00003905","towards":"West Croydon"},{"icsId":"1004342","id":"490004342W","lat":51.39539,"lon":-0.10911,"name":"Whitehorse Manor Brigstock Site","parentId":"490G00004342","stationId":"490G00004342","stopLetter":"N","topMostParentId":"490G00004342","towards":"West Croydon"},{"icsId":"1004343","id":"490004343M","lat":51.39349,"lon":-0.11342,"name":"Brigstock Road / London Road","parentId":"490G00004343","stationId":"490G00004343","stopLetter":"M","topMostParentId":"490G00004343","towards":"West Croydon"},{"icsId":"1013635","id":"490013635K","lat":51.39291,"lon":-0.11573,"name":"Thornton Heath Pond / Fairlands Avenue","parentId":"490G00013635","stationId":"490G00013635","stopLetter":"K","topMostParentId":"490G00013635","towards":"Waddon"},{"icsId":"1005854","id":"490005854S","lat":51.39127,"lon":-0.11883,"name":"Croydon Crematorium","parentId":"490G00005854","stationId":"490G00005854","stopLetter":"R","topMostParentId":"490G00005854","towards":"Waddon"},{"icsId":"1010872","id":"490010872W","lat":51.38932,"lon":-0.12089,"name":"Peall Road","parentId":"490G00010872","stationId":"490G00010872","stopLetter":"S","topMostParentId":"490G00010872","towards":"Waddon"},{"icsId":"1009264","id":"490009264S2","lat":51.38678,"lon":-0.12085,"name":"Lombard Roundabout","parentId":"490G00009264","stationId":"490G00009264","stopLetter":"T","topMostParentId":"490G00009264","towards":"Waddon"},{"icsId":"1015356","id":"490015356S","lat":51.38409,"lon":-0.12109,"name":"Drake Road","parentId":"490G00015356","stationId":"490G00015356","stopLetter":"U","topMostParentId":"490G00015356","towards":"Purley"},{"icsId":"1010236","id":"490010236S","lat":51.38178,"lon":-0.1207,"name":"Newman Road","parentId":"490G00010236","stationId":"490G00010236","stopLetter":"A","topMostParentId":"490G00010236","towards":"Purley"},{"icsId":"1003773","id":"490003773S","lat":51.377,"lon":-0.11992,"name":"Purley Way / Beddington Farm Road","parentId":"490G000406","stationId":"490G000406","stopLetter":"B","topMostParentId":"490G000406","towards":"Purley"},{"icsId":"1005522","id":"490005522S","lat":51.37388,"lon":-0.11833,"name":"Commerce Way","parentId":"490G00005522","stationId":"490G00005522","stopLetter":"E","topMostParentId":"490G00005522","towards":"West Croydon"},{"icsId":"1014110","id":"490014110S","lat":51.3706,"lon":-0.11706,"name":"Purley Way / Waddon Road","parentId":"490G00014110","stationId":"490G00014110","stopLetter":"SV","topMostParentId":"490G00014110","towards":"Beddington"},{"icsId":"1003281","id":"490003281S","lat":51.36876,"lon":-0.11824,"name":"Alton Road","parentId":"490G00003281","stationId":"490G00003281","stopLetter":"SU","topMostParentId":"490G00003281","towards":"Purley"},{"icsId":"1001305","id":"490001305B","lat":51.3662,"lon":-0.11815,"name":"Waddon Station","stopLetter":"SD","topMostParentId":"490001305B","towards":"Purley"},{"icsId":"1006893","id":"490006869EB1","lat":51.36478,"lon":-0.11662,"name":"Stafford Road","parentId":"490G00006893","stationId":"490G00006893","stopLetter":"EC","topMostParentId":"490G00006893","towards":"East Croydon"},{"icsId":"1005835","id":"490005835E","lat":51.36293,"lon":-0.11159,"name":"Crowley Crescent","parentId":"490G00005835","stationId":"490G00005835","stopLetter":"->E","topMostParentId":"490G00005835","towards":"East Croydon"},{"icsId":"1004239","id":"490004239E","lat":51.36247,"lon":-0.10681,"name":"Bramley Hill","parentId":"490G00004239","stationId":"490G00004239","stopLetter":"->E","topMostParentId":"490G00004239","towards":"East Croydon"},{"icsId":"1007682","id":"490007669S","lat":51.35897,"lon":-0.10625,"name":"Heath Close","parentId":"490G00007682","stationId":"490G00007682","stopLetter":"GY","topMostParentId":"490G00007682","towards":"Purley"},{"icsId":"1012576","id":"490012576S","lat":51.35643,"lon":-0.10507,"name":"St Giles School","parentId":"490G00012576","stationId":"490G00012576","stopLetter":"GZ","topMostParentId":"490G00012576","towards":"Purley"},{"icsId":"1011517","id":"490011517S","lat":51.35456,"lon":-0.10573,"name":"Regina Coeli School","parentId":"490G00011517","stationId":"490G00011517","stopLetter":"->S","topMostParentId":"490G00011517","towards":"Purley"}]}]}