{"direction":"outbound","lineId":"665","lineName":"665","mode":"bus","stopPointSequences":[{"stopPoint":[{"icsId":"1003932","id":"490003932E","lat":51.39325,"lon":-0.29697,"name":"Berrylands Road","parentId":"490G00003932","stationId":"490G00003932","stopLetter":"SQ","topMostParentId":"490G00003932","towards":"Tolworth"},{"icsId":"1010781","id":"490010781N","lat":51.39429,"lon":-0.2934,"name":"Parklands","parentId":"490G00010781","stationId":"490G00010781","stopLetter":"->N","topMostParentId":"490G00010781","towards":"Tolworth"},{"icsId":"1011509","id":"490011509E","lat":51.39603,"lon":-0.29243,"name":"Regent Road","parentId":"490G00011509","stationId":"490G00011509","stopLetter":"->E","topMostParentId":"490G00011509","towards":"Tolworth"},{"icsId":"1013530","id":"490013530E","lat":51.39727,"lon":-0.28705,"name":"The Ridings","parentId":"490G00013530","stationId":"490G00013530","stopLetter":"->E","topMostParentId":"490G00013530","towards":"Tolworth"},{"icsId":"1013260","id":"490013260B","lat":51.39805,"lon":-0.28166,"name":"The Berrylands / Berrylands Station","parentId":"490G000783","stationId":"490G000783","stopLetter":"B","topMostParentId":"490G000783","towards":"Tolworth"},{"icsId":"1010893","id":"490010893E","lat":51.39747,"lon":-0.27817,"name":"Pembroke Avenue","parentId":"490G00010893","stationId":"490G00010893","stopLetter":"->E","topMostParentId":"490G00010893","towards":"Tolworth"},{"icsId":"1013545","id":"490013545S","lat":51.3954,"lon":-0.27984,"name":"The Roystons","parentId":"490G00013545","stationId":"490G00013545","stopLetter":"->S","topMostParentId":"490G00013545","towards":"Hook"},{"icsId":"1011006","id":"490011006S","lat":51.39213,"lon":-0.28175,"name":"Pine Gardens","parentId":"490G00011006","stationId":"490G00011006","stopLetter":"->S","topMostParentId":"490G00011006","towards":"Hook"},{"icsId":"1006436","id":"490006436S","lat":51.38979,"lon":-0.28168,"name":"Edith Gardens","parentId":"490G00006436","stationId":"490G00006436","stopLetter":"->S","topMostParentId":"490G00006436","towards":"Hook"},{"icsId":"1012262","id":"490012262S","lat":51.38656,"lon":-0.28046,"name":"Southcote Avenue","parentId":"490G00012262","stationId":"490G00012262","stopLetter":"->S","topMostParentId":"490G00012262","towards":"Hook"},{"icsId":"1003488","id":"490003488S","lat":51.38446,"lon":-0.28294,"name":"Austyn Gardens","parentId":"490G00003488","stationId":"490G00003488","stopLetter":"->S","topMostParentId":"490G00003488","towards":"Hook"},{"icsId":"1011205","id":"490011205E","lat":51.38241,"lon":-0.28497,"name":"Princes Avenue","parentId":"490G00011205","stationId":"490G00011205","stopLetter":"J","topMostParentId":"490G00011205","towards":"Hook, New Malden, Malden Manor Or Ewell"},{"icsId":"1013697","id":"490013697F","lat":51.37991,"lon":-0.28137,"name":"Tolworth Broadway","parentId":"490G00013697","stationId":"490G00013697","stopLetter":"F","topMostParentId":"490G00013697","towards":"Hook, New Malden, Malden Manor Or Ewell"},{"icsId":"1013706","id":"490013702D","lat":51.38034,"lon":-0.27973,"name":"Tolworth Tower / Tolworth Station","parentId":"490G00013706","stationId":"490G00013706","stopLetter":"D","topMostParentId":"490G00013706","towards":"New Malden"},{"icsId":"1014236","id":"490014236N","lat":51.38257,"lon":-0.27745,"name":"Warren Drive North","parentId":"490G00014236","stationId":"490G00014236","stopLetter":"->N","topMostParentId":"490G00014236","towards":"New Malden"},{"icsId":"1008155","id":"490008155E","lat":51.38651,"lon":-0.27347,"name":"Highfield Road / Oakdene Drive","parentId":"490G00008155","stationId":"490G00008155","stopLetter":"->E","topMostParentId":"490G00008155","towards":"New Malden"},{"icsId":"1006493","id":"490006493N","lat":51.3882,"lon":-0.27061,"name":"Elmbridge Avenue / Southwood Drive","parentId":"490G00006493","stationId":"490G00006493","stopLetter":"->N","topMostParentId":"490G00006493","towards":"Shannon Corner"},{"icsId":"1009526","id":"490015370NGS","lat":51.38967,"lon":-0.26748,"name":"Manor Drive North","parentId":"490G00009526","stationId":"490G00009526","stopLetter":"MS","topMostParentId":"490G00009526","towards":"Shannon Corner"},{"icsId":"1012311","id":"490010680N","lat":51.3909,"lon":-0.26499,"name":"South Lane","parentId":"490G00012311","stationId":"490G00012311","stopLetter":"MT","topMostParentId":"490G00012311","towards":"Shannon Corner"},{"icsId":"1009523","id":"490009523NGS","lat":51.39446,"lon":-0.2554,"name":"Malden Way / Malden Road","parentId":"490G00009523","stationId":"490G00009523","stopLetter":"MU","topMostParentId":"490G00009523","towards":"Shannon Corner"},{"icsId":"1012723","id":"490012723N","lat":51.39556,"lon":-0.25455,"name":"St James Church / Kingston By-Pass","parentId":"490G00012723","stationId":"490G00012723","stopLetter":"MN","topMostParentId":"490G00012723","towards":"Kingston Vale Or Norbiton"},{"icsId":"1015206","id":"490015206K","lat":51.3979,"lon":-0.25553,"name":"New Malden / the Fountain","parentId":"490G000880","stationId":"490G000880","stopLetter":"K","topMostParentId":"490G000880","towards":"Kingston Vale Or Norbiton"},{"icsId":"1002230","id":"490015206L","lat":51.39857,"lon":-0.25672,"name":"New Malden / Kingston Road","parentId":"490G00002230","stationId":"490G00002230","stopLetter":"L","topMostParentId":"490G00002230","towards":"Norbiton"},{"icsId":"1015638","id":"490015638S","lat":51.39843,"lon":-0.2613,"name":"Sandal Road / Holy Cross School","parentId":"490G00015638","stationId":"490G00015638","stopLetter":"->S","topMostParentId":"490G00015638","towards":"Tolworth and Surbiton"}]}]}