{"direction":"outbound","lineId":"67","lineName":"67","mode":"bus","stopPointSequences":[{"stopPoint":[{"icsId":"1019962","id":"490015567G2","lat":51.59663,"lon":-0.10924,"name":"Lordship Lane","parentId":"490G000971","stationId":"490G000971","stopLetter":"G","topMostParentId":"490G000971","towards":"Turnpike Lane"},{"icsId":"1009461","id":"490009461KA","lat":51.59314,"lon":-0.10669,"name":"Brampton Park Road","parentId":"490G00009461","stationId":"490G00009461","stopLetter":"KA","topMostParentId":"490G00009461","towards":"Manor House Or Tottenham"},{"icsId":"1014669","id":"490000241MA","lat":51.59137,"lon":-0.10431,"name":"Coleraine Road","parentId":"490G000835","stationId":"490G000835","stopLetter":"MA","topMostParentId":"490G000835","towards":"Tottenham"},{"icsId":"1000241","id":"490015475Y","lat":51.58962,"lon":-0.10247,"name":"Turnpike Lane Station","stopLetter":"Y","topMostParentId":"490015475Y","towards":"Tottenham","zone":"3"},{"icsId":"1014713","id":"490014713E","lat":51.58802,"lon":-0.09997,"name":"Willow Walk","parentId":"490G00014713","stationId":"490G00014713","stopLetter":"W","topMostParentId":"490G00014713","towards":"Tottenham"},{"icsId":"1012557","id":"490012557E","lat":51.58706,"lon":-0.09741,"name":"Stanley Road","parentId":"490G00012557","stationId":"490G00012557","stopLetter":"A","topMostParentId":"490G00012557","towards":"Tottenham"},{"icsId":"1014464","id":"490014464E","lat":51.58613,"lon":-0.09231,"name":"West Green Primary School","parentId":"490G00014464","stationId":"490G00014464","stopLetter":"B","topMostParentId":"490G00014464","towards":"Tottenham"},{"icsId":"1004053","id":"490004053E","lat":51.58637,"lon":-0.08971,"name":"La Rose Lane","parentId":"490G00004053","stationId":"490G00004053","stopLetter":"C","topMostParentId":"490G00004053","towards":"Stamford Hill"},{"icsId":"1003042","id":"490003042S","lat":51.58407,"lon":-0.09012,"name":"Abbotsford Avenue","parentId":"490G00003042","stationId":"490G00003042","stopLetter":"W","topMostParentId":"490G00003042","towards":"Manor House Or Stamford Hill"},{"icsId":"1014862","id":"490014862HS","lat":51.58215,"lon":-0.09159,"name":"Chestnuts Primary School","parentId":"490G00014862","stationId":"490G00014862","stopLetter":"HR","topMostParentId":"490G00014862","towards":"Manor House Or Stamford Hill"},{"icsId":"1012430","id":"490012430HT","lat":51.58161,"lon":-0.08979,"name":"St Ann's Hospital","parentId":"490G00012430","stationId":"490G00012430","stopLetter":"HT","topMostParentId":"490G00012430","towards":"Stamford Hill"},{"icsId":"1012431","id":"490012431E","lat":51.58124,"lon":-0.08699,"name":"Cornwall Road","parentId":"490G00012431","stationId":"490G00012431","stopLetter":"TK","topMostParentId":"490G00012431","towards":"Stamford Hill"},{"icsId":"1012001","id":"490012001E","lat":51.5801,"lon":-0.08176,"name":"Seven Sisters Road / Kerswell Close","parentId":"490G00012001","stationId":"490G00012001","stopLetter":"TL","topMostParentId":"490G00012001","towards":"Stamford Hill"},{"icsId":"1012436","id":"490012432E","lat":51.57912,"lon":-0.07976,"name":"Seven Sisters Road / Plevna Crescent","parentId":"490G00012436","stationId":"490G00012436","stopLetter":"TM","topMostParentId":"490G00012436","towards":"Stoke Newington"},{"icsId":"1008407","id":"490008407E","lat":51.57788,"lon":-0.07674,"name":"Howard Road","parentId":"490G00008407","stationId":"490G00008407","stopLetter":"TN","topMostParentId":"490G00008407","towards":"Stoke Newington"},{"icsId":"1006624","id":"490006624W","lat":51.57728,"lon":-0.07414,"name":"Ermine Road / St Ignatius Church","parentId":"490G00006624","stationId":"490G00006624","stopLetter":"TP","topMostParentId":"490G00006624","towards":"Stoke Newington"},{"icsId":"1006456","id":"490006456F","lat":51.5745,"lon":-0.07226,"name":"Egerton Road","parentId":"490G00006456","stationId":"490G00006456","stopLetter":"SK","topMostParentId":"490G00006456","towards":"Stoke Newington"},{"icsId":"1012524","id":"490012524L","lat":51.5723,"lon":-0.07253,"name":"Stamford Hill Broadway","parentId":"490G00012524","stationId":"490G00012524","stopLetter":"SL","topMostParentId":"490G00012524","towards":"Dalston Junction"},{"icsId":"1006261","id":"490006261S","lat":51.56997,"lon":-0.07279,"name":"Stamford Hill Library","parentId":"490G00006261","stationId":"490G00006261","stopLetter":"SM","topMostParentId":"490G00006261","towards":"Dalston Junction Or Newington Green"},{"icsId":"1009477","id":"490009477S","lat":51.56776,"lon":-0.07294,"name":"Lynmouth Road","parentId":"490G00009477","stationId":"490G00009477","stopLetter":"SN","topMostParentId":"490G00009477","towards":"Dalston Junction Or Newington Green"},{"icsId":"1001273","id":"490001273C","lat":51.56478,"lon":-0.07305,"name":"Stoke Newington Station","stopLetter":"C","topMostParentId":"490001273C","towards":"Clapton Pond, Dalston Or Newington Green"},{"icsId":"1010427","id":"490010427D","lat":51.56302,"lon":-0.07187,"name":"Northwold Road / Stoke Newington Common","parentId":"490G00010427","stationId":"490G00010427","stopLetter":"D","topMostParentId":"490G00010427","towards":"Newington Green, Clapton Pond Or Dalston"},{"icsId":"1015168","id":"490015168L","lat":51.55977,"lon":-0.0701,"name":"Rectory Road / Brooke Road","parentId":"490G00015168","stationId":"490G00015168","stopLetter":"L","topMostParentId":"490G00015168","towards":"Dalston Junction Or Hackney Central"},{"icsId":"1009607","id":"490009607N","lat":51.5572,"lon":-0.06982,"name":"Manse Road","parentId":"490G000655","stationId":"490G000655","stopLetter":"N","topMostParentId":"490G000655","towards":"Dalston Junction"},{"icsId":"1003307","id":"490003307Q","lat":51.55622,"lon":-0.07449,"name":"Stoke Newington Road / Amhurst Road","parentId":"490G00003307","stationId":"490G00003307","stopLetter":"Q","topMostParentId":"490G00003307","towards":"Dalston"},{"icsId":"1011217","id":"490011217S","lat":51.55325,"lon":-0.07479,"name":"Princess May Road","parentId":"490G00011217","stationId":"490G00011217","stopLetter":"->S","topMostParentId":"490G00011217","towards":"Shoreditch Or Hoxton"},{"icsId":"1012019","id":"490012019V","lat":51.5514,"lon":-0.07499,"name":"Shacklewell Lane","parentId":"490G00012019","stationId":"490G00012019","stopLetter":"V","topMostParentId":"490G00012019","towards":"Shoreditch Or Hoxton"},{"icsId":"1015851","id":"490015851T","lat":51.5501,"lon":-0.07511,"name":"Rio Cinema","parentId":"490G00015851","stationId":"490G00015851","stopLetter":"T","topMostParentId":"490G00015851","towards":"Shoreditch Or Hoxton"},{"icsId":"1001081","id":"490001081R","lat":51.54881,"lon":-0.07512,"name":"Dalston Kingsland Station","stopLetter":"R","topMostParentId":"490001081R","towards":"Shoreditch Or Hoxton"},{"icsId":"1001568","id":"490005945M","lat":51.54667,"lon":-0.07558,"name":"Dalston Junction Station","stopLetter":"M","topMostParentId":"490005945M","towards":"Shoreditch Or Hoxton"},{"icsId":"1006948","id":"490006929D","lat":51.5443,"lon":-0.07596,"name":"Forest Road","parentId":"490G00006948","stationId":"490G00006948","stopLetter":"D","topMostParentId":"490G00006948","towards":"Hoxton Or Shoreditch"}]}]}