{"direction":"outbound","lineId":"677","lineName":"677","mode":"bus","stopPointSequences":[{"stopPoint":[{"icsId":"1007657","id":"490007657W","lat":51.55967,"lon":0.07696,"name":"Hainault Street","parentId":"490G00007657","stationId":"490G00007657","stopLetter":"W","topMostParentId":"490G00007657","towards":"Gants Hill Or Redbridge"},{"icsId":"1008466","id":"490008466Q1","lat":51.55785,"lon":0.07405,"name":"Redbridge Central Library","parentId":"490G00008466","stationId":"490G00008466","stopLetter":"Q","topMostParentId":"490G00008466","towards":"Barking, Gants Hill, Manor Park Or Redbridge"},{"icsId":"1008470","id":"490008470M","lat":51.55814,"lon":0.07174,"name":"High Road Ilford","parentId":"490G000606","stationId":"490G000606","stopLetter":"M","topMostParentId":"490G000606","towards":"Gants Hill Or Redbridge"},{"icsId":"1001157","id":"490001157H","lat":51.55893,"lon":0.0701,"name":"Ilford Station","stopLetter":"H","topMostParentId":"490001157H","towards":"Gants Hill"},{"icsId":"1013966","id":"490013966J","lat":51.5619,"lon":0.06819,"name":"Beal Road","parentId":"490G00013966","stationId":"490G00013966","stopLetter":"VK","topMostParentId":"490G00013966","towards":"Gants Hill"},{"icsId":"1013331","id":"490013331W","lat":51.56448,"lon":0.06624,"name":"Northbrook Road","parentId":"490G00013331","stationId":"490G00013331","stopLetter":"VM","topMostParentId":"490G00013331","towards":"Gants Hill Or Redbridge"},{"icsId":"1013988","id":"490013988N","lat":51.56767,"lon":0.06525,"name":"Valentines Park","parentId":"490G00013988","stationId":"490G00013988","stopLetter":"VP","topMostParentId":"490G00013988","towards":"Gants Hill"},{"icsId":"1003947","id":"490003947N","lat":51.57024,"lon":0.06389,"name":"Bethell Avenue","parentId":"490G00003947","stationId":"490G00003947","stopLetter":"VR","topMostParentId":"490G00003947","towards":"Barkingside, Newbury Park Or South Woodford"},{"icsId":"1003828","id":"490003828N","lat":51.57283,"lon":0.06511,"name":"Beehive Lane","parentId":"490G00003828","stationId":"490G00003828","stopLetter":"CM","topMostParentId":"490G00003828","towards":"Barkingside, Newbury Park Or South Woodford"},{"icsId":"1015202","id":"490015202M","lat":51.5759,"lon":0.06604,"name":"Gants Hill Station / Cranbrook Road","parentId":"490G000878","stationId":"490G000878","stopLetter":"CN","topMostParentId":"490G000878","towards":"Barkingside, Newbury Park Or South Woodford"},{"icsId":"1000085","id":"490015200C","lat":51.57729,"lon":0.06807,"name":"Gants Hill Station","stopLetter":"CP","topMostParentId":"490015200C","towards":"Barkingside","zone":"4"},{"icsId":"1012078","id":"490012078N","lat":51.57807,"lon":0.0706,"name":"Shere Road","parentId":"490G00012078","stationId":"490G00012078","stopLetter":"CQ","topMostParentId":"490G00012078","towards":"Barkingside"},{"icsId":"1007110","id":"490007110N","lat":51.58054,"lon":0.07342,"name":"Gantshill Crescent","parentId":"490G00007110","stationId":"490G00007110","stopLetter":"CR","topMostParentId":"490G00007110","towards":"Barkingside"},{"icsId":"1023101","id":"490007695N","lat":51.58317,"lon":0.07611,"name":"Beattyville Gardens","parentId":"490G00023101","stationId":"490G00023101","stopLetter":"CS","topMostParentId":"490G00023101","towards":"Barkingside"},{"icsId":"1000341","id":"490007060N","lat":51.58574,"lon":0.0788,"name":"Brandville Gardens","parentId":"490G00000341","stationId":"490G00000341","stopLetter":"Q","topMostParentId":"490G00000341","towards":"Barkingside"},{"icsId":"1007012","id":"490007012J","lat":51.58988,"lon":0.08157,"name":"Fremantle Road","parentId":"490G00007012","stationId":"490G00007012","stopLetter":"J","topMostParentId":"490G00007012","towards":"Claybury, Hainault, the Glade Or Woodford"},{"icsId":"1007059","id":"490007059A","lat":51.59284,"lon":0.08428,"name":"Fullwell Cross","parentId":"490G00007059","stationId":"490G00007059","stopLetter":"A","topMostParentId":"490G00007059","towards":"Chigwell, Hainault, the Glade Or Woodford"},{"icsId":"1013704","id":"490013704N","lat":51.5958,"lon":0.0843,"name":"Tomswood Hill","parentId":"490G00013704","stationId":"490G00013704","stopLetter":"P","topMostParentId":"490G00013704","towards":"Chigwell Or Hainault"},{"icsId":"1010189","id":"490010189N","lat":51.59744,"lon":0.08459,"name":"Neville Road","parentId":"490G00010189","stationId":"490G00010189","stopLetter":"Q","topMostParentId":"490G00010189","towards":"Chigwell Or Hainault"},{"icsId":"1013481","id":"490013481N","lat":51.60129,"lon":0.08429,"name":"New North Road","parentId":"490G00013481","stationId":"490G00013481","stopLetter":"R","topMostParentId":"490G00013481","towards":"Chigwell, Collier Row Or Chigwell Row"},{"icsId":"1018507","id":"150042023001","lat":51.606649,"lon":0.083033,"name":"Murtwell Drive","topMostParentId":"150042023001","towards":"Chigwell"},{"icsId":"1016545","id":"150042023003","lat":51.612052,"lon":0.081071,"name":"Linkside","parentId":"150G00000950","stationId":"150G00000950","topMostParentId":"150G00000950","towards":"Buckhurst Hill"},{"icsId":"1016544","id":"150042023005","lat":51.61513,"lon":0.0789,"name":"Hainault Grove","parentId":"150G00000951","stationId":"150G00000951","topMostParentId":"150G00000951","towards":"Buckhurst Hill"},{"icsId":"1016543","id":"1500TFL007","lat":51.616734,"lon":0.077674,"name":"The Chase","parentId":"150G00003390","stationId":"150G00003390","topMostParentId":"150G00003390","towards":"Buckhurst Hill"},{"icsId":"1000319","id":"1500IM379B","lat":51.619073,"lon":0.075122,"name":"Chigwell Station","parentId":"150G00000945","stationId":"150G00000945","topMostParentId":"940GZZLUCWL","towards":"Buckhurst Hill"},{"icsId":"1016531","id":"150042019007","lat":51.621447,"lon":0.074104,"name":"Brook Way","parentId":"150G00000944","stationId":"150G00000944","topMostParentId":"150G00000944","towards":"Buckhurst Hill"},{"icsId":"1016532","id":"150042019005","lat":51.622559,"lon":0.06917,"name":"Chester Road","parentId":"150G00000943","stationId":"150G00000943","topMostParentId":"150G00000943","towards":"Buckhurst Hill"},{"icsId":"1016533","id":"150042019004","lat":51.626191,"lon":0.0636,"name":"Guru Gobind Singh College","parentId":"150G00000942","stationId":"150G00000942","topMostParentId":"150G00000942","towards":"Loughton"},{"icsId":"1016534","id":"150042019001","lat":51.627235,"lon":0.05021,"name":"Alfred Road","parentId":"150G00000941","stationId":"150G00000941","topMostParentId":"150G00000941","towards":"Loughton"},{"icsId":"1000317","id":"1500IM359","lat":51.626505,"lon":0.046204,"name":"Buckhurst Hill Station","parentId":"150G00003292","stationId":"150G00003292","topMostParentId":"940GZZLUBKH","towards":"Chigwell, Loughton Or Woodford"},{"icsId":"1000316","id":"150042015007","lat":51.642319,"lon":0.054663,"name":"Loughton Station","parentId":"150G00000960","stationId":"150G00000960","stopLetter":"A","topMostParentId":"940GZZLULGN","towards":"Debden"},{"icsId":"1016523","id":"150042006001","lat":51.66119,"lon":0.084478,"name":"Davenant School","topMostParentId":"150042006001","towards":"Debden"},{"icsId":"1016526","id":"150042005005","lat":51.654837,"lon":0.085734,"name":"Goldingham Avenue","parentId":"150G00000918","stationId":"150G00000918","topMostParentId":"150G00000918","towards":"Debden"},{"icsId":"1016793","id":"1500IM1055","lat":51.646932,"lon":0.082205,"name":"The Broadway","parentId":"150G00003600","stationId":"150G00003600","topMostParentId":"150G00003600","towards":"Loughton"}]}]}