{"direction":"outbound","lineId":"678","lineName":"678","mode":"bus","stopPointSequences":[{"stopPoint":[{"icsId":"1012702","id":"490012702S","lat":51.54263,"lon":0.0263,"name":"St George's Road","parentId":"490G00012702","stationId":"490G00012702","stopLetter":"A","topMostParentId":"490G00012702","towards":"Plaistow"},{"icsId":"1015000","id":"490015000W","lat":51.54188,"lon":0.02459,"name":"Upton Avenue","parentId":"490G00015000","stationId":"490G00015000","stopLetter":"B","topMostParentId":"490G00015000","towards":"Plaistow"},{"icsId":"1014467","id":"490014467S","lat":51.53936,"lon":0.0229,"name":"West Ham Park","parentId":"490G00014467","stationId":"490G00014467","stopLetter":"C","topMostParentId":"490G00014467","towards":"Plaistow"},{"icsId":"1011054","id":"490011054S","lat":51.53728,"lon":0.02221,"name":"Plashet Road / Portway","parentId":"490G00011054","stationId":"490G00011054","stopLetter":"D","topMostParentId":"490G00011054","towards":"Plaistow"},{"icsId":"1005741","id":"490005741S","lat":51.53572,"lon":0.02226,"name":"Crescent Road","parentId":"490G00005741","stationId":"490G00005741","stopLetter":"E","topMostParentId":"490G00005741","towards":"Prince Regent"},{"icsId":"1013201","id":"490013197S","lat":51.53332,"lon":0.02263,"name":"Terrace Road","parentId":"490G00013201","stationId":"490G00013201","stopLetter":"R","topMostParentId":"490G00013201","towards":"Prince Regent"},{"icsId":"1008637","id":"490008637E","lat":51.53035,"lon":0.02205,"name":"Kennedy Close","parentId":"490G00008637","stationId":"490G00008637","stopLetter":"E","topMostParentId":"490G00008637","towards":"Custom House Or Newham University Hospital"},{"icsId":"1011042","id":"490011042S","lat":51.52916,"lon":0.0243,"name":"Plaistow Broadway","parentId":"490G00011042","stationId":"490G00011042","stopLetter":"->S","topMostParentId":"490G00011042","towards":"Keir Hardie Estate Or Prince Regent"},{"icsId":"1012011","id":"490012011S","lat":51.52721,"lon":0.02417,"name":"Sewell Street","parentId":"490G00012011","stationId":"490G00012011","stopLetter":"AA","topMostParentId":"490G00012011","towards":"Keir Hardie Estate Or Prince Regent"},{"icsId":"1009149","id":"490009149S","lat":51.52472,"lon":0.02366,"name":"Liddon Road","parentId":"490G00009149","stationId":"490G00009149","stopLetter":"AB","topMostParentId":"490G00009149","towards":"Keir Hardie Estate Or Prince Regent"},{"icsId":"1003549","id":"490003549S","lat":51.52275,"lon":0.02258,"name":"Barking Road","parentId":"490G00003549","stationId":"490G00003549","stopLetter":"AC","topMostParentId":"490G00003549","towards":"Keir Hardie Estate Or Prince Regent"},{"icsId":"1006040","id":"490006040S","lat":51.51958,"lon":0.0243,"name":"Denmark Street","parentId":"490G00006040","stationId":"490G00006040","stopLetter":"->S","topMostParentId":"490G00006040","towards":"Beckton Or Prince Regent"},{"icsId":"1010219","id":"490010219S","lat":51.51794,"lon":0.02365,"name":"Newham Way","parentId":"490G00010219","stationId":"490G00010219","stopLetter":"->S","topMostParentId":"490G00010219","towards":"Beckton Or Prince Regent"},{"icsId":"1000361","id":"490011814S","lat":51.51488,"lon":0.02547,"name":"Canning Town Recreation Ground","parentId":"490G000012","stationId":"490G000012","stopLetter":"->S","topMostParentId":"490G000012","towards":"Keir Hardie Estate Or Prince Regent"},{"icsId":"1010212","id":"490010212S","lat":51.51181,"lon":0.02535,"name":"Vandome Close","parentId":"490G00010212","stationId":"490G00010212","stopLetter":"->S","topMostParentId":"490G00010212","towards":"Keir Hardie Estate Or Prince Regent"},{"icsId":"1009092","id":"490009092E","lat":51.51022,"lon":0.02614,"name":"Leslie Road / Custom House Station","parentId":"490G00009092","stationId":"490G00009092","stopLetter":"E","topMostParentId":"490G00009092","towards":"Keir Hardie Estate Or Prince Regent"},{"icsId":"1002264","id":"490001079B","lat":51.51001,"lon":0.02825,"name":"Chauntler Close / Cundy Park","stopLetter":"B","topMostParentId":"490001079B","towards":"North Woolwich, Beckton Or Plaistow"},{"icsId":"1011204","id":"490011204R","lat":51.50945,"lon":0.03516,"name":"Prince Regent Bus Station","parentId":"490G000712","stationId":"490G000712","stopLetter":"R","topMostParentId":"490G000712","towards":" North Woolwich"},{"icsId":"1012577","id":"490012577E","lat":51.50938,"lon":0.04927,"name":"Strait Road / Stansfeld Road","parentId":"490G000761","stationId":"490G000761","stopLetter":"->E","topMostParentId":"490G000761","towards":"Winsor Park Estate"},{"icsId":"1002012","id":"490002012Z","lat":51.50922,"lon":0.05409,"name":"Beckton Park Station","stopLetter":"Z","topMostParentId":"490002012Z","towards":"Winsor Park Estate","zone":"3"},{"icsId":"1004730","id":"490004730V","lat":51.50908,"lon":0.05783,"name":"Campion Close","parentId":"490G00004730","stationId":"490G00004730","stopLetter":"Y","topMostParentId":"490G00004730","towards":"Winsor Park Estate"},{"icsId":"1011520","id":"490011520E","lat":51.50904,"lon":0.06007,"name":"Renfrew Close","parentId":"490G00011520","stationId":"490G00011520","stopLetter":"V","topMostParentId":"490G00011520","towards":"Beckton Bus Station"},{"icsId":"1012896","id":"490006361S","lat":51.50898,"lon":0.06109,"name":"Strait Road / East Ham Manor Way","parentId":"490G000772","stationId":"490G000772","stopLetter":"S","topMostParentId":"490G000772","towards":"Beckton Bus Station"},{"icsId":"1002028","id":"490002028M","lat":51.50911,"lon":0.06541,"name":"Cyprus Station","stopLetter":"M","topMostParentId":"490002028M","towards":"Gallions Reach Or North Woolwich","zone":"3"},{"icsId":"1006810","id":"490006804N2","lat":51.50926,"lon":0.067,"name":"Ferndale Street","parentId":"490G00006810","stationId":"490G00006810","stopLetter":"X","topMostParentId":"490G00006810","towards":"Gallions Reach Or North Woolwich"},{"icsId":"1008378","id":"490008378W","lat":51.51185,"lon":0.06657,"name":"Horse Leaze","parentId":"490G00008378","stationId":"490G00008378","stopLetter":"F","topMostParentId":"490G00008378","towards":"Newham University Hospital"},{"icsId":"1006389","id":"490006389W","lat":51.5121,"lon":0.06337,"name":"East Ham Manor Way","parentId":"490G00006389","stationId":"490G00006389","stopLetter":"J","topMostParentId":"490G00006389","towards":"Newham University Hospital"},{"icsId":"1006317","id":"490006317A","lat":51.51407,"lon":0.0597,"name":"Beckton Bus Station","parentId":"490G000496","stationId":"490G000496","stopLetter":"A","topMostParentId":"490G000496","towards":"Stratford"}]}]}