{"direction":"outbound","lineId":"679","lineName":"679","mode":"bus","stopPointSequences":[{"stopPoint":[{"icsId":"1003575","id":"490003575E","lat":51.61881,"lon":0.0261,"name":"Bancroft's School","parentId":"490G00003575","stationId":"490G00003575","stopLetter":"FC","topMostParentId":"490G00003575","towards":"Debden Or South Woodford"},{"icsId":"1015121","id":"490015121S","lat":51.61583,"lon":0.02572,"name":"St Thomas of Canterbury Church","parentId":"490G00015121","stationId":"490G00015121","stopLetter":"FS","topMostParentId":"490G00015121","towards":"South Woodford Or Whipps Cross"},{"icsId":"1009973","id":"490009973S","lat":51.61229,"lon":0.02374,"name":"Monkhams Lane","parentId":"490G00009973","stationId":"490G00009973","stopLetter":"A","topMostParentId":"490G00009973","towards":"South Woodford Or Whipps Cross"},{"icsId":"1014847","id":"490014847S","lat":51.60918,"lon":0.02142,"name":"Woodford Green / Broadmead Road","parentId":"490G000842","stationId":"490G000842","stopLetter":"B","topMostParentId":"490G000842","towards":"South Woodford Or Whipps Cross"},{"icsId":"1005177","id":"490005177S","lat":51.60704,"lon":0.0199,"name":"Chingford Lane","parentId":"490G00005177","stationId":"490G00005177","stopLetter":"C","topMostParentId":"490G00005177","towards":"South Woodford Or Whipps Cross"},{"icsId":"1012623","id":"490012623S","lat":51.60259,"lon":0.01573,"name":"St Aubyn's School","parentId":"490G00012623","stationId":"490G00012623","stopLetter":"E","topMostParentId":"490G00012623","towards":"Whipps Cross"},{"icsId":"1005061","id":"490005061S","lat":51.59951,"lon":0.01305,"name":"Chelmsford Road","parentId":"490G00005061","stationId":"490G00005061","stopLetter":"F","topMostParentId":"490G00005061","towards":"Whipps Cross"},{"icsId":"1014288","id":"490014288S","lat":51.59678,"lon":0.01153,"name":"Waterworks Corner","parentId":"490G00014288","stationId":"490G00014288","stopLetter":"G","topMostParentId":"490G00014288","towards":"Bakers Arms"},{"icsId":"1014288","id":"490015469E","lat":51.59554,"lon":0.01308,"name":"Waterworks Corner","parentId":"490G00014288","stationId":"490G00014288","stopLetter":"P","topMostParentId":"490G00014288","towards":"Gants Hill"},{"icsId":"1007137","id":"490007137Q","lat":51.59602,"lon":0.02107,"name":"High Road South Woodford","parentId":"490G00007137","stationId":"490G00007137","stopLetter":"Q","topMostParentId":"490G00007137","towards":"Gants Hill"},{"icsId":"1010116","id":"490010116E","lat":51.59572,"lon":0.03151,"name":"Maybank Road","parentId":"490G00010116","stationId":"490G00010116","stopLetter":"G","topMostParentId":"490G00010116","towards":"Gants Hill"},{"icsId":"1005002","id":"490005002E","lat":51.59462,"lon":0.03492,"name":"Charlie Browns Roundabout","parentId":"490G00005002","stationId":"490G00005002","stopLetter":"H","topMostParentId":"490G00005002","towards":"Gants Hill"},{"icsId":"1005158","id":"490005157E","lat":51.59333,"lon":0.03957,"name":"Lechmere Approach","parentId":"490G00005158","stationId":"490G00005158","stopLetter":"E","topMostParentId":"490G00005158","towards":"Gants Hill"},{"icsId":"1010418","id":"490010418E","lat":51.59247,"lon":0.04293,"name":"Northview Drive","parentId":"490G00010418","stationId":"490G00010418","stopLetter":"F","topMostParentId":"490G00010418","towards":"Gants Hill"},{"icsId":"1011628","id":"490011628E","lat":51.591,"lon":0.04729,"name":"Woodford / Roding Lane North","parentId":"490G00011628","stationId":"490G00011628","stopLetter":"WA","topMostParentId":"490G00011628","towards":"Gants Hill"},{"icsId":"1005368","id":"490005368S1","lat":51.58953,"lon":0.05006,"name":"Claybury Broadway","parentId":"490G00005368","stationId":"490G00005368","stopLetter":"WB","topMostParentId":"490G00005368","towards":"Gants Hill"},{"icsId":"1019961","id":"490014846E","lat":51.58421,"lon":0.05589,"name":"Lord Avenue","parentId":"490G00019961","stationId":"490G00019961","stopLetter":"WD","topMostParentId":"490G00019961","towards":"Ilford"},{"icsId":"1007383","id":"490007380S","lat":51.58244,"lon":0.05745,"name":"Longwood Gardens","parentId":"490G00007383","stationId":"490G00007383","stopLetter":"WE","topMostParentId":"490G00007383","towards":"Ilford"},{"icsId":"1008200","id":"490008200S","lat":51.58081,"lon":0.06001,"name":"Highwood Gardens","parentId":"490G00008200","stationId":"490G00008200","stopLetter":"WH","topMostParentId":"490G00008200","towards":"Ilford"},{"icsId":"1007240","id":"490007240S","lat":51.57929,"lon":0.06292,"name":"Glenwood Gardens","parentId":"490G00007240","stationId":"490G00007240","stopLetter":"WP","topMostParentId":"490G00007240","towards":"Ilford"},{"icsId":"1015199","id":"490000085A","lat":51.57751,"lon":0.06569,"name":"Gants Hill Station / Woodford Avenue","parentId":"490G000876","stationId":"490G000876","stopLetter":"WQ","topMostParentId":"490G000876","towards":"Ilford"},{"icsId":"1015202","id":"490015202N","lat":51.57565,"lon":0.06636,"name":"Gants Hill Station / Cranbrook Road","parentId":"490G000878","stationId":"490G000878","stopLetter":"CH","topMostParentId":"490G000878","towards":"Ilford"},{"icsId":"1003828","id":"490003828S1","lat":51.57189,"lon":0.06444,"name":"Mornington Avenue","parentId":"490G00003828","stationId":"490G00003828","stopLetter":"CJ","topMostParentId":"490G00003828","towards":"Ilford"},{"icsId":"1003947","id":"490003947S","lat":51.56924,"lon":0.06461,"name":"Bethell Avenue","parentId":"490G00003947","stationId":"490G00003947","stopLetter":"VA","topMostParentId":"490G00003947","towards":"Ilford"},{"icsId":"1013988","id":"490013988S","lat":51.56704,"lon":0.06584,"name":"Valentines Park","parentId":"490G00013988","stationId":"490G00013988","stopLetter":"VB","topMostParentId":"490G00013988","towards":"Ilford"},{"icsId":"1013331","id":"490013331Z","lat":51.5643,"lon":0.06663,"name":"Northbrook Road","parentId":"490G00013331","stationId":"490G00013331","stopLetter":"VC","topMostParentId":"490G00013331","towards":"Ilford"},{"icsId":"1013311","id":"490013311OA","lat":51.56327,"lon":0.06756,"name":"Coventry Road","parentId":"490G00013311","stationId":"490G00013311","stopLetter":"VH","topMostParentId":"490G00013311","towards":"Barking, Becontree Or Goodmayes"},{"icsId":"1001157","id":"490001157K","lat":51.55943,"lon":0.07023,"name":"Ilford Station","stopLetter":"K","topMostParentId":"490001157K","towards":"Barking, Becontree Or Goodmayes"},{"icsId":"1003604","id":"490003604S","lat":51.55699,"lon":0.07059,"name":"Pioneer Point","parentId":"490G00003604","stationId":"490G00003604","stopLetter":"PP","topMostParentId":"490G00003604","towards":"Goodmayes Or Newbury Park"},{"icsId":"1008466","id":"490008466R","lat":51.55815,"lon":0.07435,"name":"Redbridge Central Library","parentId":"490G00008466","stationId":"490G00008466","stopLetter":"R","topMostParentId":"490G00008466","towards":"Barking, Goodmayes Or Newbury Park"},{"icsId":"1007657","id":"490007657T","lat":51.55988,"lon":0.07732,"name":"Hainault Street","parentId":"490G00007657","stationId":"490G00007657","stopLetter":"T","topMostParentId":"490G00007657","towards":"Barking, Becontree Or Goodmayes"},{"icsId":"1010809","id":"490010809E","lat":51.55906,"lon":0.08376,"name":"Park Road","parentId":"490G00010809","stationId":"490G00010809","stopLetter":"P","topMostParentId":"490G00010809","towards":"Becontree Or Goodmayes"},{"icsId":"1020081","id":"490020081E","lat":51.55905,"lon":0.0877,"name":"Buckingham Road","parentId":"490G00020081","stationId":"490G00020081","stopLetter":"R","topMostParentId":"490G00020081","towards":"Becontree Or Goodmayes"},{"icsId":"1012330","id":"490012330E","lat":51.55962,"lon":0.09299,"name":"South Park Drive","parentId":"490G00012330","stationId":"490G00012330","stopLetter":"A","topMostParentId":"490G00012330","towards":"Becontree Or Goodmayes"},{"icsId":"1012000","id":"490012000E","lat":51.56118,"lon":0.10001,"name":"Seven Kings Road","parentId":"490G00012000","stationId":"490G00012000","stopLetter":"B","topMostParentId":"490G00012000","towards":"Becontree Heath"},{"icsId":"1010464","id":"490010464E","lat":51.56222,"lon":0.10497,"name":"Nutfield Gardens","parentId":"490G00010464","stationId":"490G00010464","stopLetter":"T","topMostParentId":"490G00010464","towards":"Becontree Heath"},{"icsId":"1007291","id":"490007289G","lat":51.56297,"lon":0.10871,"name":"Goodmayes Lane","parentId":"490G00007291","stationId":"490G00007291","stopLetter":"G","topMostParentId":"490G00007291","towards":"Becontree Heath"}]}]}