{"direction":"outbound","lineId":"683","lineName":"683","mode":"bus","stopPointSequences":[{"stopPoint":[{"icsId":"1007030","id":"490007030W","lat":51.61252,"lon":-0.15921,"name":"Colney Hatch Lane","parentId":"490G00007030","stationId":"490G00007030","stopLetter":"FL","topMostParentId":"490G00007030","towards":"Finchley Or North Finchley"},{"icsId":"1012994","id":"490012994W","lat":51.61159,"lon":-0.16277,"name":"Summers Lane","parentId":"490G00012994","stationId":"490G00012994","stopLetter":"FP","topMostParentId":"490G00012994","towards":"North Finchley"},{"icsId":"1005749","id":"490005749W","lat":51.6114,"lon":-0.16555,"name":"Crescent Way","parentId":"490G00005749","stationId":"490G00005749","stopLetter":"FQ","topMostParentId":"490G00005749","towards":"North Finchley Or Mill Hill"},{"icsId":"1008250","id":"490008250W","lat":51.61111,"lon":-0.16799,"name":"Woodhouse College","parentId":"490G00008250","stationId":"490G00008250","stopLetter":"FR","topMostParentId":"490G00008250","towards":"North Finchley Or Mill Hill"},{"icsId":"1007581","id":"490007575W","lat":51.61186,"lon":-0.17264,"name":"Churchfield Avenue","parentId":"490G00007581","stationId":"490G00007581","stopLetter":"G","topMostParentId":"490G00007581","towards":"North Finchley Or Mill Hill East"},{"icsId":"1010369","id":"490010369H","lat":51.61232,"lon":-0.17499,"name":"North Finchley High Road","parentId":"490G00010369","stationId":"490G00010369","stopLetter":"H","topMostParentId":"490G00010369","towards":"Mill Hill"},{"icsId":"1019936","id":"490015443Z1","lat":51.6124,"lon":-0.1763,"name":"Kingsway / North Finchley","parentId":"490G00019936","stationId":"490G00019936","stopLetter":"T","topMostParentId":"490G00019936","towards":"Finchley Central"},{"icsId":"1015271","id":"490015271S","lat":51.60999,"lon":-0.18089,"name":"Christchurch Avenue","parentId":"490G00015271","stationId":"490G00015271","stopLetter":"Q","topMostParentId":"490G00015271","towards":"Golders Green Or Hendon"},{"icsId":"1007373","id":"490007373F4","lat":51.60903,"lon":-0.18221,"name":"Granville Road","parentId":"490G00007373","stationId":"490G00007373","stopLetter":"LL","topMostParentId":"490G00007373","towards":"Golders Green Or Hendon"},{"icsId":"1006642","id":"490006642S","lat":51.60678,"lon":-0.18572,"name":"Victoria Park","parentId":"490G000508","stationId":"490G000508","stopLetter":"MM","topMostParentId":"490G000508","towards":"Golders Green Or Hendon"},{"icsId":"1009322","id":"490009322B","lat":51.60414,"lon":-0.18947,"name":"Long Lane","parentId":"490G00009322","stationId":"490G00009322","stopLetter":"B","topMostParentId":"490G00009322","towards":"Golders Green, Hendon Or Mill Hill East"},{"icsId":"1000081","id":"490000081D","lat":51.60225,"lon":-0.19232,"name":"Finchley Central Station","stopLetter":"D","topMostParentId":"490000081D","towards":"Golders Green, Hendon Or Mill Hill East","zone":"4"},{"icsId":"1008054","id":"490008054H","lat":51.59946,"lon":-0.19585,"name":"Hendon Lane","parentId":"490G00008054","stationId":"490G00008054","stopLetter":"H","topMostParentId":"490G00008054","towards":"Golders Green Or Hendon"},{"icsId":"1006337","id":"490006337S","lat":51.59791,"lon":-0.19734,"name":"East End Road","parentId":"490G00006337","stationId":"490G00006337","stopLetter":"S","topMostParentId":"490G00006337","towards":"Golders Green Or Hendon"},{"icsId":"1007385","id":"490007385N","lat":51.59765,"lon":-0.19871,"name":"Gravel Hill","parentId":"490G00007385","stationId":"490G00007385","stopLetter":"L","topMostParentId":"490G00007385","towards":"Hendon"},{"icsId":"1012787","id":"490012787W","lat":51.59733,"lon":-0.20161,"name":"St Mary's Avenue","parentId":"490G00012787","stationId":"490G00012787","stopLetter":"M","topMostParentId":"490G00012787","towards":"Hendon"},{"icsId":"1003366","id":"490003366S","lat":51.59496,"lon":-0.20517,"name":"Arden Road","parentId":"490G00003366","stationId":"490G00003366","stopLetter":"N","topMostParentId":"490G00003366","towards":"Hendon"},{"icsId":"1005803","id":"490005803S","lat":51.59326,"lon":-0.20815,"name":"Crooked Usage","parentId":"490G00005803","stationId":"490G00005803","stopLetter":"->S","topMostParentId":"490G00005803","towards":"Hendon"},{"icsId":"1007422","id":"490007411W2","lat":51.592,"lon":-0.21022,"name":"Broughton Avenue","parentId":"490G00007422","stationId":"490G00007422","stopLetter":"->W","topMostParentId":"490G00007422","towards":"Hendon Central Or Brent Cross"},{"icsId":"1007411","id":"490007411W1","lat":51.59054,"lon":-0.21332,"name":"Great North Way","parentId":"490G00007411","stationId":"490G00007411","stopLetter":"->W","topMostParentId":"490G00007411","towards":"Colindale Or Hendon Central"},{"icsId":"1003218","id":"490003218W","lat":51.58979,"lon":-0.2164,"name":"Alexandra Road","parentId":"490G00003218","stationId":"490G00003218","stopLetter":"->W","topMostParentId":"490G00003218","towards":"Colindale Or Hendon Central"},{"icsId":"1013512","id":"490013512T","lat":51.58954,"lon":-0.22093,"name":"Hendon / the Quadrant","parentId":"490G00013512","stationId":"490G00013512","stopLetter":"T","topMostParentId":"490G00013512","towards":"Colindale Or Hendon Central"},{"icsId":"1005253","id":"490005253R","lat":51.58994,"lon":-0.22518,"name":"Church End","parentId":"490G00005253","stationId":"490G00005253","stopLetter":"R","topMostParentId":"490G00005253","towards":"Brent Cross, West Hendon Or Colindale"},{"icsId":"1008056","id":"490008056P","lat":51.58819,"lon":-0.22863,"name":"Hendon Town Hall","parentId":"490G00008056","stationId":"490G00008056","stopLetter":"P","topMostParentId":"490G00008056","towards":"Brent Cross Or West Hendon"},{"icsId":"1015519","id":"490015519N","lat":51.58654,"lon":-0.23009,"name":"Watford Way","parentId":"490G00015519","stationId":"490G00015519","stopLetter":"N","topMostParentId":"490G00015519","towards":"Brent Cross Or West Hendon"},{"icsId":"1005485","id":"490005485K","lat":51.58551,"lon":-0.23154,"name":"Edgeworth Avenue","parentId":"490G00005485","stationId":"490G00005485","stopLetter":"K","topMostParentId":"490G00005485","towards":"Kingsbury"},{"icsId":"1003476","id":"490003476S","lat":51.58312,"lon":-0.23368,"name":"Audley Road","parentId":"490G00003476","stationId":"490G00003476","topMostParentId":"490G00003476","towards":"Kingsbury"},{"icsId":"1001148","id":"490001148B","lat":51.57998,"lon":-0.23801,"name":"Hendon Station","stopLetter":"HE","topMostParentId":"490001148B","towards":"Kingsbury Green"},{"icsId":"1014561","id":"490014561D","lat":51.57925,"lon":-0.24161,"name":"West Hendon Broadway / Herbert Road","parentId":"490G00014561","stationId":"490G00014561","stopLetter":"HM","topMostParentId":"490G00014561","towards":"Colindale Or Kingsbury Green"},{"icsId":"1014471","id":"490014471N","lat":51.58199,"lon":-0.24535,"name":"Hendon Magistrates Court","parentId":"490G00014471","stationId":"490G00014471","stopLetter":"HP","topMostParentId":"490G00014471","towards":"Colindale Or Kingsbury Green"},{"icsId":"1014469","id":"490014469W","lat":51.5841,"lon":-0.24872,"name":"Edgware Road / the Hyde","parentId":"490G00014469","stationId":"490G00014469","stopLetter":"HS","topMostParentId":"490G00014469","towards":"Kenton Or Wembley"},{"icsId":"1012395","id":"490012395W","lat":51.58259,"lon":-0.253,"name":"Springfield Gardens","parentId":"490G00012395","stationId":"490G00012395","stopLetter":"E","topMostParentId":"490G00012395","towards":"Kenton Or Wembley"},{"icsId":"1013758","id":"490013758W","lat":51.58221,"lon":-0.25761,"name":"Townsend Lane","parentId":"490G00013758","stationId":"490G00013758","stopLetter":"F","topMostParentId":"490G00013758","towards":"Kenton Or Wembley"},{"icsId":"1005997","id":"490005271W","lat":51.58303,"lon":-0.26304,"name":"Kingsbury  / Pipers Green","parentId":"490G00005997","stationId":"490G00005997","stopLetter":"H","topMostParentId":"490G00005997","towards":"Burnt Oak Or Kingsbury"},{"icsId":"1001978","id":"490011635W","lat":51.58441,"lon":-0.26706,"name":"Slough Lane","parentId":"490G000302","stationId":"490G000302","stopLetter":"J","topMostParentId":"490G000302","towards":"Kenton, Wembley Or Queensbury"},{"icsId":"1013997","id":"490013997M","lat":51.58593,"lon":-0.27471,"name":"Valley Drive","parentId":"490G00013997","stationId":"490G00013997","stopLetter":"M","topMostParentId":"490G00013997","towards":"Kenton, Wembley Or Queensbury"},{"icsId":"1000128","id":"490000128B","lat":51.58484,"lon":-0.27935,"name":"Kingsbury Station","stopLetter":"B","topMostParentId":"490000128B","towards":"Kenton Or Wembley","zone":"4"},{"icsId":"1008760","id":"490008760S1","lat":51.58407,"lon":-0.28275,"name":"Kingsbury Circle / the Mall","parentId":"490G000623","stationId":"490G000623","stopLetter":"E","topMostParentId":"490G000623","towards":"Wembley"},{"icsId":"1015769","id":"490015769S","lat":51.58251,"lon":-0.2847,"name":"Lyndsey Park","parentId":"490G00015769","stationId":"490G00015769","stopLetter":"G","topMostParentId":"490G00015769","towards":"Wembley"},{"icsId":"1019179","id":"490015769","lat":51.58139,"lon":-0.28517,"name":"Jewish Free School","parentId":"490G00019179","stationId":"490G00019179","stopLetter":"->E","topMostParentId":"490G00019179"}]}]}