{"direction":"outbound","lineId":"684","lineName":"684","mode":"bus","stopPointSequences":[{"stopPoint":[{"icsId":"1001232","id":"490001220E","lat":51.37346,"lon":0.08957,"name":"Orpington Bus Station","parentId":"490G00001232","stationId":"490G00001232","stopLetter":"E","topMostParentId":"490G00001232"},{"icsId":"1013818","id":"490013818H","lat":51.37185,"lon":0.09134,"name":"Tubbenden Lane","parentId":"490G00013818","stationId":"490G00013818","stopLetter":"H","topMostParentId":"490G00013818","towards":"St Mary Cray, Chelsfield Or Chislehurst"},{"icsId":"1019892","id":"490015411S","lat":51.37428,"lon":0.09832,"name":"High Street / Orpington War Memorial","parentId":"490G00019892","stationId":"490G00019892","stopLetter":"S","topMostParentId":"490G00019892","towards":"Green Street Green, Locksbottom Or Petts Wood"},{"icsId":"1008209","id":"490008209M","lat":51.37151,"lon":0.0971,"name":"Hillcrest Road","parentId":"490G00008209","stationId":"490G00008209","stopLetter":"M","topMostParentId":"490G00008209","towards":"Chelsfield Or Green Street Green"},{"icsId":"1013749","id":"490013749S","lat":51.36795,"lon":0.09574,"name":"Sevenoaks Road / Tower Road","parentId":"490G00013749","stationId":"490G00013749","stopLetter":"D","topMostParentId":"490G00013749","towards":"Green Street Green"},{"icsId":"1012592","id":"490010639E","lat":51.36474,"lon":0.09334,"name":"Sevenoaks Road / Orpington Hospital","parentId":"490G00012592","stationId":"490G00012592","stopLetter":"E","topMostParentId":"490G00012592","towards":"Green Street Green"},{"icsId":"1010639","id":"490010639S1","lat":51.36291,"lon":0.09136,"name":"Sevenoaks Road / Cloonmore Avenue","parentId":"490G00010639","stationId":"490G00010639","stopLetter":"F","topMostParentId":"490G00010639","towards":"Downe, Farnborough Or Knockholt Pound"},{"icsId":"1005748","id":"490005748S","lat":51.36083,"lon":0.08918,"name":"Crescent Way","parentId":"490G00005748","stationId":"490G00005748","stopLetter":"G","topMostParentId":"490G00005748","towards":"Downe, Farnborough Or Knockholt Pound"},{"icsId":"1006755","id":"490006755EF","lat":51.35642,"lon":0.08916,"name":"Glentrammon Road","parentId":"490G00006755","stationId":"490G00006755","stopLetter":"E","topMostParentId":"490G00006755","towards":"Downe, Farnborough Or Knockholt Pound"},{"icsId":"1009841","id":"490009841OA","lat":51.35624,"lon":0.08836,"name":"Farnborough Hill / Bus Garage","parentId":"490G00009841","stationId":"490G00009841","stopLetter":"K","topMostParentId":"490G00009841","towards":"Downe Or Farnborough"},{"icsId":"1006759","id":"490006759W","lat":51.36168,"lon":0.07153,"name":"Farnborough Way","parentId":"490G00006759","stationId":"490G00006759","stopLetter":"T","topMostParentId":"490G00006759","towards":"Locksbottom"},{"icsId":"1008203","id":"490008203W","lat":51.36271,"lon":0.05843,"name":"Hilda Vale Road","parentId":"490G00008203","stationId":"490G00008203","stopLetter":"R","topMostParentId":"490G00008203","towards":"Bromley Common"},{"icsId":"1006758","id":"490006756W","lat":51.36557,"lon":0.05409,"name":"Farnborough Common / P R U Hospital","parentId":"490G000512","stationId":"490G000512","stopLetter":"PD","topMostParentId":"490G000512","towards":"Bromley Common"},{"icsId":"1008683","id":"490008683W","lat":51.36719,"lon":0.04635,"name":"Keston Park Close","parentId":"490G00008683","stationId":"490G00008683","stopLetter":"KS","topMostParentId":"490G00008683","towards":"Biggin Hill Or Hayes"},{"icsId":"1013438","id":"490013438W","lat":51.36718,"lon":0.04043,"name":"Croydon Road / the Keston Mark","parentId":"490G00013438","stationId":"490G00013438","stopLetter":"KT","topMostParentId":"490G00013438","towards":"Biggin Hill Or Hayes"},{"icsId":"1011800","id":"490011800S","lat":51.36513,"lon":0.03916,"name":"Rushley Close","parentId":"490G00011800","stationId":"490G00011800","stopLetter":"WD","topMostParentId":"490G00011800","towards":"Biggin Hill"},{"icsId":"1011651","id":"490011651S","lat":51.36257,"lon":0.03913,"name":"Rolinsden Way","parentId":"490G00011651","stationId":"490G00011651","stopLetter":"WE","topMostParentId":"490G00011651","towards":"Biggin Hill"},{"icsId":"1006863","id":"490006863S","lat":51.36031,"lon":0.03887,"name":"Fishponds Road","parentId":"490G00006863","stationId":"490G00006863","stopLetter":"WF","topMostParentId":"490G00006863","towards":"Biggin Hill"},{"icsId":"1008000","id":"490008000S","lat":51.35465,"lon":0.03387,"name":"Westerham Road / Heathfield Road","parentId":"490G00008000","stationId":"490G00008000","stopLetter":"WH","topMostParentId":"490G00008000","towards":"Biggin Hill"},{"icsId":"1006165","id":"490006165S","lat":51.34646,"lon":0.03581,"name":"Keston Church","parentId":"490G00006165","stationId":"490G00006165","stopLetter":"WJ","topMostParentId":"490G00006165","towards":"Biggin Hill"},{"icsId":"1004073","id":"490004073S","lat":51.34343,"lon":0.03218,"name":"Blackness Lane","parentId":"490G00004073","stationId":"490G00004073","stopLetter":"->S","topMostParentId":"490G00004073","towards":"Biggin Hill Valley Or Westerham"},{"icsId":"1009051","id":"490009051S","lat":51.33964,"lon":0.03072,"name":"Leaves Green / Ashmore Lane","parentId":"490G00009051","stationId":"490G00009051","stopLetter":"J","topMostParentId":"490G00009051","towards":"Biggin Hill Valley Or Westerham"},{"icsId":"1009878","id":"490009878S","lat":51.33625,"lon":0.03032,"name":"Leaves Green / the Kings Arms","parentId":"490G00009878","stationId":"490G00009878","stopLetter":"K","topMostParentId":"490G00009878","towards":"Biggin Hill Valley Or Westerham"},{"icsId":"1003993","id":"490003993S","lat":51.33238,"lon":0.02751,"name":"Biggin Hill Airport / Passenger Terminal","parentId":"490G00003993","stationId":"490G00003993","stopLetter":"L","topMostParentId":"490G00003993","towards":"Biggin Hill Valley Or Westerham"},{"icsId":"1007746","id":"490007746S","lat":51.32909,"lon":0.02471,"name":"Hanbury Drive","parentId":"490G00007746","stationId":"490G00007746","stopLetter":"M","topMostParentId":"490G00007746","towards":"Biggin Hill Valley Or Westerham"},{"icsId":"1002120","id":"490002120Z","lat":51.32801,"lon":0.02304,"name":"Biggin Hill Memorial Museum","parentId":"490G000342","stationId":"490G000342","stopLetter":"->S","topMostParentId":"490G000342","towards":"Biggin Hill Valley Or Westerham"},{"icsId":"1011874","id":"490011874S","lat":51.32537,"lon":0.02384,"name":"Main Road / Saltbox Hill","parentId":"490G00011874","stationId":"490G00011874","stopLetter":"N","topMostParentId":"490G00011874","towards":"Biggin Hill Valley Or Westerham"},{"icsId":"1013017","id":"490013017S","lat":51.32204,"lon":0.02773,"name":"Main Road / Sunningvale Avenue","parentId":"490G00013017","stationId":"490G00013017","stopLetter":"P","topMostParentId":"490G00013017","towards":"Biggin Hill Valley Or Westerham"},{"icsId":"1008534","id":"490008534E","lat":51.31713,"lon":0.03539,"name":"Hawthorne Avenue","parentId":"490G00008534","stationId":"490G00008534","stopLetter":"->E","topMostParentId":"490G00008534"},{"icsId":"1020153","id":"490020153E","lat":51.3163,"lon":0.03999,"name":"Jail Lane","parentId":"490G00020153","stationId":"490G00020153","stopLetter":"->E","topMostParentId":"490G00020153"},{"icsId":"1004995","id":"490004995E","lat":51.31571,"lon":0.04451,"name":"Charles Darwin School","parentId":"490G00004995","stationId":"490G00004995","stopLetter":"->E","topMostParentId":"490G00004995","towards":"Keston"}]}]}