{"direction":"outbound","lineId":"690","lineName":"690","mode":"bus","stopPointSequences":[{"stopPoint":[{"icsId":"1012754","id":"490012754N","lat":51.43015,"lon":-0.10441,"name":"St Julian's Farm Road","parentId":"490G00012754","stationId":"490G00012754","stopLetter":"Y","topMostParentId":"490G00012754","towards":"Brixton, Herne Hill Or Streatham"},{"icsId":"1001331","id":"490001331W","lat":51.43236,"lon":-0.10398,"name":"West Norwood Station","stopLetter":"W","topMostParentId":"490001331W","towards":"Brixton, Herne Hill Or Streatham"},{"icsId":"1013670","id":"490013655N","lat":51.43408,"lon":-0.10385,"name":"Norwood Road / Robson Road","parentId":"490G00013670","stationId":"490G00013670","stopLetter":"N","topMostParentId":"490G00013670","towards":"Brixton Or Streatham"},{"icsId":"1008927","id":"490008927K","lat":51.43677,"lon":-0.10509,"name":"Lancaster Avenue","parentId":"490G00008927","stationId":"490G00008927","stopLetter":"K","topMostParentId":"490G00008927","towards":"Brixton"},{"icsId":"1001298","id":"490001298E","lat":51.44027,"lon":-0.10758,"name":"Tulse Hill Station","stopLetter":"E","topMostParentId":"490001298E","towards":"Brixton Or Streatham"},{"icsId":"1013656","id":"490013656B","lat":51.44212,"lon":-0.10579,"name":"Thurlow Park Road","parentId":"490G00013656","stationId":"490G00013656","stopLetter":"B","topMostParentId":"490G00013656","towards":"Brixton Or Denmark Hill"},{"icsId":"1006058","id":"490006058N","lat":51.44448,"lon":-0.10503,"name":"Deronda Road","parentId":"490G00006058","stationId":"490G00006058","stopLetter":"->N","topMostParentId":"490G00006058","towards":"Brixton Or Denmark Hill"},{"icsId":"1004404","id":"490004404N","lat":51.44657,"lon":-0.1049,"name":"Brockwell Park Gardens","parentId":"490G00004404","stationId":"490G00004404","stopLetter":"Q","topMostParentId":"490G00004404","towards":"Brixton Or Camberwell"},{"icsId":"1011701","id":"490011701N","lat":51.44909,"lon":-0.10177,"name":"Rosendale Road","parentId":"490G00011701","stationId":"490G00011701","stopLetter":"A","topMostParentId":"490G00011701","towards":"Brixton Or Denmark Hill"},{"icsId":"1004403","id":"490004403N","lat":51.45154,"lon":-0.10124,"name":"Brockwell Park","parentId":"490G000428","stationId":"490G000428","stopLetter":"H","topMostParentId":"490G000428","towards":"Brixton Or Camberwell"},{"icsId":"1001149","id":"490001149L","lat":51.45245,"lon":-0.10291,"name":"Herne Hill Station","stopLetter":"L","topMostParentId":"490001149L","towards":"Brixton"},{"icsId":"1004402","id":"490004402W","lat":51.4537,"lon":-0.10679,"name":"Brockwell Lido","parentId":"490G00004402","stationId":"490G00004402","stopLetter":"S","topMostParentId":"490G00004402","towards":"Clapham Common, Kennington Or Stockwell"},{"icsId":"1005054","id":"490005054N","lat":51.45527,"lon":-0.11027,"name":"Chaucer Road / Effra Parade","parentId":"490G00005054","stationId":"490G00005054","stopLetter":"T","topMostParentId":"490G00005054","towards":"Clapham Common, Kennington Or Stockwell"},{"icsId":"1015275","id":"490015275W","lat":51.45518,"lon":-0.11257,"name":"Brixton Water Lane","parentId":"490G00015275","stationId":"490G00015275","stopLetter":"V","topMostParentId":"490G00015275","towards":"Clapham Common, Kennington Or Stockwell"},{"icsId":"1005847","id":"490005847N","lat":51.45661,"lon":-0.1144,"name":"Morval Road","parentId":"490G00005847","stationId":"490G00005847","stopLetter":"N","topMostParentId":"490G00005847","towards":"Clapham Common, Kennington Or Stockwell"},{"icsId":"1012810","id":"490012810N","lat":51.45835,"lon":-0.11508,"name":"St Matthews Estate","parentId":"490G00012810","stationId":"490G00012810","stopLetter":"P","topMostParentId":"490G00012810","towards":"Clapham Common, Kennington Or Stockwell"},{"icsId":"1008919","id":"490008919W","lat":51.46033,"lon":-0.11664,"name":"Lambeth Town Hall","parentId":"490G000627","stationId":"490G000627","stopLetter":"W","topMostParentId":"490G000627","towards":"Stockwell"},{"icsId":"1008919","id":"490008919V","lat":51.46088,"lon":-0.11696,"name":"Lambeth Town Hall","parentId":"490G000627","stationId":"490G000627","stopLetter":"V","topMostParentId":"490G000627","towards":"Clapham Common Or Clapham North"},{"icsId":"1003071","id":"490003071W","lat":51.46,"lon":-0.12024,"name":"Belvedere Place","parentId":"490G00003071","stationId":"490G00003071","stopLetter":"B","topMostParentId":"490G00003071","towards":"Clapham Common Or Clapham North"},{"icsId":"1012222","id":"490012222W","lat":51.45952,"lon":-0.12459,"name":"Solon Road","parentId":"490G00012222","stationId":"490G00012222","stopLetter":"C","topMostParentId":"490G00012222","towards":"Clapham Common Or Clapham North"},{"icsId":"1003796","id":"490003796D","lat":51.45965,"lon":-0.12974,"name":"Bedford Road","parentId":"490G00003796","stationId":"490G00003796","stopLetter":"D","topMostParentId":"490G00003796","towards":"Battersea Park Or Clapham Junction"},{"icsId":"1010776","id":"490010776W","lat":51.45959,"lon":-0.13397,"name":"Park Hill","parentId":"490G00010776","stationId":"490G00010776","stopLetter":"F","topMostParentId":"490G00010776","towards":"Battersea Park Or Clapham Junction"},{"icsId":"1000050","id":"490015235R","lat":51.46064,"lon":-0.13954,"name":"Clapham Common Station","stopLetter":"Z","topMostParentId":"490015235R","towards":"Balham","zone":"2"},{"icsId":"1006520","id":"490006520S","lat":51.45659,"lon":-0.14385,"name":"Elms Road / Windmill on the Common","parentId":"490G00006520","stationId":"490G00006520","stopLetter":"J","topMostParentId":"490G00006520","towards":"Balham Or Streatham Hill"},{"icsId":"1009474","id":"490009474SE","lat":51.45443,"lon":-0.14593,"name":"Lynette Avenue","parentId":"490G00009474","stationId":"490G00009474","stopLetter":"SE","topMostParentId":"490G00009474","towards":"Balham Or Streatham Hill"},{"icsId":"1000052","id":"490000052SA","lat":51.45286,"lon":-0.15029,"name":"Clapham South Station","stopLetter":"SA","topMostParentId":"490000052SA","towards":"Wandsworth Common","zone":"2+3"},{"icsId":"1004225","id":"490004225W","lat":51.45134,"lon":-0.1539,"name":"Bracken Avenue","parentId":"490G00004225","stationId":"490G00004225","stopLetter":"ST","topMostParentId":"490G00004225","towards":"Wandsworth Common"},{"icsId":"1011411","id":"490011411W","lat":51.45049,"lon":-0.15671,"name":"Ramsden Road","parentId":"490G00011411","stationId":"490G00011411","stopLetter":"->W","topMostParentId":"490G00011411","towards":"Tooting Broadway"},{"icsId":"1011792","id":"490011792W","lat":51.44952,"lon":-0.16029,"name":"Oak Lodge School","parentId":"490G00011792","stationId":"490G00011792","stopLetter":"->W","topMostParentId":"490G00011792","towards":"Tooting Broadway"},{"icsId":"1004132","id":"490004132W","lat":51.44862,"lon":-0.16268,"name":"Bolingbroke Grove","parentId":"490G00004132","stationId":"490G00004132","stopLetter":"L","topMostParentId":"490G00004132","towards":"Tooting Broadway"},{"icsId":"1001309","id":"490001309B","lat":51.44626,"lon":-0.16551,"name":"Wandsworth Common Station","stopLetter":"B","topMostParentId":"490001309B","towards":"Tooting Bec Or Tooting Broadway"},{"icsId":"1019727","id":"490013044E","lat":51.444,"lon":-0.16776,"name":"Bellevue Road / Trinity Road","parentId":"490G00019727","stationId":"490G00019727","stopLetter":"E","topMostParentId":"490G00019727","towards":"Tooting Bec Or Tooting Broadway"},{"icsId":"1009649","id":"490009649W","lat":51.44162,"lon":-0.17179,"name":"Marham Gardens","parentId":"490G00009649","stationId":"490G00009649","stopLetter":"F","topMostParentId":"490G00009649","towards":"Tooting Broadway"},{"icsId":"1013669","id":"490013669W","lat":51.44062,"lon":-0.17482,"name":"Tilehurst Road","parentId":"490G00013669","stationId":"490G00013669","stopLetter":"->W","topMostParentId":"490G00013669","towards":"Tooting Broadway"},{"icsId":"1010604","id":"490010604W","lat":51.43966,"lon":-0.17749,"name":"Openview","parentId":"490G00010604","stationId":"490G00010604","stopLetter":"->W","topMostParentId":"490G00010604","towards":"Tooting Broadway"},{"icsId":"1004622","id":"490004622W","lat":51.43818,"lon":-0.18053,"name":"Burntwood School","parentId":"490G00004622","stationId":"490G00004622","stopLetter":"SX","topMostParentId":"490G00004622","towards":"Tooting Broadway"}]}]}