{"direction":"outbound","lineId":"696","lineName":"696","mode":"bus","stopPointSequences":[{"stopPoint":[{"icsId":"1013465","id":"490013465E","lat":51.50308,"lon":-0.44171,"name":"Conway Drive","parentId":"490G00013465","stationId":"490G00013465","stopLetter":"->E","topMostParentId":"490G00013465","towards":"Hayes Town"},{"icsId":"1007206","id":"490007206S","lat":51.50148,"lon":-0.4414,"name":"Glamis Crescent","parentId":"490G00007206","stationId":"490G00007206","stopLetter":"->S","topMostParentId":"490G00007206","towards":"Hayes Town"},{"icsId":"1011015","id":"490011015S","lat":51.50011,"lon":-0.44156,"name":"Pinkwell Park","parentId":"490G00011015","stationId":"490G00011015","stopLetter":"->S","topMostParentId":"490G00011015","towards":"Hayes Town"},{"icsId":"1011012","id":"490011012E","lat":51.49903,"lon":-0.44078,"name":"Pinkwell Infant School","parentId":"490G00011012","stationId":"490G00011012","stopLetter":"->E","topMostParentId":"490G00011012","towards":"Hayes Town"},{"icsId":"1011013","id":"490011013E","lat":51.49848,"lon":-0.43872,"name":"Pinkwell Junior School","parentId":"490G00011013","stationId":"490G00011013","stopLetter":"->E","topMostParentId":"490G00011013","towards":"Hayes Town"},{"icsId":"1011709","id":"490011709N","lat":51.49908,"lon":-0.43546,"name":"Ross Close","parentId":"490G00011709","stationId":"490G00011709","stopLetter":"->N","topMostParentId":"490G00011709","towards":"Hayes Town"},{"icsId":"1014153","id":"490014153N","lat":51.50207,"lon":-0.43518,"name":"Waltham Avenue","parentId":"490G00014153","stationId":"490G00014153","stopLetter":"->N","topMostParentId":"490G00014153","towards":"Hayes Town"},{"icsId":"1004200","id":"490004200E","lat":51.50246,"lon":-0.43141,"name":"Guinness Close","parentId":"490G00004200","stationId":"490G00004200","stopLetter":"->N","topMostParentId":"490G00004200","towards":"Hayes Town"},{"icsId":"1012608","id":"490011489S2","lat":51.49842,"lon":-0.42966,"name":"Pinkwell Avenue","parentId":"490G00012608","stationId":"490G00012608","stopLetter":"->S","topMostParentId":"490G00012608","towards":"Hayes Town"},{"icsId":"1005989","id":"490005989E","lat":51.49724,"lon":-0.42907,"name":"Clement Gardens","parentId":"490G00005989","stationId":"490G00005989","stopLetter":"X","topMostParentId":"490G00005989","towards":"Hayes Town"},{"icsId":"1011489","id":"490011489N","lat":51.49909,"lon":-0.42571,"name":"Redmead Road","parentId":"490G00011489","stationId":"490G00011489","stopLetter":"U","topMostParentId":"490G00011489","towards":"Hayes Town"},{"icsId":"1020310","id":"490020310N","lat":51.50041,"lon":-0.42478,"name":"Millington Road","parentId":"490G00020310","stationId":"490G00020310","stopLetter":"P","topMostParentId":"490G00020310","towards":"Hayes Town Or Yeading"},{"icsId":"1006702","id":"490006702N","lat":51.5019,"lon":-0.42335,"name":"Fairey Corner","parentId":"490G00006702","stationId":"490G00006702","stopLetter":"K","topMostParentId":"490G00006702","towards":"Hillingdon Hospital, Hayes End Or Yeading"},{"icsId":"1001144","id":"490001144N","lat":51.50333,"lon":-0.42076,"name":"Hayes & Harlington Station","stopLetter":"L","topMostParentId":"490001144N","towards":"Hillingdon Hospital, Hayes End Or Yeading"},{"icsId":"1007942","id":"490007942K","lat":51.50441,"lon":-0.41983,"name":"Clayton Road","parentId":"490G000581","stationId":"490G000581","stopLetter":"M","topMostParentId":"490G000581","towards":"Hillingdon Hospital, Hayes End Or Yeading"},{"icsId":"1000828","id":"490000828Z","lat":51.50681,"lon":-0.41909,"name":"Hayes Town Centre","parentId":"490G000162","stationId":"490G000162","stopLetter":"P","topMostParentId":"490G000162","towards":"Hayes End, Yeading Or Hillingdon Hospital"},{"icsId":"1006701","id":"490010095C","lat":51.509,"lon":-0.41568,"name":"Fairdale Gardens","parentId":"490G00006701","stationId":"490G00006701","stopLetter":"Y","topMostParentId":"490G00006701","towards":"Greenford Or Yeading"},{"icsId":"1006384","id":"490006384N","lat":51.51076,"lon":-0.4138,"name":"East Way","parentId":"490G00006384","stationId":"490G00006384","stopLetter":"W","topMostParentId":"490G00006384","towards":"Greenford Or Yeading"},{"icsId":"1003512","id":"490003512N","lat":51.51198,"lon":-0.41272,"name":"Avondale Drive","parentId":"490G00003512","stationId":"490G00003512","stopLetter":"V","topMostParentId":"490G00003512","towards":"Greenford Or Yeading"},{"icsId":"1011170","id":"490011170N","lat":51.51455,"lon":-0.41037,"name":"Precinct Road","parentId":"490G00011170","stationId":"490G00011170","stopLetter":"U","topMostParentId":"490G00011170","towards":"Greenford Or Yeading"},{"icsId":"1008109","id":"490008109T","lat":51.51642,"lon":-0.40888,"name":"Hesa Road","parentId":"490G00008109","stationId":"490G00008109","stopLetter":"T","topMostParentId":"490G00008109","towards":"Greenford Or Yeading"},{"icsId":"1004920","id":"490004920O","lat":51.51863,"lon":-0.41088,"name":"Central Avenue","parentId":"490G00004920","stationId":"490G00004920","stopLetter":"O","topMostParentId":"490G00004920","towards":"Uxbridge Or Yeading"},{"icsId":"1003873","id":"490003873M","lat":51.51973,"lon":-0.41398,"name":"Belmore Parade","parentId":"490G00003873","stationId":"490G00003873","stopLetter":"M","topMostParentId":"490G00003873","towards":"Uxbridge Or Yeading"},{"icsId":"1005294","id":"490005294K","lat":51.52054,"lon":-0.41622,"name":"Church Road","parentId":"490G00005294","stationId":"490G00005294","stopLetter":"K","topMostParentId":"490G00005294","towards":"Uxbridge Or Yeading"},{"icsId":"1008962","id":"490015587E","lat":51.52216,"lon":-0.4202,"name":"Uxbridge County Court","parentId":"490G00008962","stationId":"490G00008962","stopLetter":"FF","topMostParentId":"490G00008962","towards":"Charville Lane Or Yeading"},{"icsId":"1013978","id":"490013978C","lat":51.5234,"lon":-0.42175,"name":"Whittington Avenue","parentId":"490G00013978","stationId":"490G00013978","stopLetter":"C","topMostParentId":"490G00013978","towards":"Charville Lane Or Yeading"},{"icsId":"1003572","id":"490003572N","lat":51.52711,"lon":-0.41844,"name":"Balmoral Drive","parentId":"490G00003572","stationId":"490G00003572","stopLetter":"->N","topMostParentId":"490G00003572","towards":"Charville Lane Or Northolt"},{"icsId":"1006715","id":"490006715N","lat":51.53005,"lon":-0.41767,"name":"Fairholme Crescent","parentId":"490G00006715","stationId":"490G00006715","stopLetter":"Q","topMostParentId":"490G00006715","towards":"Charville Lane Or Yeading"},{"icsId":"1008963","id":"490008963E","lat":51.53239,"lon":-0.41847,"name":"The Brook House","parentId":"490G00008963","stationId":"490G00008963","stopLetter":"G","topMostParentId":"490G00008963","towards":"Northolt"},{"icsId":"1016772","id":"490016772E","lat":51.53373,"lon":-0.41309,"name":"Kingshill Close","parentId":"490G00016772","stationId":"490G00016772","stopLetter":"H","topMostParentId":"490G00016772","towards":"Northolt"},{"icsId":"1013757","id":"490013757E","lat":51.53432,"lon":-0.40872,"name":"Townson Avenue","parentId":"490G00013757","stationId":"490G00013757","stopLetter":"J","topMostParentId":"490G00013757","towards":"Northolt"},{"icsId":"1007610","id":"490007610E","lat":51.53335,"lon":-0.40306,"name":"Gurney Road","parentId":"490G00007610","stationId":"490G00007610","stopLetter":"->E","topMostParentId":"490G00007610","towards":"Northolt Or Greenford"},{"icsId":"1008784","id":"490008784S","lat":51.53275,"lon":-0.39678,"name":"Kingshill Avenue","parentId":"490G00008784","stationId":"490G00008784","stopLetter":"J","topMostParentId":"490G00008784","towards":"Hayes"},{"icsId":"1003647","id":"490003647S","lat":51.52977,"lon":-0.39792,"name":"Barnhill Community High School","parentId":"490G00003647","stationId":"490G00003647","stopLetter":"G","topMostParentId":"490G00003647","towards":"Hayes Town"},{"icsId":"1014993","id":"490014993E","lat":51.52747,"lon":-0.39852,"name":"Reynolds Road","parentId":"490G00014993","stationId":"490G00014993","stopLetter":"D","topMostParentId":"490G00014993","towards":"Greenford"},{"icsId":"1013587","id":"490013587E","lat":51.52631,"lon":-0.3932,"name":"Homefield Close","parentId":"490G00013587","stationId":"490G00013587","stopLetter":"->E","topMostParentId":"490G00013587","towards":"Greenford"},{"icsId":"1010903","id":"490010903N","lat":51.5257,"lon":-0.39025,"name":"Pendula Drive","parentId":"490G00010903","stationId":"490G00010903","stopLetter":"->N","topMostParentId":"490G00010903","towards":"Greenford"},{"icsId":"1010712","id":"490010712N","lat":51.52814,"lon":-0.38892,"name":"Paddington Close","parentId":"490G00010712","stationId":"490G00010712","stopLetter":"->N","topMostParentId":"490G00010712","towards":"Greenford"},{"icsId":"1008754","id":"490008754E2","lat":51.52774,"lon":-0.38644,"name":"Kingsash Drive","parentId":"490G00008754","stationId":"490G00008754","stopLetter":"->E","topMostParentId":"490G00008754","towards":"Greenford"},{"icsId":"1003930","id":"490003930N","lat":51.52855,"lon":-0.38239,"name":"Berrydale Road","parentId":"490G00003930","stationId":"490G00003930","stopLetter":"->N","topMostParentId":"490G00003930","towards":"Greenford"},{"icsId":"1011996","id":"490011995N","lat":51.53047,"lon":-0.38003,"name":"Aspen Lane","parentId":"490G00011996","stationId":"490G00011996","stopLetter":"WA","topMostParentId":"490G00011996","towards":"Greenford"},{"icsId":"1004373","id":"490004373W","lat":51.53268,"lon":-0.37981,"name":"Broadmead Road","parentId":"490G00004373","stationId":"490G00004373","stopLetter":"WT","topMostParentId":"490G00004373","towards":"Northolt Or Ruislip"},{"icsId":"1008596","id":"490008596W","lat":51.53353,"lon":-0.3865,"name":"Wayfarer Road","parentId":"490G00008596","stationId":"490G00008596","stopLetter":"->W","topMostParentId":"490G00008596","towards":"Northolt Or Ruislip"},{"icsId":"1015551","id":"490015551W1","lat":51.53688,"lon":-0.39196,"name":"Yeading Lane","parentId":"490G00015551","stationId":"490G00015551","stopLetter":"S","topMostParentId":"490G00015551","towards":"Ruislip"},{"icsId":"1015409","id":"490010582N","lat":51.53946,"lon":-0.3968,"name":"Old Ruislip Road","parentId":"490G00015409","stationId":"490G00015409","stopLetter":"M","topMostParentId":"490G00015409","towards":"Ruislip"},{"icsId":"1007881","id":"490007881N","lat":51.54484,"lon":-0.39807,"name":"Harvey Road","parentId":"490G00007881","stationId":"490G00007881","stopLetter":"->N","topMostParentId":"490G00007881","towards":"Ruislip Gardens"},{"icsId":"1011084","id":"490011084N","lat":51.54974,"lon":-0.40045,"name":"Polish War Memorial","parentId":"490G00011084","stationId":"490G00011084","stopLetter":"E","topMostParentId":"490G00011084","towards":"Ruislip Station"},{"icsId":"1012614","id":"490012605D","lat":51.5534,"lon":-0.4037,"name":"Station Approach","parentId":"490G00012614","stationId":"490G00012614","stopLetter":"D","topMostParentId":"490G00012614","towards":"Ruislip Station"},{"icsId":"1011380","id":"490011380N","lat":51.55764,"lon":-0.40796,"name":"R A F Northolt","parentId":"490G00011380","stationId":"490G00011380","stopLetter":"G","topMostParentId":"490G00011380","towards":"Ruislip Station"},{"icsId":"1000198","id":"490000198B","lat":51.56051,"lon":-0.41134,"name":"Ruislip Gardens Station","stopLetter":"B","topMostParentId":"490000198B","towards":"Ruislip Station","zone":"5"},{"icsId":"1003920","id":"490003920N","lat":51.56331,"lon":-0.41428,"name":"Berkeley Close","parentId":"490G00003920","stationId":"490G00003920","stopLetter":"C","topMostParentId":"490G00003920","towards":"Ruislip Station"},{"icsId":"1010348","id":"490010348N","lat":51.5659,"lon":-0.41733,"name":"Northdown Close","parentId":"490G00010348","stationId":"490G00010348","stopLetter":"E","topMostParentId":"490G00010348","towards":"Ruislip Station"},{"icsId":"1007555","id":"490007555N","lat":51.56836,"lon":-0.42114,"name":"Grosvenor Vale","parentId":"490G00007555","stationId":"490G00007555","stopLetter":"->N","topMostParentId":"490G00007555","towards":"Ruislip Station"},{"icsId":"1011785","id":"490011785N","lat":51.56889,"lon":-0.42307,"name":"Ruislip Rugby Football Club","parentId":"490G00011785","stationId":"490G00011785","stopLetter":"K","topMostParentId":"490G00011785","towards":"Ruislip Station"},{"icsId":"1000199","id":"490000199C","lat":51.57456,"lon":-0.41407,"name":"Ruislip Manor Station","stopLetter":"C","topMostParentId":"490000199C","towards":"Eastcote","zone":"6"},{"icsId":"1014761","id":"490014761N","lat":51.57746,"lon":-0.41629,"name":"West Hatch Manor","parentId":"490G00014761","stationId":"490G00014761","stopLetter":"->N","topMostParentId":"490G00014761","towards":"Eastcote"},{"icsId":"1008164","id":"490008164E","lat":51.58012,"lon":-0.4097,"name":"Hume Way","parentId":"490G00008164","stationId":"490G00008164","stopLetter":"->E","topMostParentId":"490G00008164","towards":"Hayes"}]}]}