{"direction":"outbound","lineId":"698","lineName":"698","mode":"bus","stopPointSequences":[{"stopPoint":[{"icsId":"1001325","id":"490001325F","lat":51.5102,"lon":-0.47331,"name":"West Drayton Station","stopLetter":"F","topMostParentId":"490001325F","towards":"Harmondsworth, Sipson Or Stockley Park Estate"},{"icsId":"1006815","id":"490006815H","lat":51.50839,"lon":-0.47327,"name":"Ferrers Avenue","parentId":"490G00006815","stationId":"490G00006815","stopLetter":"H","topMostParentId":"490G00006815","towards":"Harmondsworth, Sipson Or Stockley Park Estate"},{"icsId":"1004259","id":"490004259J","lat":51.50733,"lon":-0.47148,"name":"Brandville Road","parentId":"490G00004259","stationId":"490G00004259","stopLetter":"J","topMostParentId":"490G00004259","towards":"Sipson, Stockley Park Or Terminal 5"},{"icsId":"1005291","id":"490005291S","lat":51.50478,"lon":-0.46832,"name":"Church Road","parentId":"490G00005291","stationId":"490G00005291","stopLetter":"->S","topMostParentId":"490G00005291","towards":"Sipson, Stockley Park Or Terminal 5"},{"icsId":"1014424","id":"490014424S","lat":51.50362,"lon":-0.46687,"name":"Porters Way","parentId":"490G00014424","stationId":"490G00014424","stopLetter":"->S","topMostParentId":"490G00014424","towards":"Bath Road Or Terminal 5"},{"icsId":"1009727","id":"490009727S","lat":51.49981,"lon":-0.46406,"name":"Maxwell Road","parentId":"490G00009727","stationId":"490G00009727","stopLetter":"->S","topMostParentId":"490G00009727","towards":"Bath Road"},{"icsId":"1005095","id":"490005095E","lat":51.49836,"lon":-0.45928,"name":"Cherry Lane School","parentId":"490G00005095","stationId":"490G00005095","stopLetter":"->E","topMostParentId":"490G00005095","towards":"Bath Road"},{"icsId":"1005094","id":"490005094E","lat":51.49608,"lon":-0.44461,"name":"Cherry Lane Cemetery","parentId":"490G00005094","stationId":"490G00005094","stopLetter":"->E","topMostParentId":"490G00005094","towards":"Hayes Town"},{"icsId":"1011885","id":"490011885N","lat":51.49612,"lon":-0.43085,"name":"Sam Philip Recreation Ground","parentId":"490G00011885","stationId":"490G00011885","stopLetter":"->N","topMostParentId":"490G00011885","towards":"Hayes Town"},{"icsId":"1005989","id":"490005989E","lat":51.49724,"lon":-0.42907,"name":"Clement Gardens","parentId":"490G00005989","stationId":"490G00005989","stopLetter":"X","topMostParentId":"490G00005989","towards":"Hayes Town"},{"icsId":"1011489","id":"490011489N","lat":51.49909,"lon":-0.42571,"name":"Redmead Road","parentId":"490G00011489","stationId":"490G00011489","stopLetter":"U","topMostParentId":"490G00011489","towards":"Hayes Town"},{"icsId":"1020310","id":"490020310N","lat":51.50041,"lon":-0.42478,"name":"Millington Road","parentId":"490G00020310","stationId":"490G00020310","stopLetter":"P","topMostParentId":"490G00020310","towards":"Hayes Town Or Yeading"},{"icsId":"1006702","id":"490006702N","lat":51.5019,"lon":-0.42335,"name":"Fairey Corner","parentId":"490G00006702","stationId":"490G00006702","stopLetter":"K","topMostParentId":"490G00006702","towards":"Hillingdon Hospital, Hayes End Or Yeading"},{"icsId":"1001144","id":"490001144N","lat":51.50333,"lon":-0.42076,"name":"Hayes & Harlington Station","stopLetter":"L","topMostParentId":"490001144N","towards":"Hillingdon Hospital, Hayes End Or Yeading"},{"icsId":"1007942","id":"490007942K","lat":51.50441,"lon":-0.41983,"name":"Clayton Road","parentId":"490G000581","stationId":"490G000581","stopLetter":"M","topMostParentId":"490G000581","towards":"Hillingdon Hospital, Hayes End Or Yeading"},{"icsId":"1000828","id":"490000828Z","lat":51.50681,"lon":-0.41909,"name":"Hayes Town Centre","parentId":"490G000162","stationId":"490G000162","stopLetter":"P","topMostParentId":"490G000162","towards":"Hayes End, Yeading Or Hillingdon Hospital"},{"icsId":"1004178","id":"490004178N","lat":51.51006,"lon":-0.42082,"name":"Botwell Lane","parentId":"490G00004178","stationId":"490G00004178","stopLetter":"N","topMostParentId":"490G00004178","towards":"Charville Lane Or Hayes End"},{"icsId":"1013751","id":"490013751N","lat":51.51264,"lon":-0.42015,"name":"Townfield Road","parentId":"490G00013751","stationId":"490G00013751","stopLetter":"M","topMostParentId":"490G00013751","towards":"Charville Lane Or Hayes End"},{"icsId":"1007009","id":"490007009N","lat":51.51597,"lon":-0.41989,"name":"Freemans Lane","parentId":"490G00007009","stationId":"490G00007009","stopLetter":"L","topMostParentId":"490G00007009","towards":"Charville Lane Or Hayes End"},{"icsId":"1005262","id":"490005262N","lat":51.51849,"lon":-0.41897,"name":"Church Green","parentId":"490G00005262","stationId":"490G00005262","stopLetter":"K","topMostParentId":"490G00005262","towards":"Charville Lane Or Hayes End"},{"icsId":"1013977","id":"490013977G","lat":51.52088,"lon":-0.41753,"name":"Church Road / Swift Close","parentId":"490G00013977","stationId":"490G00013977","stopLetter":"G","topMostParentId":"490G00013977","towards":"Charville Lane Or Hayes End"},{"icsId":"1008962","id":"490008962F","lat":51.5224,"lon":-0.42079,"name":"Uxbridge County Court","parentId":"490G00008962","stationId":"490G00008962","stopLetter":"F","topMostParentId":"490G00008962","towards":"Hillingdon Or Uxbridge"},{"icsId":"1011690","id":"490011690B","lat":51.52332,"lon":-0.4248,"name":"Rosedale Park","parentId":"490G00011690","stationId":"490G00011690","stopLetter":"B","topMostParentId":"490G00011690","towards":"Hillingdon Or Uxbridge"},{"icsId":"1010802","id":"490010802W","lat":51.52374,"lon":-0.427,"name":"Park Road","parentId":"490G00010802","stationId":"490G00010802","stopLetter":"XE","topMostParentId":"490G00010802","towards":"Hillingdon Or Uxbridge"},{"icsId":"1007946","id":"490015348W","lat":51.52472,"lon":-0.43184,"name":"Hayes End","parentId":"490G00007946","stationId":"490G00007946","stopLetter":"XF","topMostParentId":"490G00007946","towards":"Hillingdon Or Uxbridge"},{"icsId":"1010032","id":"490010032W","lat":51.52555,"lon":-0.43617,"name":"Morgans Lane","parentId":"490G00010032","stationId":"490G00010032","stopLetter":"XH","topMostParentId":"490G00010032","towards":"Hillingdon Or Uxbridge"},{"icsId":"1014426","id":"490014426W","lat":51.52688,"lon":-0.43973,"name":"West Drayton Road","parentId":"490G00014426","stationId":"490G00014426","stopLetter":"XJ","topMostParentId":"490G00014426","towards":"Hillingdon Or Uxbridge"},{"icsId":"1008013","id":"490008006W","lat":51.52822,"lon":-0.44353,"name":"New Road","parentId":"490G00008013","stationId":"490G00008013","stopLetter":"UH","topMostParentId":"490G00008013","towards":"Hillingdon Or Uxbridge"},{"icsId":"1009069","id":"490009069W","lat":51.53011,"lon":-0.44775,"name":"Hillingdon Heath / Lees Road","parentId":"490G00009069","stationId":"490G00009069","stopLetter":"UJ","topMostParentId":"490G00009069","towards":"Hillingdon Or Uxbridge"},{"icsId":"1008227","id":"490008227W","lat":51.53158,"lon":-0.45046,"name":"Hillingdon Primary School","parentId":"490G00008227","stationId":"490G00008227","stopLetter":"UK","topMostParentId":"490G00008227","towards":"Hillingdon Or Uxbridge"},{"icsId":"1013974","id":"490013974N","lat":51.53387,"lon":-0.45268,"name":"Crescent Parade","parentId":"490G00013974","stationId":"490G00013974","stopLetter":"US","topMostParentId":"490G00013974","towards":"Ickenham Or Uxbridge"},{"icsId":"1005422","id":"490005422N","lat":51.53872,"lon":-0.45226,"name":"Clifton Gardens","parentId":"490G00005422","stationId":"490G00005422","stopLetter":"UT","topMostParentId":"490G00005422","towards":"Ickenham Or Uxbridge"},{"icsId":"1010483","id":"490010483N","lat":51.54235,"lon":-0.45023,"name":"Oak Farm Library","parentId":"490G00010483","stationId":"490G00010483","stopLetter":"->N","topMostParentId":"490G00010483","towards":"Ickenham Or Uxbridge"},{"icsId":"1007540","id":"490007540N","lat":51.54603,"lon":-0.44981,"name":"Grosvenor Crescent","parentId":"490G00007540","stationId":"490G00007540","stopLetter":"->N","topMostParentId":"490G00007540","towards":"Ickenham Or Uxbridge"},{"icsId":"1000111","id":"490000111N","lat":51.55367,"lon":-0.44831,"name":"Hillingdon Station","stopLetter":"A","topMostParentId":"490000111N","towards":"Ickenham Or Uxbridge","zone":"6"},{"icsId":"1013089","id":"490013089N","lat":51.55674,"lon":-0.44727,"name":"Swakeleys Drive","parentId":"490G00013089","stationId":"490G00013089","stopLetter":"->N","topMostParentId":"490G00013089","towards":"Ickenham"},{"icsId":"1006136","id":"490006136N","lat":51.56092,"lon":-0.44612,"name":"Douay Martyrs School","parentId":"490G00006136","stationId":"490G00006136","stopLetter":"->N","topMostParentId":"490G00006136","towards":"Ruislip"},{"icsId":"1000120","id":"490000120D","lat":51.56291,"lon":-0.44451,"name":"Ickenham Station","stopLetter":"D","topMostParentId":"490000120D","towards":"Ruislip","zone":"6"}]}]}