{"direction":"outbound","lineId":"699","lineName":"699","mode":"bus","stopPointSequences":[{"stopPoint":[{"icsId":"1007438","id":"490007438S2","lat":51.63618,"lon":-0.09127,"name":"Green Dragon Lane","parentId":"490G00007438","stationId":"490G00007438","stopLetter":"T","topMostParentId":"490G00007438","towards":"Enfield Town or Southgate"},{"icsId":"1010575","id":"490010575S","lat":51.63889,"lon":-0.0947,"name":"Old Park Ridings","parentId":"490G00010575","stationId":"490G00010575","stopLetter":"X","topMostParentId":"490G00010575","towards":"Southgate"},{"icsId":"1007635","id":"490007635C","lat":51.64035,"lon":-0.09972,"name":"Hadley Way","parentId":"490G00007635","stationId":"490G00007635","stopLetter":"C","topMostParentId":"490G00007635","towards":"Southgate"},{"icsId":"1003702","id":"490003702W","lat":51.64175,"lon":-0.1037,"name":"Bazile Road","parentId":"490G00003702","stationId":"490G00003702","stopLetter":"->W","topMostParentId":"490G00003702","towards":"Southgate"},{"icsId":"1008170","id":"490008170W","lat":51.64319,"lon":-0.10836,"name":"Eversley Park Road","parentId":"490G00008170","stationId":"490G00008170","stopLetter":"->W","topMostParentId":"490G00008170","towards":"Enfield Town Or Southgate"},{"icsId":"1005042","id":"490005042S","lat":51.64291,"lon":-0.11092,"name":"Chaseville Park Road","parentId":"490G00005042","stationId":"490G00005042","stopLetter":"->S","topMostParentId":"490G00005042","towards":"Southgate"},{"icsId":"1006672","id":"490006672S","lat":51.64088,"lon":-0.11139,"name":"Eversley Mount","parentId":"490G00006672","stationId":"490G00006672","stopLetter":"->S","topMostParentId":"490G00006672","towards":"Whetstone"},{"icsId":"1005265","id":"490005265W","lat":51.63799,"lon":-0.11193,"name":"Church Hill","parentId":"490G00005265","stationId":"490G00005265","topMostParentId":"490G00005265","towards":"Whetstone"},{"icsId":"1010769","id":"490010769W","lat":51.63674,"lon":-0.11629,"name":"Park Gate","parentId":"490G00010769","stationId":"490G00010769","stopLetter":"->W","topMostParentId":"490G00010769","towards":"Whetstone"},{"icsId":"1011310","id":"490011310W","lat":51.63589,"lon":-0.11908,"name":"Queen Elizabeth's Drive","parentId":"490G00011310","stationId":"490G00011310","stopLetter":"P","topMostParentId":"490G00011310","towards":"Whetstone"},{"icsId":"1012955","id":"490012955W","lat":51.63414,"lon":-0.1231,"name":"St Thomas Road","parentId":"490G00012955","stationId":"490G00012955","stopLetter":"R","topMostParentId":"490G00012955","towards":"Whetstone"},{"icsId":"1000210","id":"490000210G","lat":51.63239,"lon":-0.12819,"name":"Southgate Station","stopLetter":"G","topMostParentId":"490000210G","towards":"Arnos Grove, Cockfosters Or Whetstone","zone":"4"},{"icsId":"1012300","id":"490012300M","lat":51.63332,"lon":-0.13146,"name":"Chase Side / Southgate High Street","parentId":"490G00012300","stationId":"490G00012300","stopLetter":"M","topMostParentId":"490G00012300","towards":"Arnos Grove, Cockfosters Or Whetstone"},{"icsId":"1012298","id":"490012298N","lat":51.6341,"lon":-0.13352,"name":"Southgate Asda","parentId":"490G00012298","stationId":"490G00012298","stopLetter":"N","topMostParentId":"490G00012298","towards":"Arnos Grove, Cockfosters Or Whetstone"},{"icsId":"1005040","id":"490005040N","lat":51.63618,"lon":-0.13771,"name":"Avenue Road","parentId":"490G00005040","stationId":"490G00005040","stopLetter":"S","topMostParentId":"490G00005040","towards":"Arnos Grove, Cockfosters Or Whetstone"},{"icsId":"1009972","id":"490009972N","lat":51.63804,"lon":-0.14063,"name":"Monkfrith Way","parentId":"490G00009972","stationId":"490G00009972","stopLetter":"T","topMostParentId":"490G00009972","towards":"Cockfosters"},{"icsId":"1004869","id":"490004869N","lat":51.64135,"lon":-0.14417,"name":"Green Road","parentId":"490G00004869","stationId":"490G00004869","stopLetter":"U","topMostParentId":"490G00004869","towards":"Cockfosters"},{"icsId":"1004243","id":"490004243N","lat":51.64453,"lon":-0.14623,"name":"Bramley Road","parentId":"490G00004243","stationId":"490G00004243","stopLetter":"K","topMostParentId":"490G00004243","towards":"Potters Bar"},{"icsId":"1013790","id":"490013790N","lat":51.64823,"lon":-0.1477,"name":"Freston Gardens","parentId":"490G00013790","stationId":"490G00013790","stopLetter":"C","topMostParentId":"490G00013790","towards":"Potters Bar"},{"icsId":"1000053","id":"490000053A","lat":51.65168,"lon":-0.1501,"name":"Cockfosters Station","stopLetter":"A","topMostParentId":"490000053A","towards":"Potters Bar","zone":"5"},{"icsId":"1013787","id":"490013787N","lat":51.65569,"lon":-0.1527,"name":"Trent Country Park","parentId":"490G00013787","stationId":"490G00013787","stopLetter":"->N","topMostParentId":"490G00013787","towards":"Potters Bar"},{"icsId":"1005572","id":"490005572N","lat":51.65971,"lon":-0.15403,"name":"Coombehurst Close","parentId":"490G00005572","stationId":"490G00005572","stopLetter":"->N","topMostParentId":"490G00005572","towards":"Potters Bar"},{"icsId":"1006868","id":"490006868N","lat":51.66232,"lon":-0.15485,"name":"Greenoak Place","parentId":"490G00006868","stationId":"490G00006868","stopLetter":"->N","topMostParentId":"490G00006868","towards":"Potters Bar"},{"icsId":"1003814","id":"490003814C","lat":51.66737,"lon":-0.15764,"name":"Beech Hill","parentId":"490G00003814","stationId":"490G00003814","stopLetter":"C","topMostParentId":"490G00003814","towards":"Potters Bar"},{"icsId":"1014115","id":"490014115N","lat":51.67188,"lon":-0.1611,"name":"Wagon Road","parentId":"490G00014115","stationId":"490G00014115","stopLetter":"->N","topMostParentId":"490G00014115","towards":"Potters Bar"},{"icsId":"1012200","id":"490012200N","lat":51.67426,"lon":-0.16232,"name":"Slopers Pond Farm","parentId":"490G00012200","stationId":"490G00012200","stopLetter":"->N","topMostParentId":"490G00012200","towards":"Potters Bar"},{"icsId":"1012470","id":"210021000480","lat":51.684688,"lon":-0.169649,"name":"Stagg Hill","parentId":"210G651","stationId":"210G651","topMostParentId":"210G651"},{"icsId":"1012301","id":"210021000500","lat":51.689204,"lon":-0.174443,"name":"Park Avenue","parentId":"210G674","stationId":"210G674","topMostParentId":"210G674"},{"icsId":"1011144","id":"210021000520","lat":51.691408,"lon":-0.177364,"name":"Highview Gardens","parentId":"210G677","stationId":"210G677","topMostParentId":"210G677"},{"icsId":"1011143","id":"210021000540","lat":51.692757,"lon":-0.182056,"name":"Potters Bar Tesco","topMostParentId":"210021000540"},{"icsId":"1010137","id":"210021000560","lat":51.694695,"lon":-0.192816,"name":"Darkes Lane","parentId":"210G696","stationId":"210G696","topMostParentId":"210G696"},{"icsId":"1008994","id":"210021000580","lat":51.697954,"lon":-0.198329,"name":"Laurel Avenue","parentId":"210G699","stationId":"210G699","topMostParentId":"210G699"},{"icsId":"1005946","id":"210021085060","lat":51.691322,"lon":-0.207447,"name":"Dame Alice Owen's School","topMostParentId":"210021085060"}]}]}