{"direction":"outbound","lineId":"71","lineName":"71","mode":"bus","stopPointSequences":[{"stopPoint":[{"icsId":"1005121","id":"490005121Z","lat":51.35014,"lon":-0.31392,"name":"Chessington World of Adventures","parentId":"490G00005121","stationId":"490G00005121","stopLetter":"Z","topMostParentId":"490G00005121","towards":"Hook"},{"icsId":"1003663","id":"490003663X","lat":51.35358,"lon":-0.31236,"name":"Barwell Business Park","parentId":"490G00003663","stationId":"490G00003663","stopLetter":"U","topMostParentId":"490G00003663","towards":"Hook"},{"icsId":"1009048","id":"490009048C","lat":51.35575,"lon":-0.31186,"name":"Garrison Lane","parentId":"490G00009048","stationId":"490G00009048","stopLetter":"C","topMostParentId":"490G00009048","towards":"Hook"},{"icsId":"1005116","id":"490005116E","lat":51.35618,"lon":-0.30956,"name":"Chessington School","parentId":"490G00005116","stationId":"490G00005116","stopLetter":"E","topMostParentId":"490G00005116","towards":"Hook Or West Ewell"},{"icsId":"1001062","id":"490001062E","lat":51.35647,"lon":-0.30777,"name":"Chessington South Station","stopLetter":"A","topMostParentId":"490001062E","towards":"Hook Or West Ewell"},{"icsId":"1011540","id":"490011540F","lat":51.35798,"lon":-0.30308,"name":"Reynolds Avenue","parentId":"490G00011540","stationId":"490G00011540","stopLetter":"F","topMostParentId":"490G00011540","towards":"Hook Or West Ewell"},{"icsId":"1005115","id":"490005115E","lat":51.3588,"lon":-0.29934,"name":"Church Lane","parentId":"490G00005115","stationId":"490G00005115","stopLetter":"P","topMostParentId":"490G00005115","towards":"Hook Or West Ewell"},{"icsId":"1005593","id":"490005593N","lat":51.35929,"lon":-0.29543,"name":"Copt Gilders","parentId":"490G00005593","stationId":"490G00005593","stopLetter":"R","topMostParentId":"490G00005593","towards":"Hook Or West Ewell"},{"icsId":"1003562","id":"490003562E","lat":51.36239,"lon":-0.2917,"name":"Moor Lane","parentId":"490G00003562","stationId":"490G00003562","stopLetter":"E","topMostParentId":"490G00003562","towards":"Hook Or West Ewell"},{"icsId":"1013267","id":"490013267W","lat":51.36351,"lon":-0.29601,"name":"Church Rise","parentId":"490G00013267","stationId":"490G00013267","stopLetter":"F","topMostParentId":"490G00013267","towards":"Surbiton"},{"icsId":"1001061","id":"490001061T","lat":51.36343,"lon":-0.30029,"name":"Chessington North Station","stopLetter":"T","topMostParentId":"490001061T","towards":"Surbiton"},{"icsId":"1005117","id":"490005117V","lat":51.36316,"lon":-0.30416,"name":"Parbury Rise","parentId":"490G00005117","stationId":"490G00005117","stopLetter":"V","topMostParentId":"490G00005117","towards":"Surbiton"},{"icsId":"1009615","id":"490009615P","lat":51.36392,"lon":-0.30836,"name":"Mansfield Road","parentId":"490G00009615","stationId":"490G00009615","stopLetter":"P","topMostParentId":"490G00009615","towards":"Surbiton"},{"icsId":"1013597","id":"490013597N","lat":51.36608,"lon":-0.30735,"name":"Holmwood Road","parentId":"490G00013597","stationId":"490G00013597","stopLetter":"W","topMostParentId":"490G00013597","towards":"Surbiton"},{"icsId":"1008338","id":"490008338N","lat":51.36803,"lon":-0.30663,"name":"Hook Parade","parentId":"490G00008338","stationId":"490G00008338","stopLetter":"HL","topMostParentId":"490G00008338","towards":"Surbiton"},{"icsId":"1013474","id":"490013474N","lat":51.37102,"lon":-0.3059,"name":"The North Star","parentId":"490G00013474","stationId":"490G00013474","stopLetter":"HM","topMostParentId":"490G00013474","towards":"Surbiton"},{"icsId":"1006501","id":"490006501N","lat":51.37365,"lon":-0.30471,"name":"Elmcroft Drive","parentId":"490G00006501","stationId":"490G00006501","stopLetter":"HN","topMostParentId":"490G00006501","towards":"Surbiton"},{"icsId":"1007205","id":"490007205N","lat":51.37605,"lon":-0.30383,"name":"Southborough High School","parentId":"490G00007205","stationId":"490G00007205","stopLetter":"HP","topMostParentId":"490G00007205","towards":"Surbiton"},{"icsId":"1013628","id":"490013628N","lat":51.3793,"lon":-0.30222,"name":"Thornhill Road","parentId":"490G00013628","stationId":"490G00013628","stopLetter":"HQ","topMostParentId":"490G00013628","towards":"Surbiton"},{"icsId":"1019714","id":"490013457N","lat":51.38243,"lon":-0.30087,"name":"The Maypole","parentId":"490G00019714","stationId":"490G00019714","stopLetter":"HR","topMostParentId":"490G00019714","towards":"Surbiton"},{"icsId":"1008949","id":"490008949N","lat":51.3861,"lon":-0.30077,"name":"Langley Avenue","parentId":"490G00008949","stationId":"490G00008949","stopLetter":"SA","topMostParentId":"490G00008949","towards":"Kingston"},{"icsId":"1010075","id":"490010075N","lat":51.38809,"lon":-0.30319,"name":"Mountcombe Close","parentId":"490G00010075","stationId":"490G00010075","stopLetter":"SB","topMostParentId":"490G00010075","towards":"Kingston"},{"icsId":"1009395","id":"490009395N","lat":51.39042,"lon":-0.30763,"name":"Lovelace Gardens","parentId":"490G00009395","stationId":"490G00009395","stopLetter":"SC","topMostParentId":"490G00009395","towards":"Kingston"},{"icsId":"1013036","id":"490013036H","lat":51.3916,"lon":-0.30865,"name":"Surbiton Sainsbury's","parentId":"490G00013036","stationId":"490G00013036","stopLetter":"NA","topMostParentId":"490G00013036","towards":"Kingston"},{"icsId":"1001285","id":"490001285C","lat":51.39291,"lon":-0.30542,"name":"Surbiton Station","stopLetter":"NB","topMostParentId":"490001285C","towards":"Kingston"},{"icsId":"1019769","id":"490015165A","lat":51.39391,"lon":-0.30462,"name":"Claremont Road / Surbiton Station","parentId":"490G000949","stationId":"490G000949","stopLetter":"NC","topMostParentId":"490G000949","towards":"Kingston"},{"icsId":"1013315","id":"490013315N","lat":51.39626,"lon":-0.30415,"name":"The Crescent","parentId":"490G00013315","stationId":"490G00013315","stopLetter":"ND","topMostParentId":"490G00013315","towards":"Kingston Or Hampton Wick"},{"icsId":"1009627","id":"490009627N","lat":51.39861,"lon":-0.30458,"name":"Maple Road","parentId":"490G00009627","stationId":"490G00009627","stopLetter":"D","topMostParentId":"490G00009627","towards":"Kingston Or Hampton Wick"},{"icsId":"1013035","id":"490013035N","lat":51.40124,"lon":-0.30402,"name":"Surbiton Road / Penrhyn Road","parentId":"490G00013035","stationId":"490G00013035","stopLetter":"UE","topMostParentId":"490G00013035","towards":"Kingston Or Hampton Wick"},{"icsId":"1008830","id":"490008830N","lat":51.40327,"lon":-0.30451,"name":"Kingston University / County Hall","parentId":"490G00008830","stationId":"490G00008830","stopLetter":"UF","topMostParentId":"490G00008830","towards":"Kingston Or Teddington"},{"icsId":"1005498","id":"490005498N","lat":51.40621,"lon":-0.30417,"name":"Kingston Crown Court / Kingston College","parentId":"490G00005498","stationId":"490G00005498","stopLetter":"UJ","topMostParentId":"490G00005498","towards":"Kingston Or Teddington"},{"icsId":"1004478","id":"490004478G","lat":51.40851,"lon":-0.30374,"name":"Brook Street","parentId":"490G00004478","stationId":"490G00004478","stopLetter":"G","topMostParentId":"490G00004478","towards":"Teddington, Kingston Hospital Or Ham"},{"icsId":"1006412","id":"490006412E3","lat":51.41046,"lon":-0.30236,"name":"Eden Street","parentId":"490G00006412","stationId":"490G00006412","stopLetter":"E3","topMostParentId":"490G00006412","towards":"Ham Or Richmond"},{"icsId":"1005800","id":"490005800A2","lat":51.41236,"lon":-0.29887,"name":"Cromwell Road Bus Station","parentId":"490G000476","stationId":"490G000476","stopLetter":"A2","topMostParentId":"490G000476","towards":"Kingston Vale, New Malden Or Raynes Park"}]}]}