{"direction":"outbound","lineId":"79","lineName":"79","mode":"bus","stopPointSequences":[{"stopPoint":[{"icsId":"1000224","id":"490000224A","lat":51.54403,"lon":-0.27512,"name":"Stonebridge Park Station","stopLetter":"A","topMostParentId":"490000224A","towards":"Ealing Or Park Royal","zone":"3"},{"icsId":"1007990","id":"490007990W","lat":51.54137,"lon":-0.28062,"name":"Heather Park Drive","parentId":"490G00007990","stationId":"490G00007990","stopLetter":"N","topMostParentId":"490G00007990","towards":"Alperton"},{"icsId":"1010363","id":"490010363W","lat":51.54124,"lon":-0.28413,"name":"Kenmere Gardens","parentId":"490G00010363","stationId":"490G00010363","stopLetter":"->W","topMostParentId":"490G00010363","towards":"Alperton Station Or Wembley"},{"icsId":"1003913","id":"490003913W","lat":51.54109,"lon":-0.28845,"name":"Beresford Avenue","parentId":"490G00003913","stationId":"490G00003913","stopLetter":"->W","topMostParentId":"490G00003913","towards":"Alperton"},{"icsId":"1010088","id":"490010088W","lat":51.54201,"lon":-0.29516,"name":"Mount Pleasant","parentId":"490G00010088","stationId":"490G00010088","stopLetter":"->W","topMostParentId":"490G00010088","towards":"Alperton"},{"icsId":"1005380","id":"490005380N","lat":51.54465,"lon":-0.29701,"name":"Clayton Avenue","parentId":"490G00005380","stationId":"490G00005380","stopLetter":"S","topMostParentId":"490G00005380","towards":"North Wembley, Kingsbury Or Wembley Park"},{"icsId":"1006286","id":"490006286N","lat":51.54701,"lon":-0.2977,"name":"Eagle Road","parentId":"490G00006286","stationId":"490G00006286","stopLetter":"->N","topMostParentId":"490G00006286","towards":"North Wembley, Kingsbury Or Wembley Park"},{"icsId":"1009488","id":"490009488N","lat":51.54865,"lon":-0.2978,"name":"Lyon Park Avenue","parentId":"490G00009488","stationId":"490G00009488","stopLetter":"->N","topMostParentId":"490G00009488","towards":"North Wembley, Kingsbury Or Wembley Park"},{"icsId":"1008177","id":"490008177C","lat":51.55161,"lon":-0.29903,"name":"High Road Wembley","parentId":"490G00008177","stationId":"490G00008177","stopLetter":"CV","topMostParentId":"490G00008177","towards":"North Wembley, Kingsbury Or Wembley Park"},{"icsId":"1000256","id":"490000256F","lat":51.55243,"lon":-0.29755,"name":"Wembley Central Station","stopLetter":"CN","topMostParentId":"490000256F","towards":"Kingsbury, Wembley Park Or Harlesden","zone":"4"},{"icsId":"1008180","id":"490008180J","lat":51.55352,"lon":-0.29424,"name":"Park Lane","parentId":"490G00008180","stationId":"490G00008180","stopLetter":"CL","topMostParentId":"490G00008180","towards":"Wembley Park Or Kingsbury"},{"icsId":"1014381","id":"490014381N","lat":51.5588,"lon":-0.29091,"name":"Wembley Hill Road","parentId":"490G00014381","stationId":"490G00014381","stopLetter":"L","topMostParentId":"490G00014381","towards":"Kingsbury Or Neasden"},{"icsId":"1006366","id":"490014380N","lat":51.56154,"lon":-0.29203,"name":"East Lane","parentId":"490G00006366","stationId":"490G00006366","stopLetter":"P","topMostParentId":"490G00006366","towards":"Kingsbury Or North Wembley"},{"icsId":"1019816","id":"490006366N","lat":51.56342,"lon":-0.29221,"name":"Highfield Avenue","parentId":"490G00019816","stationId":"490G00019816","stopLetter":"R","topMostParentId":"490G00019816","towards":"Edgware Or Kingsbury"},{"icsId":"1012624","id":"490012624N","lat":51.56528,"lon":-0.29361,"name":"St Augustine's Avenue","parentId":"490G00012624","stationId":"490G00012624","stopLetter":"S","topMostParentId":"490G00012624","towards":"Edgware Or Kingsbury"},{"icsId":"1010891","id":"490010891N","lat":51.56645,"lon":-0.29472,"name":"Pellatt Road","parentId":"490G00010891","stationId":"490G00010891","stopLetter":"->N","topMostParentId":"490G00010891","towards":"Queensbury Or Edgware"},{"icsId":"1004796","id":"490004796N2","lat":51.57093,"lon":-0.29491,"name":"Carlton Avenue East","parentId":"490G00004796","stationId":"490G00004796","stopLetter":"PK","topMostParentId":"490G00004796","towards":"Edgware Or Kingsbury"},{"icsId":"1000183","id":"490000183A","lat":51.57236,"lon":-0.2948,"name":"Preston Road Station","stopLetter":"PA","topMostParentId":"490000183A","towards":"Edgware, Kingsbury Or Wembley Park","zone":"4"},{"icsId":"1014820","id":"490014820N","lat":51.57571,"lon":-0.29463,"name":"Woodcock Hill","parentId":"490G00014820","stationId":"490G00014820","stopLetter":"PH","topMostParentId":"490G00014820","towards":"Edgware Or Kingsbury"},{"icsId":"1008729","id":"490008729E","lat":51.57749,"lon":-0.29206,"name":"John Perrin Place","parentId":"490G00008729","stationId":"490G00008729","stopLetter":"->E","topMostParentId":"490G00008729","towards":"Edgware Or Kingsbury"},{"icsId":"1009512","id":"490009512E","lat":51.57822,"lon":-0.28933,"name":"Magnolia Court","parentId":"490G00009512","stationId":"490G00009512","stopLetter":"->E","topMostParentId":"490G00009512","towards":"Edgware"},{"icsId":"1013367","id":"490013367N2","lat":51.58069,"lon":-0.28647,"name":"The Garth","parentId":"490G00013367","stationId":"490G00013367","stopLetter":"T","topMostParentId":"490G00013367","towards":"Edgware"},{"icsId":"1015769","id":"490015769H","lat":51.58221,"lon":-0.28536,"name":"Lyndsey Park","parentId":"490G00015769","stationId":"490G00015769","stopLetter":"H","topMostParentId":"490G00015769","towards":"Edgware"},{"icsId":"1008760","id":"490008760F","lat":51.58438,"lon":-0.2826,"name":"Kingsbury Circle / the Mall","parentId":"490G000623","stationId":"490G000623","stopLetter":"F","topMostParentId":"490G000623","towards":"Edgware"},{"icsId":"1015365","id":"490015365C","lat":51.58559,"lon":-0.28237,"name":"Kingsbury Circle","parentId":"490G000889","stationId":"490G000889","stopLetter":"C","topMostParentId":"490G000889","towards":"Burnt Oak Or Queensbury"},{"icsId":"1011531","id":"490011531N","lat":51.58887,"lon":-0.28378,"name":"Cowbridge Road","parentId":"490G00011531","stationId":"490G00011531","stopLetter":"W","topMostParentId":"490G00011531","towards":"Edgware Or Stanmore"},{"icsId":"1011328","id":"490011328N","lat":51.59212,"lon":-0.28641,"name":"Queensbury Morrisons","parentId":"490G00011328","stationId":"490G00011328","stopLetter":"DD","topMostParentId":"490G00011328","towards":"Edgware Or Stanmore"},{"icsId":"1000185","id":"490000185AA","lat":51.59445,"lon":-0.28544,"name":"Queensbury Station","stopLetter":"AA","topMostParentId":"490000185AA","towards":"Burnt Oak, Edgware Or Stanmore","zone":"4"},{"icsId":"1013423","id":"490013423N","lat":51.59397,"lon":-0.29138,"name":"The Honeypot","parentId":"490G00013423","stationId":"490G00013423","stopLetter":"D","topMostParentId":"490G00013423","towards":"Edgware, Harrow Or Stanmore"},{"icsId":"1011326","id":"490011326N","lat":51.59628,"lon":-0.29475,"name":"Queensbury Circle","parentId":"490G00011326","stationId":"490G00011326","stopLetter":"P","topMostParentId":"490G00011326","towards":"Edgware"},{"icsId":"1004365","id":"490004365N","lat":51.60019,"lon":-0.29629,"name":"Broadcroft Avenue","parentId":"490G00004365","stationId":"490G00004365","stopLetter":"Q","topMostParentId":"490G00004365","towards":"Edgware"},{"icsId":"1014676","id":"490014676N","lat":51.60133,"lon":-0.29694,"name":"Wigton Gardens","parentId":"490G00014676","stationId":"490G00014676","stopLetter":"R","topMostParentId":"490G00014676","towards":"Edgware"},{"icsId":"1008335","id":"490008335N","lat":51.60576,"lon":-0.30018,"name":"Honeypot Lane Centre","parentId":"490G000599","stationId":"490G000599","stopLetter":"E","topMostParentId":"490G000599","towards":"Edgware Or Stanmore"},{"icsId":"1009698","id":"490014574E","lat":51.60732,"lon":-0.30004,"name":"Marsh Lane","parentId":"490G00009698","stationId":"490G00009698","stopLetter":"H","topMostParentId":"490G00009698","towards":"Edgware"},{"icsId":"1000041","id":"490000041A","lat":51.60754,"lon":-0.29435,"name":"Canons Park Station","stopLetter":"A","topMostParentId":"490000041A","towards":"Edgware","zone":"5"},{"icsId":"1012758","id":"490012758E","lat":51.60804,"lon":-0.28864,"name":"St Lawrence Church","parentId":"490G00012758","stationId":"490G00012758","stopLetter":"->E","topMostParentId":"490G00012758","towards":"Mill Hill"},{"icsId":"1004556","id":"490004556E","lat":51.60962,"lon":-0.28243,"name":"Buckingham Road","parentId":"490G00004556","stationId":"490G00004556","stopLetter":"->E","topMostParentId":"490G00004556","towards":"Mill Hill"},{"icsId":"1012773","id":"490012773K","lat":51.61118,"lon":-0.27873,"name":"St Margarets Church","parentId":"490G00012773","stationId":"490G00012773","stopLetter":"K","topMostParentId":"490G00012773","towards":"Edgware Or Mill Hill"},{"icsId":"1000070","id":"490000070G","lat":51.6134,"lon":-0.27552,"name":"Edgware Station","stopLetter":"G","topMostParentId":"490000070G","zone":"5"}]}]}