{"direction":"outbound","lineId":"85","lineName":"85","mode":"bus","stopPointSequences":[{"stopPoint":[{"icsId":"1000184","id":"490000184Z","lat":51.46792,"lon":-0.20931,"name":"Putney Bridge Station","stopLetter":"FC","topMostParentId":"490000184Z","zone":"2"},{"icsId":"1007281","id":"490015157T","lat":51.46781,"lon":-0.21179,"name":"Putney Bridge","parentId":"490G000536","stationId":"490G000536","stopLetter":"FE","topMostParentId":"490G000536","towards":"Roehampton, Putney Heath Or Barnes"},{"icsId":"1011278","id":"490011278R","lat":51.46533,"lon":-0.21432,"name":"St Mary's Church / Putney Pier","parentId":"490G00011278","stationId":"490G00011278","stopLetter":"R","topMostParentId":"490G00011278","towards":"Roehampton, Wandsworth Or Wimbledon"},{"icsId":"1011289","id":"490011286L","lat":51.46272,"lon":-0.21612,"name":"Putney Exchange","parentId":"490G00011289","stationId":"490G00011289","stopLetter":"L","topMostParentId":"490G00011289","towards":"Roehampton, Southfields Or Wimbledon"},{"icsId":"1001231","id":"490001231E","lat":51.46115,"lon":-0.21691,"name":"Putney Station","stopLetter":"E","topMostParentId":"490001231E","towards":"Roehampton Or Wimbledon"},{"icsId":"1009494","id":"490009494S","lat":51.45598,"lon":-0.21919,"name":"Lytton Grove","parentId":"490G00009494","stationId":"490G00009494","stopLetter":"P","topMostParentId":"490G00009494","towards":"Southfields, Roehampton Or Wimbledon"},{"icsId":"1011285","id":"490011285W","lat":51.45326,"lon":-0.22139,"name":"Putney Heath / Green Man","parentId":"490G00011285","stationId":"490G00011285","stopLetter":"C","topMostParentId":"490G00011285","towards":"Roehampton"},{"icsId":"1007965","id":"490007965W","lat":51.45294,"lon":-0.22644,"name":"Hayward Gardens","parentId":"490G00007965","stationId":"490G00007965","stopLetter":"D","topMostParentId":"490G00007965","towards":"Roehampton"},{"icsId":"1006685","id":"490006685W","lat":51.45255,"lon":-0.22885,"name":"Exeter House","parentId":"490G00006685","stationId":"490G00006685","stopLetter":"E","topMostParentId":"490G00006685","towards":"Roehampton"},{"icsId":"1006150","id":"490006150W","lat":51.45152,"lon":-0.23499,"name":"Dover Park Drive","parentId":"490G00006150","stationId":"490G00006150","stopLetter":"J","topMostParentId":"490G00006150","towards":"Roehampton"},{"icsId":"1011640","id":"490011640K","lat":51.44976,"lon":-0.23894,"name":"Medfield Street","parentId":"490G00011640","stationId":"490G00011640","stopLetter":"K","topMostParentId":"490G00011640","towards":"Danebury Avenue, Kingston Vale Or Sheen"},{"icsId":"1003134","id":"490003134M","lat":51.44935,"lon":-0.23893,"name":"Roehampton Lane / Danebury Avenue","parentId":"490G00003134","stationId":"490G00003134","stopLetter":"M","topMostParentId":"490G00003134","towards":"Kingston Vale"},{"icsId":"1009745","id":"490009745S","lat":51.44836,"lon":-0.23667,"name":"Mayfield Surgery","parentId":"490G00009745","stationId":"490G00009745","stopLetter":"Q","topMostParentId":"490G00009745","towards":"New Malden Or Norbiton"},{"icsId":"1014181","id":"490014181S","lat":51.44575,"lon":-0.23472,"name":"Wanborough Drive","parentId":"490G00014181","stationId":"490G00014181","stopLetter":"RS","topMostParentId":"490G00014181","towards":"New Malden Or Norbiton"},{"icsId":"1011292","id":"490011292W","lat":51.44181,"lon":-0.24157,"name":"Putney Vale Cemetery","parentId":"490G00011292","stationId":"490G00011292","stopLetter":"PT","topMostParentId":"490G00011292","towards":"New Malden Or Norbiton"},{"icsId":"1014489","id":"490014489W","lat":51.44082,"lon":-0.24406,"name":"West Lodge","parentId":"490G00014489","stationId":"490G00014489","stopLetter":"PU","topMostParentId":"490G00014489","towards":"New Malden Or Norbiton"},{"icsId":"1008832","id":"490008832S1","lat":51.43867,"lon":-0.24797,"name":"Roehampton Vale / Asda","parentId":"490G00008832","stationId":"490G00008832","stopLetter":"PC","topMostParentId":"490G00008832","towards":"Kingston Or New Malden"},{"icsId":"1011644","id":"490011644W","lat":51.43815,"lon":-0.25063,"name":"Roehampton Vale Campus","parentId":"490G00011644","stationId":"490G00011644","stopLetter":"->W","topMostParentId":"490G00011644","towards":"New Malden Or Norbiton"},{"icsId":"1013535","id":"490013535S","lat":51.43417,"lon":-0.26004,"name":"Robin Hood Lane","parentId":"490G00013535","stationId":"490G00013535","stopLetter":"P","topMostParentId":"490G00013535","towards":"Norbiton"},{"icsId":"1002321","id":"490014914S","lat":51.43258,"lon":-0.26305,"name":"Woodview Close / Dorich House Museum","parentId":"490G00002321","stationId":"490G00002321","stopLetter":"Q","topMostParentId":"490G00002321","towards":"Norbiton"},{"icsId":"1008831","id":"490008831S","lat":51.42935,"lon":-0.2685,"name":"Kingston University","parentId":"490G00008831","stationId":"490G00008831","stopLetter":"R","topMostParentId":"490G00008831","towards":"Kingston"},{"icsId":"1007101","id":"490007101W","lat":51.42711,"lon":-0.27253,"name":"Galsworthy House","parentId":"490G00007101","stationId":"490G00007101","stopLetter":"S","topMostParentId":"490G00007101","towards":"Kingston"},{"icsId":"1014239","id":"490014239S","lat":51.42456,"lon":-0.27484,"name":"Warren Road","parentId":"490G00014239","stationId":"490G00014239","stopLetter":"T","topMostParentId":"490G00014239","towards":"Kingston"},{"icsId":"1011445","id":"490011445S","lat":51.42146,"lon":-0.27728,"name":"Ravenswood Court","parentId":"490G00011445","stationId":"490G00011445","stopLetter":"->S","topMostParentId":"490G00011445","towards":"Kingston"},{"icsId":"1008825","id":"490008825S","lat":51.41881,"lon":-0.27925,"name":"George Road","parentId":"490G00008825","stationId":"490G00008825","stopLetter":"->S","topMostParentId":"490G00008825","towards":"Kingston"},{"icsId":"1011351","id":"490011351NL","lat":51.41629,"lon":-0.28339,"name":"Queens Road / Kingston Hospital","parentId":"490G00011351","stationId":"490G00011351","stopLetter":"NL","topMostParentId":"490G00011351","towards":"Kingston"},{"icsId":"1009558","id":"490009558S","lat":51.41318,"lon":-0.28782,"name":"Manor Gate Road","parentId":"490G00009558","stationId":"490G00009558","stopLetter":"NS","topMostParentId":"490G00009558","towards":"Kingston"},{"icsId":"1018701","id":"4900018701W","lat":51.41175,"lon":-0.29025,"name":"Gordon Road","parentId":"490G00018701","stationId":"490G00018701","stopLetter":"NW","topMostParentId":"490G00018701","towards":"Kingston Or Surbiton"},{"icsId":"1002150","id":"490013664C2","lat":51.41055,"lon":-0.29557,"name":"Norbiton Church / Tiffin Boys School","parentId":"490G000371","stationId":"490G000371","stopLetter":"C","topMostParentId":"490G000371","towards":"Kingston Or Surbiton"},{"icsId":"1006705","id":"490006705B","lat":51.41042,"lon":-0.29997,"name":"Fairfield Bus Station","parentId":"490G00006705","stationId":"490G00006705","stopLetter":"B","topMostParentId":"490G00006705"},{"icsId":"1006412","id":"490006412D1","lat":51.41025,"lon":-0.30224,"name":"Eden Street","parentId":"490G00006412","stationId":"490G00006412","stopLetter":"D1","topMostParentId":"490G00006412","towards":"Surbiton Or Thames Ditton"},{"icsId":"1006416","id":"490006412H","lat":51.40888,"lon":-0.30479,"name":"St James's Road","parentId":"490G00006416","stationId":"490G00006416","stopLetter":"H","topMostParentId":"490G00006416","towards":"Surbiton Or Thames Ditton"},{"icsId":"1007595","id":"490007595J","lat":51.40884,"lon":-0.30633,"name":"Guildhall / Rose Theatre","parentId":"490G00007595","stationId":"490G00007595","stopLetter":"J","topMostParentId":"490G00007595","towards":"Surbiton Or Thames Ditton"},{"icsId":"1008821","id":"490008821E","lat":51.40761,"lon":-0.30629,"name":"Kingston Hall Road","parentId":"490G00008821","stationId":"490G00008821","stopLetter":"->E","topMostParentId":"490G00008821"}]}]}