{"direction":"outbound","lineId":"90","lineName":"90","mode":"bus","stopPointSequences":[{"stopPoint":[{"icsId":"1000162","id":"490000162B","lat":51.54848,"lon":-0.36741,"name":"Northolt Station","stopLetter":"B","topMostParentId":"490000162B","towards":"Greenford, Southall Or Hayes","zone":"5"},{"icsId":"1009959","id":"490009959D","lat":51.54647,"lon":-0.37023,"name":"Moat Farm Road","parentId":"490G00009959","stationId":"490G00009959","stopLetter":"D","topMostParentId":"490G00009959","towards":"Greenford, Southall Or Hayes"},{"icsId":"1006638","id":"490003178S","lat":51.54404,"lon":-0.37446,"name":"Kingston Close","parentId":"490G00006638","stationId":"490G00006638","stopLetter":"TA","topMostParentId":"490G00006638","towards":"Greenford, Southall Or Hayes"},{"icsId":"1013120","id":"490013155S","lat":51.54066,"lon":-0.38215,"name":"Sycamore Close","parentId":"490G00013120","stationId":"490G00013120","stopLetter":"TB","topMostParentId":"490G00013120","towards":"Greenford, Southall Or Hayes"},{"icsId":"1003891","id":"490003891S","lat":51.53961,"lon":-0.38434,"name":"Bengarth Road / Northolt Library","parentId":"490G00003891","stationId":"490G00003891","stopLetter":"TC","topMostParentId":"490G00003891","towards":"Greenford, Southall Or Hayes"},{"icsId":"1014992","id":"490014992S","lat":51.53682,"lon":-0.38947,"name":"Yeading / White Hart Roundabout","parentId":"490G00014992","stationId":"490G00014992","stopLetter":"X","topMostParentId":"490G00014992","towards":"Greenford, Southall Or Hayes"},{"icsId":"1014995","id":"490014995S","lat":51.53479,"lon":-0.39451,"name":"Yeading / Dilston Close","parentId":"490G00014995","stationId":"490G00014995","stopLetter":"L","topMostParentId":"490G00014995","towards":"Hayes"},{"icsId":"1008417","id":"490008417W","lat":51.53323,"lon":-0.3981,"name":"Hughenden Gardens","parentId":"490G00008417","stationId":"490G00008417","stopLetter":"H","topMostParentId":"490G00008417","towards":"Hayes"},{"icsId":"1007610","id":"490007610W","lat":51.53338,"lon":-0.40406,"name":"Gurney Road","parentId":"490G00007610","stationId":"490G00007610","stopLetter":"->W","topMostParentId":"490G00007610","towards":"Hayes"},{"icsId":"1013757","id":"490013757W","lat":51.53417,"lon":-0.40851,"name":"Townson Avenue","parentId":"490G00013757","stationId":"490G00013757","stopLetter":"R","topMostParentId":"490G00013757","towards":"Hayes"},{"icsId":"1016772","id":"490016772W","lat":51.5336,"lon":-0.41268,"name":"Kingshill Close","parentId":"490G00016772","stationId":"490G00016772","stopLetter":"S","topMostParentId":"490G00016772","towards":"Hayes Town"},{"icsId":"1007536","id":"490007536W","lat":51.53263,"lon":-0.41653,"name":"Grosvenor Avenue","parentId":"490G00007536","stationId":"490G00007536","stopLetter":"T","topMostParentId":"490G00007536","towards":"Hayes Town"},{"icsId":"1008963","id":"490008783S","lat":51.53136,"lon":-0.41873,"name":"The Brook House","parentId":"490G00008963","stationId":"490G00008963","stopLetter":"K","topMostParentId":"490G00008963","towards":"Hayes End Or Hayes Town"},{"icsId":"1006715","id":"490006715S","lat":51.52998,"lon":-0.41742,"name":"Fairholme Crescent","parentId":"490G00006715","stationId":"490G00006715","stopLetter":"L","topMostParentId":"490G00006715","towards":"Hayes End Or Hayes Town"},{"icsId":"1007002","id":"490007003S","lat":51.52824,"lon":-0.41713,"name":"Fredora Avenue","parentId":"490G00007002","stationId":"490G00007002","stopLetter":"M","topMostParentId":"490G00007002","towards":"Hayes End Or Hayes Town"},{"icsId":"1003572","id":"490003572D","lat":51.52573,"lon":-0.41974,"name":"Balmoral Drive","parentId":"490G00003572","stationId":"490G00003572","stopLetter":"D","topMostParentId":"490G00003572","towards":"Hayes End Or Hayes Town"},{"icsId":"1008962","id":"490008962E","lat":51.52237,"lon":-0.42012,"name":"Uxbridge County Court","parentId":"490G00008962","stationId":"490G00008962","stopLetter":"E","topMostParentId":"490G00008962","towards":"Hayes Or Southall"},{"icsId":"1005294","id":"490005294J","lat":51.52088,"lon":-0.41587,"name":"Church Road","parentId":"490G00005294","stationId":"490G00005294","stopLetter":"J","topMostParentId":"490G00005294","towards":"Hayes Or Southall"},{"icsId":"1003873","id":"490003873L","lat":51.5197,"lon":-0.41339,"name":"Belmore Parade","parentId":"490G00003873","stationId":"490G00003873","stopLetter":"L","topMostParentId":"490G00003873","towards":"Hayes Or Southall"},{"icsId":"1008109","id":"490008109U","lat":51.51526,"lon":-0.40921,"name":"Hesa Road","parentId":"490G00008109","stationId":"490G00008109","stopLetter":"U","topMostParentId":"490G00008109","towards":"Harlington"},{"icsId":"1011170","id":"490011170S","lat":51.51413,"lon":-0.41049,"name":"Precinct Road","parentId":"490G00011170","stationId":"490G00011170","stopLetter":"SU","topMostParentId":"490G00011170","towards":"Harlington"},{"icsId":"1003512","id":"490003512S","lat":51.51181,"lon":-0.41227,"name":"Avondale Drive","parentId":"490G00003512","stationId":"490G00003512","stopLetter":"SV","topMostParentId":"490G00003512","towards":"Harlington"},{"icsId":"1006384","id":"490006384S","lat":51.51053,"lon":-0.41384,"name":"East Way","parentId":"490G00006384","stationId":"490G00006384","stopLetter":"SW","topMostParentId":"490G00006384","towards":"Harlington"},{"icsId":"1006701","id":"490006701B","lat":51.50862,"lon":-0.41581,"name":"Fairdale Gardens","parentId":"490G00006701","stationId":"490G00006701","stopLetter":"SX","topMostParentId":"490G00006701","towards":"Harlington"},{"icsId":"1000828","id":"490000828Y","lat":51.50654,"lon":-0.41886,"name":"Hayes Town Centre","parentId":"490G000162","stationId":"490G000162","stopLetter":"D","topMostParentId":"490G000162","towards":"Harlington, Prologis Park Or Southall"},{"icsId":"1001144","id":"490001144M","lat":51.50306,"lon":-0.42079,"name":"Hayes & Harlington Station","stopLetter":"E","topMostParentId":"490001144M","towards":"Harlington, Southall Or Stockley Park"},{"icsId":"1006702","id":"490006702S1","lat":51.50095,"lon":-0.42422,"name":"Fairey Corner","parentId":"490G00006702","stationId":"490G00006702","stopLetter":"F","topMostParentId":"490G00006702","towards":"Harlington Or Prologis Park"},{"icsId":"1011489","id":"490011489S1","lat":51.49789,"lon":-0.42641,"name":"Redmead Road","parentId":"490G00011489","stationId":"490G00011489","stopLetter":"R","topMostParentId":"490G00011489","towards":"Harlington Or Prologis Park"},{"icsId":"1007812","id":"490007812S","lat":51.49666,"lon":-0.42732,"name":"Croyde Avenue","parentId":"490G00007812","stationId":"490G00007812","stopLetter":"S","topMostParentId":"490G00007812","towards":"Harlington Corner"},{"icsId":"1007808","id":"490007808S","lat":51.4895,"lon":-0.43505,"name":"Brickfield Lane","parentId":"490G00007808","stationId":"490G00007808","stopLetter":"A","topMostParentId":"490G00007808","towards":"Cranford, Hatton Cross Or Heathrow"},{"icsId":"1009564","id":"490009564S","lat":51.48672,"lon":-0.43544,"name":"Harlington High Street / Sipson Lane","parentId":"490G00009564","stationId":"490G00009564","stopLetter":"B","topMostParentId":"490G00009564","towards":"Cranford, Hatton Cross Or Heathrow"},{"icsId":"1014434","id":"490014434A","lat":51.4838,"lon":-0.43413,"name":"West End Lane","parentId":"490G00014434","stationId":"490G00014434","stopLetter":"C","topMostParentId":"490G00014434","towards":"Cranford, Hatton Cross Or Heathrow"},{"icsId":"1007905","id":"490010377F","lat":51.4795,"lon":-0.43178,"name":"Hatton Road North","parentId":"490G00007905","stationId":"490G00007905","stopLetter":"K","topMostParentId":"490G00007905","towards":"Hatton Cross"},{"icsId":"1019817","id":"490010349S","lat":51.47707,"lon":-0.42646,"name":"Eastchurch Road","parentId":"490G00019817","stationId":"490G00019817","stopLetter":"->S","topMostParentId":"490G00019817","towards":"Hatton Cross, Terminal 4 Or Feltham"},{"icsId":"1017652","id":"490017652W","lat":51.46912,"lon":-0.41958,"name":"Envoy Avenue","parentId":"490G00017652","stationId":"490G00017652","stopLetter":"M","topMostParentId":"490G00017652","towards":"Hatton Cross, Terminal 4 Or Feltham"},{"icsId":"1000103","id":"490000103C","lat":51.4668,"lon":-0.42338,"name":"Hatton Cross Station","stopLetter":"C","topMostParentId":"490000103C","zone":"5+6"},{"icsId":"1007904","id":"490007904H","lat":51.46612,"lon":-0.4214,"name":"Great South West Road","parentId":"490G00007904","stationId":"490G00007904","stopLetter":"H","topMostParentId":"490G00007904","towards":"Feltham"},{"icsId":"1007902","id":"490007902S","lat":51.46389,"lon":-0.41613,"name":"Hatton Green","parentId":"490G00007902","stationId":"490G00007902","stopLetter":"->S","topMostParentId":"490G00007902","towards":"Feltham"},{"icsId":"1004940","id":"490004940S","lat":51.45897,"lon":-0.4117,"name":"Central Way","parentId":"490G00004940","stationId":"490G00004940","stopLetter":"H","topMostParentId":"490G00004940","towards":"Feltham"},{"icsId":"1007813","id":"490007813S","lat":51.45656,"lon":-0.40935,"name":"Lansbury Avenue","parentId":"490G00007813","stationId":"490G00007813","stopLetter":"J","topMostParentId":"490G00007813","towards":"Sunbury, Teddington Or Twickenham"},{"icsId":"1015730","id":"490015730S","lat":51.45135,"lon":-0.40622,"name":"Feltham Assembly Hall","parentId":"490G00015730","stationId":"490G00015730","stopLetter":"S","topMostParentId":"490G00015730","towards":"Lower Feltham Or Teddington"},{"icsId":"1006781","id":"490006781S","lat":51.45009,"lon":-0.40709,"name":"Fern Grove","parentId":"490G00006781","stationId":"490G00006781","stopLetter":"->S","topMostParentId":"490G00006781","towards":"Lower Feltham Or Teddington"},{"icsId":"1003789","id":"490003789H","lat":51.44632,"lon":-0.40968,"name":"Feltham Station  / Victoria Road","parentId":"490G000408","stationId":"490G000408","stopLetter":"H","topMostParentId":"490G000408","towards":"Bedfont, Staines Or Sunbury"},{"icsId":"1004503","id":"490004503E","lat":51.44377,"lon":-0.41004,"name":"Browells Lane","parentId":"490G00004503","stationId":"490G00004503","stopLetter":"FW","topMostParentId":"490G00004503","towards":"Leisure West"},{"icsId":"1006783","id":"490006783E","lat":51.44326,"lon":-0.40616,"name":"Feltham Leisure West","parentId":"490G00006783","stationId":"490G00006783","stopLetter":"Z","topMostParentId":"490G00006783","towards":"Hatton Cross"}]}]}