{"direction":"outbound","lineId":"92","lineName":"92","mode":"bus","stopPointSequences":[{"stopPoint":[{"icsId":"1006292","id":"490006292S","lat":51.50791,"lon":-0.34701,"name":"Ealing Hospital","parentId":"490G00006292","stationId":"490G00006292","stopLetter":"S","topMostParentId":"490G00006292","towards":"Greenford"},{"icsId":"1012638","id":"490012638W","lat":51.50886,"lon":-0.3498,"name":"St Bernard's Gatehouse / Windmill Park","parentId":"490G00012638","stationId":"490G00012638","stopLetter":"UJ","topMostParentId":"490G00012638","towards":"Greenford, Southall Or Windmill Lane"},{"icsId":"1008498","id":"490008498E2","lat":51.50987,"lon":-0.35768,"name":"Iron Bridge","parentId":"490G00008498","stationId":"490G00008498","stopLetter":"UD","topMostParentId":"490G00008498","towards":"Boston Manor Or Ealing"},{"icsId":"1014492","id":"490014492N","lat":51.5124,"lon":-0.35515,"name":"West Middlesex Golf Course","parentId":"490G00014492","stationId":"490G00014492","stopLetter":"UP","topMostParentId":"490G00014492","towards":"Greenford Station Or Yeading"},{"icsId":"1007278","id":"490007278N","lat":51.517,"lon":-0.35504,"name":"Golf Links Estate","parentId":"490G00007278","stationId":"490G00007278","stopLetter":"D","topMostParentId":"490G00007278","towards":"Greenford Station Or Yeading"},{"icsId":"1014766","id":"490014766N","lat":51.51997,"lon":-0.35476,"name":"Windmill Lane","parentId":"490G00014766","stationId":"490G00014766","stopLetter":"E","topMostParentId":"490G00014766","towards":"Greenford Station Or Yeading"},{"icsId":"1007447","id":"490007447N","lat":51.52452,"lon":-0.35346,"name":"Greenford Depot","parentId":"490G00007447","stationId":"490G00007447","stopLetter":"U","topMostParentId":"490G00007447","towards":"Greenford Station Or Yeading"},{"icsId":"1007442","id":"490007441F","lat":51.52833,"lon":-0.35202,"name":"Ruislip Road East","parentId":"490G00007442","stationId":"490G00007442","stopLetter":"W","topMostParentId":"490G00007442","towards":"Greenford Station Or Hanger Lane"},{"icsId":"1005626","id":"490005626N","lat":51.53137,"lon":-0.35007,"name":"Costons Lane","parentId":"490G00005626","stationId":"490G00005626","stopLetter":"X","topMostParentId":"490G00005626","towards":"Greenford Station Or Hanger Lane"},{"icsId":"1005687","id":"490005687N","lat":51.53516,"lon":-0.34722,"name":"Cowgate Road","parentId":"490G00005687","stationId":"490G00005687","stopLetter":"EE","topMostParentId":"490G00005687","towards":"Greenford Station Or Hanger Lane"},{"icsId":"1008485","id":"490008485N","lat":51.53778,"lon":-0.34541,"name":"Ingram Way / Bridge Hotel","parentId":"490G00008485","stationId":"490G00008485","stopLetter":"GG","topMostParentId":"490G00008485","towards":"Sudbury"},{"icsId":"1013906","id":"490013906N","lat":51.53993,"lon":-0.34431,"name":"Uneeda Drive","parentId":"490G00013906","stationId":"490G00013906","stopLetter":"HH","topMostParentId":"490G00013906","towards":"Sudbury"},{"icsId":"1013518","id":"490000092W2","lat":51.5428,"lon":-0.3453,"name":"Rockware Avenue / Greenford Station","parentId":"490G000791","stationId":"490G000791","stopLetter":"JJ","topMostParentId":"490G000791","towards":"Northolt, Southall Or Sudbury"},{"icsId":"1013569","id":"490013569N","lat":51.54515,"lon":-0.34524,"name":"Auriol Drive","parentId":"490G00013569","stationId":"490G00013569","topMostParentId":"490G00013569","towards":"Northolt Or Wembley"},{"icsId":"1005362","id":"490005362N","lat":51.54944,"lon":-0.34398,"name":"Clare Road","parentId":"490G00005362","stationId":"490G00005362","stopLetter":"->N","topMostParentId":"490G00005362","towards":"Wembley"},{"icsId":"1002299","id":"490002299YY","lat":51.54922,"lon":-0.34188,"name":"Berkeley Avenue","parentId":"490G00002299","stationId":"490G00002299","stopLetter":"->E","topMostParentId":"490G00002299","towards":"Wembley"},{"icsId":"1010542","id":"490010542N","lat":51.55226,"lon":-0.33904,"name":"Oldfield Lane North","parentId":"490G00010542","stationId":"490G00010542","stopLetter":"B","topMostParentId":"490G00010542","towards":"Wembley"},{"icsId":"1007078","id":"490007078N","lat":51.55473,"lon":-0.33735,"name":"Gainsboro Gardens","parentId":"490G00007078","stationId":"490G00007078","stopLetter":"C","topMostParentId":"490G00007078","towards":"Harrow Or Wembley"},{"icsId":"1007079","id":"490000227A","lat":51.55599,"lon":-0.33635,"name":"Sudbury Hill Stn  / Horsenden Ave","parentId":"490G00007079","stationId":"490G00007079","stopLetter":"D","topMostParentId":"490G00007079","towards":"Harrow Or Wembley"},{"icsId":"1001283","id":"490001283N","lat":51.55732,"lon":-0.33583,"name":"Sudbury Hill Station","stopLetter":"V","topMostParentId":"490001283N","towards":"South Harrow Or Wembley"},{"icsId":"1013534","id":"490013534N","lat":51.55916,"lon":-0.33507,"name":"South Vale","parentId":"490G000792","stationId":"490G000792","stopLetter":"E","topMostParentId":"490G000792","towards":"Harrow Or Wembley"},{"icsId":"1007863","id":"490007863N","lat":51.56114,"lon":-0.33268,"name":"Harrow Road","parentId":"490G00007863","stationId":"490G00007863","stopLetter":"F","topMostParentId":"490G00007863","towards":"Harrow Or Wembley"},{"icsId":"1012977","id":"490012977E","lat":51.56096,"lon":-0.33035,"name":"Sudbury Court Drive","parentId":"490G00012977","stationId":"490G00012977","stopLetter":"J","topMostParentId":"490G00012977","towards":"Wembley"},{"icsId":"1011234","id":"490011234E","lat":51.55918,"lon":-0.32709,"name":"Priory Avenue","parentId":"490G00011234","stationId":"490G00011234","stopLetter":"K","topMostParentId":"490G00011234","towards":"Wembley"},{"icsId":"1009729","id":"490009729E","lat":51.55776,"lon":-0.32296,"name":"Maybank Avenue","parentId":"490G00009729","stationId":"490G00009729","stopLetter":"->E","topMostParentId":"490G00009729","towards":"Wembley"},{"icsId":"1000440","id":"490005143E","lat":51.55651,"lon":-0.31864,"name":"Butler's Green / Chestnut Avenue","parentId":"490G000089","stationId":"490G000089","stopLetter":"->E","topMostParentId":"490G000089","towards":"Wembley"},{"icsId":"1012984","id":"490012984L","lat":51.55544,"lon":-0.31595,"name":"Rugby Avenue","parentId":"490G000774","stationId":"490G000774","stopLetter":"L","topMostParentId":"490G000774","towards":"Wembley Or Alperton"},{"icsId":"1001282","id":"490003597G","lat":51.55384,"lon":-0.31436,"name":"Sudbury & Harrow Road Station","stopLetter":"G","topMostParentId":"490003597G","towards":"Wembley Or Alperton"},{"icsId":"1013363","id":"490013363E","lat":51.55189,"lon":-0.31017,"name":"Chaplin Road","parentId":"490G00013363","stationId":"490G00013363","stopLetter":"HA","topMostParentId":"490G00013363","towards":"Kingsbury, Stonebridge Or Wembley Park"},{"icsId":"1005583","id":"490005583E","lat":51.55209,"lon":-0.30544,"name":"Copland Avenue","parentId":"490G00005583","stationId":"490G00005583","stopLetter":"HB","topMostParentId":"490G00005583","towards":"Kingsbury, Stonebridge Or Wembley Park"},{"icsId":"1006299","id":"490006299A","lat":51.55222,"lon":-0.30076,"name":"Ealing Road","parentId":"490G00006299","stationId":"490G00006299","stopLetter":"CX","topMostParentId":"490G00006299","towards":"Kingsbury, Stonebridge Or Wembley Park"},{"icsId":"1000256","id":"490000256G","lat":51.55284,"lon":-0.29604,"name":"Wembley Central Station","stopLetter":"CM","topMostParentId":"490000256G","towards":"Brent Park Or Wembley Park","zone":"4"},{"icsId":"1005588","id":"490005584K","lat":51.55365,"lon":-0.29214,"name":"Ark Elvin Academy / Park Lane","parentId":"490G00005588","stationId":"490G00005588","stopLetter":"SG","topMostParentId":"490G00005588","towards":"Wembley Park, Brent Park Or Harlesden"},{"icsId":"1014387","id":"490014387E1","lat":51.55365,"lon":-0.28857,"name":"Wembley Triangle","parentId":"490G00014387","stationId":"490G00014387","stopLetter":"SM","topMostParentId":"490G00014387","towards":"Wembley Park Or Brent Park"},{"icsId":"1001320","id":"490001320B","lat":51.55521,"lon":-0.28654,"name":"Wembley Stadium Station","stopLetter":"SD","topMostParentId":"490001320B","towards":"Kingsbury Green, Brent Pk Or Wembley Pk"},{"icsId":"1014376","id":"490014376D","lat":51.5578,"lon":-0.28567,"name":"Lakeside Way","parentId":"490G00014376","stationId":"490G00014376","stopLetter":"D","topMostParentId":"490G00014376","towards":"Kingsbury Green, Brent Park Or Neasden"},{"icsId":"1014375","id":"490014375E","lat":51.55866,"lon":-0.28303,"name":"Brent Civic Centre","parentId":"490G00014375","stationId":"490G00014375","stopLetter":"E","topMostParentId":"490G00014375","towards":"Brent Park Tesco"},{"icsId":"1010593","id":"490010593E","lat":51.55863,"lon":-0.27782,"name":"Olympic Way","parentId":"490G00010593","stationId":"490G00010593","stopLetter":"->E","topMostParentId":"490G00010593","towards":"Brent Park Tesco"},{"icsId":"1004759","id":"490004759E","lat":51.55931,"lon":-0.27406,"name":"Fifth Way","parentId":"490G00004759","stationId":"490G00004759","stopLetter":"->E","topMostParentId":"490G00004759","towards":"Brent Park Or Harlesden"},{"icsId":"1007677","id":"490007677S","lat":51.55796,"lon":-0.26974,"name":"Atlas Road","parentId":"490G00007677","stationId":"490G00007677","stopLetter":"->S","topMostParentId":"490G00007677","towards":"Brent Park Or Harlesden"},{"icsId":"1004780","id":"490004780S","lat":51.55639,"lon":-0.26967,"name":"Carey Way","parentId":"490G00004780","stationId":"490G00004780","stopLetter":"->S","topMostParentId":"490G00004780","towards":"Brent Park Or Harlesden"},{"icsId":"1007753","id":"490007753E","lat":51.55573,"lon":-0.2642,"name":"Hannah Close","parentId":"490G00007753","stationId":"490G00007753","stopLetter":"->N","topMostParentId":"490G00007753","towards":" Brent Park Or Harlesden"},{"icsId":"1004297","id":"490004297W","lat":51.55343,"lon":-0.2576,"name":"Brent Park Tesco","parentId":"490G00004297","stationId":"490G00004297","stopLetter":"T","topMostParentId":"490G00004297","towards":"Kilburn, Wembley Or St Raphael's Estate"},{"icsId":"1008456","id":"490008456S","lat":51.55344,"lon":-0.26158,"name":"Ikea Brent Park","parentId":"490G00008456","stationId":"490G00008456","stopLetter":"C","topMostParentId":"490G00008456","towards":"Neasden Or St Raphael's Estate"}]}]}