{"direction":"outbound","lineId":"93","lineName":"93","mode":"bus","stopPointSequences":[{"stopPoint":[{"icsId":"1003048","id":"490011236Q","lat":51.36759,"lon":-0.219,"name":"Priory Road","parentId":"490G00003048","stationId":"490G00003048","stopLetter":"Q","topMostParentId":"490G00003048","towards":"Morden"},{"icsId":"1009524","id":"490009524S","lat":51.36644,"lon":-0.22416,"name":"Malden Road / Priory Road","parentId":"490G00009524","stationId":"490G00009524","stopLetter":"S","topMostParentId":"490G00009524","towards":"Morden Or Worcester Park"},{"icsId":"1010335","id":"490010323H","lat":51.37037,"lon":-0.22744,"name":"Church Hill Road","parentId":"490G00010335","stationId":"490G00010335","stopLetter":"H","topMostParentId":"490G00010335","towards":"Morden"},{"icsId":"1010323","id":"490010323C","lat":51.37165,"lon":-0.2274,"name":"North Cheam / Queen Victoria","parentId":"490G00010323","stationId":"490G00010323","stopLetter":"C","topMostParentId":"490G00010323","towards":"Morden"},{"icsId":"1010325","id":"490010325N","lat":51.37487,"lon":-0.22422,"name":"North Cheam Sports Club","parentId":"490G00010325","stationId":"490G00010325","stopLetter":"HJ","topMostParentId":"490G00010325","towards":"Morden Or Sutton Common"},{"icsId":"1008948","id":"490008948N1","lat":51.37644,"lon":-0.22225,"name":"Langley Avenue","parentId":"490G00008948","stationId":"490G00008948","stopLetter":"HK","topMostParentId":"490G00008948","towards":"Morden Or Sutton Common"},{"icsId":"1012580","id":"490012580N","lat":51.37793,"lon":-0.22071,"name":"St Anthony's Hospital","parentId":"490G00012580","stationId":"490G00012580","stopLetter":"HL","topMostParentId":"490G00012580","towards":"Morden"},{"icsId":"1019848","id":"490007130N","lat":51.38096,"lon":-0.21726,"name":"Stonecot Hill / Garth Road","parentId":"490G00019848","stationId":"490G00019848","stopLetter":"HM","topMostParentId":"490G00019848","towards":"Morden Or Lower Morden"},{"icsId":"1004596","id":"490004596N","lat":51.38334,"lon":-0.21453,"name":"Burleigh Road","parentId":"490G00004596","stationId":"490G00004596","stopLetter":"SK","topMostParentId":"490G00004596","towards":"Morden Or Lower Morden"},{"icsId":"1013625","id":"490013608N2","lat":51.38518,"lon":-0.21226,"name":"Sutton Common Road","parentId":"490G00013625","stationId":"490G00013625","stopLetter":"SL","topMostParentId":"490G00013625","towards":"Morden Or Lower Morden"},{"icsId":"1009426","id":"490009426N","lat":51.38698,"lon":-0.21008,"name":"Lower Morden Lane","parentId":"490G00009426","stationId":"490G00009426","stopLetter":"ME","topMostParentId":"490G00009426","towards":"Morden"},{"icsId":"1011821","id":"490011821S2","lat":51.39031,"lon":-0.20604,"name":"Rutland Drive","parentId":"490G00011821","stationId":"490G00011821","stopLetter":"MF","topMostParentId":"490G00011821","towards":"South Wimbledon"},{"icsId":"1020191","id":"490010017N","lat":51.3925,"lon":-0.20367,"name":"South Thames College","parentId":"490G00020191","stationId":"490G00020191","stopLetter":"MH","topMostParentId":"490G00020191","towards":"Hackbridge Or South Wimbledon"},{"icsId":"1004960","id":"490004960N","lat":51.39526,"lon":-0.20192,"name":"Chalgrove Avenue","parentId":"490G00004960","stationId":"490G00004960","stopLetter":"MJ","topMostParentId":"490G00004960","towards":"Hackbridge Or South Wimbledon"},{"icsId":"1001197","id":"490001197A","lat":51.39675,"lon":-0.2005,"name":"Morden South Station","stopLetter":"MK","topMostParentId":"490001197A","towards":"Hackbridge Or South Wimbledon"},{"icsId":"1010019","id":"490010019N","lat":51.39972,"lon":-0.19712,"name":"Morden Court","parentId":"490G00010019","stationId":"490G00010019","stopLetter":"L","topMostParentId":"490G00010019","towards":"Hackbridge Or South Wimbledon"},{"icsId":"1000151","id":"490000151A","lat":51.40208,"lon":-0.19477,"name":"Morden Station","stopLetter":"A","topMostParentId":"490000151A","towards":"Colliers Wood Or Wimbledon","zone":"4"},{"icsId":"1006133","id":"490006133N","lat":51.40721,"lon":-0.1923,"name":"Dorset Road","parentId":"490G000486","stationId":"490G000486","stopLetter":"->N","topMostParentId":"490G000486","towards":"Colliers Wood Or Wimbledon"},{"icsId":"1002060","id":"490002060A","lat":51.40942,"lon":-0.19248,"name":"Morden Road Tram Stop","stopLetter":"SL","topMostParentId":"490002060A","towards":"Colliers Wood Or Wimbledon"},{"icsId":"1015174","id":"490015174A","lat":51.41486,"lon":-0.19281,"name":"Morden Road / South Wimbledon Station","parentId":"490G000867","stationId":"490G000867","stopLetter":"SM","topMostParentId":"490G000867","towards":"Wimbledon Village"},{"icsId":"1009835","id":"490009835I","lat":51.41702,"lon":-0.19261,"name":"Merton Road","parentId":"490G00009835","stationId":"490G00009835","stopLetter":"ST","topMostParentId":"490G00009835","towards":"Raynes Park Or Wimbledon Village"},{"icsId":"1013807","id":"490013807W","lat":51.41938,"lon":-0.19527,"name":"The Polka Theatre","parentId":"490G00013807","stationId":"490G00013807","stopLetter":"SW","topMostParentId":"490G00013807","towards":"Putney Heath Or Raynes Park"},{"icsId":"1014742","id":"490014742Y","lat":51.41929,"lon":-0.201,"name":"Wimbledon Theatre","parentId":"490G00014742","stationId":"490G00014742","stopLetter":"Y","topMostParentId":"490G00014742","towards":"Putney Heath Or Raynes Park"},{"icsId":"1014731","id":"490014731G","lat":51.4188,"lon":-0.20333,"name":"Wimbledon Bus Station","parentId":"490G00014731","stationId":"490G00014731","stopLetter":"G","topMostParentId":"490G00014731"},{"icsId":"1000272","id":"490015472L","lat":51.42029,"lon":-0.20659,"name":"Wimbledon Station","stopLetter":"L","topMostParentId":"490015472L","towards":"Putney Heath Or Raynes Park","zone":"3"},{"icsId":"1014734","id":"490014734R","lat":51.42254,"lon":-0.20922,"name":"Wimbledon Hill Road","parentId":"490G00014734","stationId":"490G00014734","stopLetter":"R","topMostParentId":"HUBWIM","towards":"Southfields, Putney Heath Or Raynes Park"},{"icsId":"1008184","id":"490008184W","lat":51.42479,"lon":-0.21666,"name":"High Street / Wimbledon Village","parentId":"490G00008184","stationId":"490G00008184","stopLetter":"P","topMostParentId":"490G00008184","towards":"Putney Heath Or Southfields"},{"icsId":"1014743","id":"490014743N","lat":51.42566,"lon":-0.22065,"name":"Marryat Road","parentId":"490G00014743","stationId":"490G00014743","stopLetter":"Q","topMostParentId":"490G00014743","towards":"Putney Heath"},{"icsId":"1014745","id":"490014745N","lat":51.42693,"lon":-0.22338,"name":"Wimbledon War Memorial","parentId":"490G00014745","stationId":"490G00014745","stopLetter":"R","topMostParentId":"490G00014745","towards":"Putney Heath"},{"icsId":"1010827","id":"490010827N","lat":51.42887,"lon":-0.22387,"name":"Parkside Avenue","parentId":"490G00010827","stationId":"490G00010827","stopLetter":"S","topMostParentId":"490G00010827","towards":"Putney Heath"},{"icsId":"1004682","id":"490004682N","lat":51.43351,"lon":-0.22439,"name":"Calonne Road","parentId":"490G00004682","stationId":"490G00004682","stopLetter":"T","topMostParentId":"490G00004682","towards":"Putney Heath"},{"icsId":"1010835","id":"490010835N","lat":51.43625,"lon":-0.22463,"name":"Parkside Hospital","parentId":"490G00010835","stationId":"490G00010835","stopLetter":"->N","topMostParentId":"490G00010835","towards":"Putney Heath"},{"icsId":"1011341","id":"490011341N","lat":51.43945,"lon":-0.22439,"name":"Queensmere Road","parentId":"490G00011341","stationId":"490G00011341","stopLetter":"->N","topMostParentId":"490G00011341","towards":"Putney Bridge"},{"icsId":"1003146","id":"490003146N","lat":51.44274,"lon":-0.22343,"name":"Albemarle","parentId":"490G00003146","stationId":"490G00003146","stopLetter":"PX","topMostParentId":"490G00003146","towards":"Putney Bridge"},{"icsId":"1013662","id":"490013662N1","lat":51.44596,"lon":-0.22251,"name":"Tibbet's Corner","parentId":"490G00013662","stationId":"490G00013662","stopLetter":"PK","topMostParentId":"490G00013662","towards":"Putney Bridge"},{"icsId":"1015450","id":"490015450N","lat":51.44924,"lon":-0.22313,"name":"Tibbet's Ride","parentId":"490G00015450","stationId":"490G00015450","stopLetter":"PW","topMostParentId":"490G00015450","towards":"Putney Or Roehampton"},{"icsId":"1011299","id":"490011285N","lat":51.45418,"lon":-0.22026,"name":"Putney Hill / Green Man","parentId":"490G00011299","stationId":"490G00011299","stopLetter":"M","topMostParentId":"490G00011299","towards":"Putney Bridge Or Wandsworth"},{"icsId":"1009494","id":"490012340N","lat":51.45728,"lon":-0.21875,"name":"Lytton Grove","parentId":"490G00009494","stationId":"490G00009494","stopLetter":"N","topMostParentId":"490G00009494","towards":"Putney Bridge Or Wandsworth"},{"icsId":"1004634","id":"490001231N","lat":51.46,"lon":-0.21752,"name":"St John's Avenue","parentId":"490G00004634","stationId":"490G00004634","stopLetter":"C","topMostParentId":"490G00004634"},{"icsId":"1001231","id":"490001231B","lat":51.46147,"lon":-0.21714,"name":"Putney Station","stopLetter":"B","topMostParentId":"490001231B","towards":"Fulham"},{"icsId":"1011289","id":"490011286M","lat":51.46443,"lon":-0.21523,"name":"Putney Exchange","parentId":"490G00011289","stationId":"490G00011289","stopLetter":"M","topMostParentId":"490G00011289","towards":"Fulham"},{"icsId":"1011278","id":"490011278N","lat":51.46686,"lon":-0.21319,"name":"St Mary's Church / Putney Pier","parentId":"490G00011278","stationId":"490G00011278","stopLetter":"T","topMostParentId":"490G00011278","towards":"Putney Bridge Station"},{"icsId":"1000184","id":"490007281E","lat":51.46845,"lon":-0.21078,"name":"Putney Bridge Station","stopLetter":"AP","topMostParentId":"490007281E","zone":"2"}]}]}