{"direction":"outbound","lineId":"96","lineName":"96","mode":"bus","stopPointSequences":[{"stopPoint":[{"icsId":"1004120","id":"2400A070090A","lat":51.43758,"lon":0.275854,"name":"Bluewater Shopping Centre","parentId":"240G070000A","stationId":"240G070000A","stopLetter":"10","topMostParentId":"240G070000A"},{"icsId":"1005958","id":"2400A019210A","lat":51.435374,"lon":0.25973,"name":"Darent Valley Hospital","topMostParentId":"2400A019210A"},{"icsId":"1001082","id":"2400109092","lat":51.446426,"lon":0.217835,"name":"Dartford Station","parentId":"240GHMGRDN","stationId":"240GHMGRDN","stopLetter":"W","topMostParentId":"910GDARTFD","towards":"Crayford"},{"icsId":"1011230","id":"2400109432","lat":51.445495,"lon":0.20999,"name":"Constance Grove","topMostParentId":"2400109432","towards":"Crayford"},{"icsId":"1014474","id":"2400A019690A","lat":51.44592,"lon":0.207492,"name":"West Hill / Shepherds Lane","topMostParentId":"2400A019690A","towards":"Crayford"},{"icsId":"1014476","id":"2400A019700A","lat":51.446804,"lon":0.202065,"name":"West Hill School","topMostParentId":"2400A019700A","towards":"Crayford"},{"icsId":"1007908","id":"2400A019710A","lat":51.447395,"lon":0.198381,"name":"Havelock Road","topMostParentId":"2400A019710A","towards":"Bexleyheath Or Erith"},{"icsId":"1009514","id":"2400A019720A","lat":51.448562,"lon":0.191298,"name":"Maiden Lane","topMostParentId":"2400A019720A","towards":"Bexleyheath, Erith Or West Dartford"},{"icsId":"1008004","id":"490008004W","lat":51.4495,"lon":0.18577,"name":"Heath Road","parentId":"490G00008004","stationId":"490G00008004","stopLetter":"G","topMostParentId":"490G00008004","towards":"Bexleyheath Or Erith"},{"icsId":"1005728","id":"490005728K","lat":51.45028,"lon":0.18067,"name":"Crayford Town Hall","parentId":"490G00005728","stationId":"490G00005728","stopLetter":"M","topMostParentId":"490G00005728","towards":"Bexleyheath Or Erith"},{"icsId":"1005726","id":"490005726F","lat":51.45019,"lon":0.17868,"name":"Crayford Bridge Sainsbury's","parentId":"490G00005726","stationId":"490G00005726","stopLetter":"N","topMostParentId":"490G00005726","towards":"Bexleyheath Or Erith"},{"icsId":"1003980","id":"490003980M","lat":51.45173,"lon":0.17475,"name":"Bexley Lane","parentId":"490G00003980","stationId":"490G00003980","stopLetter":"P","topMostParentId":"490G00003980","towards":"Bexleyheath"},{"icsId":"1016614","id":"490016614Z","lat":51.45215,"lon":0.1709,"name":"Bourne Road","parentId":"490G00016614","stationId":"490G00016614","stopLetter":"->W","topMostParentId":"490G00016614","towards":"Bexleyheath"},{"icsId":"1004000","id":"490004000W","lat":51.45239,"lon":0.16805,"name":"Bigs Hill Wood","parentId":"490G00004000","stationId":"490G00004000","stopLetter":"Q","topMostParentId":"490G00004000","towards":"Bexleyheath"},{"icsId":"1010587","id":"490010577W","lat":51.45326,"lon":0.1632,"name":"Old Road","parentId":"490G00010587","stationId":"490G00010587","stopLetter":"R","topMostParentId":"490G00010587","towards":"Bexleyheath"},{"icsId":"1010773","id":"490010773E1","lat":51.45427,"lon":0.15777,"name":"Park Grove","parentId":"490G00010773","stationId":"490G00010773","stopLetter":"A","topMostParentId":"490G00010773","towards":"Welling"},{"icsId":"1011016","id":"490011016W2","lat":51.45489,"lon":0.15438,"name":"Civic Centre","parentId":"490G00011016","stationId":"490G00011016","stopLetter":"B","topMostParentId":"490G00011016","towards":"Welling"},{"icsId":"1003972","id":"490003972W","lat":51.45579,"lon":0.15006,"name":"Bexleyheath / Highland Road","parentId":"490G00003972","stationId":"490G00003972","stopLetter":"Y","topMostParentId":"490G00003972","towards":"Erith Or Welling"},{"icsId":"1003975","id":"490003975M","lat":51.45648,"lon":0.14643,"name":"Bexleyheath Clock Tower","parentId":"490G00003975","stationId":"490G00003975","stopLetter":"M","topMostParentId":"490G00003975","towards":"Sidcup, Welling Or Bexleyheath Station"},{"icsId":"1003973","id":"490003973A","lat":51.45723,"lon":0.13998,"name":"Trinity Place","parentId":"490G00003973","stationId":"490G00003973","stopLetter":"A","topMostParentId":"490G00003973","towards":"Sidcup, Welling Or Bexleyheath Station"},{"icsId":"1009203","id":"490009203C","lat":51.45791,"lon":0.13523,"name":"Bexleyheath / Lion Road","parentId":"490G00009203","stationId":"490G00009203","stopLetter":"BM","topMostParentId":"490G00009203","towards":"Bexleyheath Station Or Welling"},{"icsId":"1013960","id":"490013960W","lat":51.45839,"lon":0.13194,"name":"Upton Road","parentId":"490G00013960","stationId":"490G00013960","stopLetter":"BN","topMostParentId":"490G00013960","towards":"Sidcup, Welling Or Bexleyheath Station"},{"icsId":"1005805","id":"490005805W","lat":51.45898,"lon":0.1283,"name":"Crook Log / Dallin Road","parentId":"490G00005805","stationId":"490G00005805","stopLetter":"BQ","topMostParentId":"490G00005805","towards":"Sidcup Or Welling"},{"icsId":"1019789","id":"490016645W","lat":51.4598,"lon":0.12315,"name":"Park View Road / Crook Log","parentId":"490G00019789","stationId":"490G00019789","stopLetter":"BT","topMostParentId":"490G00019789","towards":"Shooters Hill, Falconwood Or Plumstead"},{"icsId":"1003948","id":"490003948W","lat":51.46036,"lon":0.12013,"name":"Bethel Road","parentId":"490G00003948","stationId":"490G00003948","stopLetter":"BU","topMostParentId":"490G00003948","towards":"Falconwood, Plumstead Or Shooters Hill"},{"icsId":"1007611","id":"490007611W","lat":51.4608,"lon":0.11688,"name":"Guy, Earl of Warwick","parentId":"490G00007611","stationId":"490G00007611","stopLetter":"BV","topMostParentId":"490G00007611","towards":"Falconwood, Plumstead Or Shooters Hill"},{"icsId":"1014353","id":"490014353R","lat":51.46224,"lon":0.10894,"name":"Welling High Street / Upper Wickham Lane","parentId":"490G00014353","stationId":"490G00014353","stopLetter":"R","topMostParentId":"490G00014353","towards":"Falconwood, Plumstead Or Shooters Hill"},{"icsId":"1014352","id":"490014352M","lat":51.46295,"lon":0.10772,"name":"Upper Wickham Lane / Coton Road","parentId":"490G00014352","stationId":"490G00014352","stopLetter":"M","topMostParentId":"490G00014352","towards":"Plumstead"},{"icsId":"1004601","id":"490004601N","lat":51.46513,"lon":0.10944,"name":"Upper Wickham Lane / Burnell Avenue","parentId":"490G00004601","stationId":"490G00004601","stopLetter":"Q","topMostParentId":"490G00004601","towards":"Plumstead"},{"icsId":"1006374","id":"490006374N","lat":51.46714,"lon":0.11038,"name":"East Road","parentId":"490G00006374","stationId":"490G00006374","stopLetter":"C","topMostParentId":"490G00006374","towards":"Plumstead"},{"icsId":"1009398","id":"490009398N","lat":51.46938,"lon":0.10993,"name":"Lovel Avenue","parentId":"490G00009398","stationId":"490G00009398","stopLetter":"D","topMostParentId":"490G00009398","towards":"Plumstead"},{"icsId":"1014654","id":"490014654N","lat":51.47174,"lon":0.11092,"name":"Upper Wickham Lane / Wickham Street","parentId":"490G00014654","stationId":"490G00014654","stopLetter":"E","topMostParentId":"490G00014654","towards":"Plumstead"},{"icsId":"1006911","id":"490006911N","lat":51.47487,"lon":0.10948,"name":"Foresters Arms","parentId":"490G00006911","stationId":"490G00006911","stopLetter":"F","topMostParentId":"490G00006911","towards":"Plumstead"},{"icsId":"1009212","id":"490009212N","lat":51.47763,"lon":0.10644,"name":"Littledale","parentId":"490G00009212","stationId":"490G00009212","stopLetter":"G","topMostParentId":"490G00009212","towards":"Plumstead"},{"icsId":"1008782","id":"490008782N","lat":51.47866,"lon":0.10449,"name":"King's Highway","parentId":"490G00008782","stationId":"490G00008782","stopLetter":"H","topMostParentId":"490G00008782","towards":"Plumstead"},{"icsId":"1011819","id":"490011819N","lat":51.4818,"lon":0.10159,"name":"Rutherglen Road","parentId":"490G00011819","stationId":"490G00011819","stopLetter":"WN","topMostParentId":"490G00011819","towards":"Plumstead"},{"icsId":"1011075","id":"490011075W2","lat":51.48564,"lon":0.10111,"name":"Plumstead Corner / Rockmount Road","parentId":"490G00011075","stationId":"490G00011075","stopLetter":"WD","topMostParentId":"490G00011075","towards":"Woolwich"},{"icsId":"1001969","id":"490011077W","lat":51.48661,"lon":0.09601,"name":"Plumstead High St / the Plumstead Centre","parentId":"490G000293","stationId":"490G000293","stopLetter":"WH","topMostParentId":"490G000293","towards":"Woolwich"},{"icsId":"1003584","id":"490003584O","lat":51.48719,"lon":0.0932,"name":"Bannockburn Road","parentId":"490G00003584","stationId":"490G00003584","stopLetter":"WJ","topMostParentId":"490G00003584","towards":"Woolwich"},{"icsId":"1008908","id":"490008908S","lat":51.48784,"lon":0.09045,"name":"Lakedale Road","parentId":"490G00008908","stationId":"490G00008908","stopLetter":"WK","topMostParentId":"490G00008908","towards":"Woolwich"},{"icsId":"1019871","id":"490001227F","lat":51.49033,"lon":0.08381,"name":"Plumstead Road / Plumstead Station","parentId":"490G000959","stationId":"490G000959","stopLetter":"WL","topMostParentId":"490G000959","towards":"Woolwich"},{"icsId":"1014924","id":"490014924D","lat":51.4909,"lon":0.08027,"name":"Greenwich Community College","parentId":"490G00014924","stationId":"490G00014924","stopLetter":"WP","topMostParentId":"490G00014924","towards":"Queen Elizabeth Hosp, Charlton Or Shooters Hill"},{"icsId":"1009723","id":"490009723W","lat":51.49087,"lon":0.07687,"name":"Maxey Road","parentId":"490G00009723","stationId":"490G00009723","stopLetter":"->W","topMostParentId":"490G00009723","towards":"Queen Elizabeth Hosp, Charlton Or Shooters Hill"},{"icsId":"1002162","id":"490014934W","lat":51.49119,"lon":0.07072,"name":"Woolwich","parentId":"910GWOLWXR","stationId":"910GWOLWXR","stopLetter":"Z","topMostParentId":"910GWOLWXR","towards":"Blackheath Or Queen Elizabeth Hospital"},{"icsId":"1001344","id":"490001344H","lat":51.4902,"lon":0.06896,"name":"Woolwich Arsenal Station","stopLetter":"H","topMostParentId":"490001344H","towards":"Blackheath"},{"icsId":"1013616","id":"490013616W","lat":51.49078,"lon":0.06585,"name":"Thomas Street","parentId":"490G000798","stationId":"490G000798","stopLetter":"W","topMostParentId":"490G000798"}]}]}