{"direction":"outbound","lineId":"969","lineName":"969","mode":"bus","stopPointSequences":[{"stopPoint":[{"icsId":"1014630","id":"490014630X","lat":51.44992,"lon":-0.34901,"name":"Gladstone Avenue Whitton","parentId":"490G00014630","stationId":"490G00014630","topMostParentId":"490G00014630"},{"icsId":"1014628","id":"490014628N","lat":51.44663,"lon":-0.35195,"name":"Lincoln Avenue Whitton","parentId":"490G00014628","stationId":"490G00014628","topMostParentId":"490G00014628"},{"icsId":"1000357","id":"490000357Z","lat":51.44516,"lon":-0.35466,"name":"Gloucester Road / Whitton","parentId":"490G000008","stationId":"490G000008","stopLetter":"->W","topMostParentId":"490G000008"},{"icsId":"1023077","id":"490023077W","lat":51.44366,"lon":-0.35772,"name":"Crane Park","parentId":"490G00023077","stationId":"490G00023077","stopLetter":"->W","topMostParentId":"490G00023077"},{"icsId":"1023078","id":"490023078N","lat":51.44342,"lon":-0.36153,"name":"Selkirk Road","parentId":"490G00023078","stationId":"490G00023078","stopLetter":"->N","topMostParentId":"490G00023078"},{"icsId":"1002235","id":"490002235Z","lat":51.45431,"lon":-0.33604,"name":"Marlow Crescent","parentId":"490G00002235","stationId":"490G00002235","stopLetter":"->E","topMostParentId":"490G00002235","towards":"St Margarets"},{"icsId":"1002234","id":"490002234Z","lat":51.45634,"lon":-0.32933,"name":"Cole Park Road","parentId":"490G00002234","stationId":"490G00002234","stopLetter":"->E","topMostParentId":"490G00002234","towards":"St Margarets"},{"icsId":"1002233","id":"490002233Z","lat":51.45707,"lon":-0.32501,"name":"St Stephen's C of E Primary School","parentId":"490G00002233","stationId":"490G00002233","stopLetter":"->E","topMostParentId":"490G00002233","towards":"St Margarets"},{"icsId":"1001270","id":"490001270A","lat":51.45505,"lon":-0.3195,"name":"St Margaret's Station","stopLetter":"P","topMostParentId":"490001270A","towards":"Richmond"},{"icsId":"1011922","id":"490011922E","lat":51.45429,"lon":-0.31609,"name":"Sandycoombe Road","parentId":"490G00011922","stationId":"490G00011922","stopLetter":"Q","topMostParentId":"490G00011922","towards":"Richmond"},{"icsId":"1011109","id":"490011109E","lat":51.45483,"lon":-0.31243,"name":"Poplar Court","parentId":"490G00011109","stationId":"490G00011109","stopLetter":"R","topMostParentId":"490G00011109","towards":"Richmond"},{"icsId":"1005755","id":"490005755E","lat":51.45589,"lon":-0.30981,"name":"Cresswell Road","parentId":"490G00005755","stationId":"490G00005755","stopLetter":"W","topMostParentId":"490G00005755","towards":"Barnes Or Richmond Station"},{"icsId":"1007166","id":"490007166B","lat":51.46071,"lon":-0.30474,"name":"George Street","parentId":"490G00007166","stationId":"490G00007166","stopLetter":"B","topMostParentId":"490G00007166","towards":"Hammersmith Or Kew"},{"icsId":"1012050","id":"490012050G","lat":51.4613,"lon":-0.30197,"name":"Eton Street","parentId":"490G00012050","stationId":"490G00012050","stopLetter":"G","topMostParentId":"490G00012050","towards":"Barnes, Ham Or Putney"},{"icsId":"1012051","id":"490012051E","lat":51.46192,"lon":-0.29655,"name":"Church Road","parentId":"490G00012051","stationId":"490G00012051","stopLetter":"->E","topMostParentId":"490G00012051","towards":"Hammersmith, Putney Or Roehampton"},{"icsId":"1012452","id":"490012452SH","lat":51.46208,"lon":-0.29136,"name":"St Mary's Grove","parentId":"490G00012452","stationId":"490G00012452","stopLetter":"SH","topMostParentId":"490G00012452","towards":"Barnes, Putney Or Roehampton"},{"icsId":"1006377","id":"490006377SD","lat":51.4618,"lon":-0.28747,"name":"Manor Road / North Sheen Station","parentId":"490G00006377","stationId":"490G00006377","stopLetter":"SD","topMostParentId":"490G00006377","towards":"Barnes, Putney Or Roehampton"},{"icsId":"1012046","id":"490012046E","lat":51.46327,"lon":-0.28278,"name":"Sheen Court","parentId":"490G00012046","stationId":"490G00012046","stopLetter":"S","topMostParentId":"490G00012046","towards":"Barnes, Putney Or Roehampton"},{"icsId":"1003941","id":"490005407E","lat":51.46426,"lon":-0.27871,"name":"Berwyn Road","parentId":"490G00003941","stationId":"490G00003941","stopLetter":"T","topMostParentId":"490G00003941","towards":"Barnes, Putney Or Roehampton"},{"icsId":"1007332","id":"490007332E","lat":51.46432,"lon":-0.27534,"name":"Graemesdyke Avenue","parentId":"490G00007332","stationId":"490G00007332","stopLetter":"U","topMostParentId":"490G00007332","towards":"Barnes, Putney Or Roehampton"},{"icsId":"1013196","id":"490013196E","lat":51.46422,"lon":-0.27177,"name":"Temple Sheen Road","parentId":"490G00013196","stationId":"490G00013196","stopLetter":"V","topMostParentId":"490G00013196","towards":"Barnes, Putney Or Roehampton"},{"icsId":"1012049","id":"490012049E","lat":51.46453,"lon":-0.26819,"name":"East Sheen","parentId":"490G00012049","stationId":"490G00012049","stopLetter":"C","topMostParentId":"490G00012049","towards":"Barnes, Putney Or Roehampton"},{"icsId":"1012045","id":"490012045E","lat":51.46584,"lon":-0.26697,"name":"Mortlake Station","parentId":"490G00012045","stationId":"490G00012045","stopLetter":"E","topMostParentId":"490G00012045","towards":"Roehampton"},{"icsId":"1010046","id":"490010046E","lat":51.4699,"lon":-0.26424,"name":"Sheen Lane / Mortlake Station","parentId":"490G00010046","stationId":"490G00010046","stopLetter":"A","topMostParentId":"490G00010046","towards":"Hammersmith Bridge Or Putney"},{"icsId":"1002152","id":"490003516E","lat":51.46992,"lon":-0.25953,"name":"Avondale Road","parentId":"490G000373","stationId":"490G000373","stopLetter":"S","topMostParentId":"490G000373","towards":"Hammersmith Bridge Or Putney"},{"icsId":"1014596","id":"490014596E","lat":51.4705,"lon":-0.25688,"name":"White Hart Lane","parentId":"490G00014596","stationId":"490G00014596","stopLetter":"T","topMostParentId":"490G00014596","towards":"Hammersmith Bridge Or Putney"},{"icsId":"1001015","id":"490001015BK","lat":51.47256,"lon":-0.25288,"name":"Barnes Bridge Station","stopLetter":"BK","topMostParentId":"490001015BK","towards":"Hammersmith Bridge Or Putney"},{"icsId":"1003630","id":"490003630ZZ","lat":51.47351,"lon":-0.25057,"name":"Barnes High Street","parentId":"490G00003630","stationId":"490G00003630","stopLetter":"->E","topMostParentId":"490G00003630","towards":"Hammersmith Bridge, Putney Or Roehampton"},{"icsId":"1003632","id":"490003632BF","lat":51.47388,"lon":-0.24677,"name":"Barnes Pond","parentId":"490G00003632","stationId":"490G00003632","stopLetter":"BF","topMostParentId":"490G00003632","towards":"Hammersmith Bridge"},{"icsId":"1007216","id":"490007216BE","lat":51.47443,"lon":-0.24371,"name":"Glebe Road","parentId":"490G00007216","stationId":"490G00007216","stopLetter":"BE","topMostParentId":"490G00007216","towards":"Hammersmith Bridge"},{"icsId":"1005298","id":"490005298WS","lat":51.47471,"lon":-0.23878,"name":"Church Road / Red Lion","parentId":"490G00005298","stationId":"490G00005298","stopLetter":"WS","topMostParentId":"490G00005298","towards":"Roehampton Or Sheen"},{"icsId":"1011420","id":"490011420WT","lat":51.47286,"lon":-0.23754,"name":"Ranelagh Avenue","parentId":"490G00011420","stationId":"490G00011420","stopLetter":"WT","topMostParentId":"490G00011420","towards":"Roehampton Or Sheen"},{"icsId":"1001014","id":"490001014B","lat":51.46665,"lon":-0.24202,"name":"Barnes Station","stopLetter":"B","topMostParentId":"490001014B","towards":"Roehampton Or Sheen"},{"icsId":"1011642","id":"490011642F","lat":51.4652,"lon":-0.24468,"name":"Queen's Ride","parentId":"490G00011642","stationId":"490G00011642","stopLetter":"M","topMostParentId":"490G00011642","towards":"Richmond"},{"icsId":"1000358","id":"490000358Z","lat":51.46429,"lon":-0.24885,"name":"Priory Lane / Arabella Drive","parentId":"490G000009","stationId":"490G000009","stopLetter":"->S","topMostParentId":"490G000009"},{"icsId":"1000359","id":"490000359Z","lat":51.46369,"lon":-0.25123,"name":"Paddock Secondary School","parentId":"490G000010","stationId":"490G000010","stopLetter":"->W","topMostParentId":"490G000010"},{"icsId":"1000360","id":"490000360Z","lat":51.46507,"lon":-0.25298,"name":"Ludovik Walk","parentId":"490G000011","stationId":"490G000011","stopLetter":"->E","topMostParentId":"490G000011"},{"icsId":"1011231","id":"490011231Z","lat":51.46465,"lon":-0.24977,"name":"Arabella Drive","parentId":"490G00011231","stationId":"490G00011231","stopLetter":"->E","topMostParentId":"490G00011231"},{"icsId":"1011642","id":"490011642E","lat":51.46532,"lon":-0.2451,"name":"Queens Ride","parentId":"490G00011642","stationId":"490G00011642","stopLetter":"E","topMostParentId":"490G00011642","towards":"Hammersmith, Putney Or Roehampton"},{"icsId":"1011715","id":"490011715D","lat":51.46406,"lon":-0.24381,"name":"Rosslyn Park Rugby Football Club","parentId":"490G00011715","stationId":"490G00011715","stopLetter":"P","topMostParentId":"490G00011715","towards":"Roehampton"},{"icsId":"1006697","id":"490006697S","lat":51.46191,"lon":-0.24339,"name":"Fairacres","parentId":"490G00006697","stationId":"490G00006697","stopLetter":"R","topMostParentId":"490G00006697","towards":"Roehampton"},{"icsId":"1006083","id":"490006083S","lat":51.45896,"lon":-0.24298,"name":"Roehampton University / Main Entrance","parentId":"490G00006083","stationId":"490G00006083","stopLetter":"U","topMostParentId":"490G00006083","towards":"Kingston Vale Or Putney Heath"},{"icsId":"1015037","id":"490015037S","lat":51.45639,"lon":-0.24272,"name":"Queen Mary's Hospital","parentId":"490G00015037","stationId":"490G00015037","stopLetter":"V","topMostParentId":"490G00015037","towards":"Kingston Vale Or Putney Heath"},{"icsId":"1011322","id":"490011322T","lat":51.45345,"lon":-0.24367,"name":"Clarence Lane","parentId":"490G00011322","stationId":"490G00011322","stopLetter":"T","topMostParentId":"490G00011322","towards":"Kingston Vale Or Putney Heath"},{"icsId":"1003134","id":"490003134M","lat":51.44935,"lon":-0.23893,"name":"Roehampton Lane / Danebury Avenue","parentId":"490G00003134","stationId":"490G00003134","stopLetter":"M","topMostParentId":"490G00003134","towards":"Kingston Vale"},{"icsId":"1009745","id":"490009745S","lat":51.44836,"lon":-0.23667,"name":"Mayfield Surgery","parentId":"490G00009745","stationId":"490G00009745","stopLetter":"Q","topMostParentId":"490G00009745","towards":"New Malden Or Norbiton"},{"icsId":"1014181","id":"490014181S","lat":51.44575,"lon":-0.23472,"name":"Wanborough Drive","parentId":"490G00014181","stationId":"490G00014181","stopLetter":"RS","topMostParentId":"490G00014181","towards":"New Malden Or Norbiton"},{"icsId":"1011292","id":"490011292W","lat":51.44181,"lon":-0.24157,"name":"Putney Vale Cemetery","parentId":"490G00011292","stationId":"490G00011292","stopLetter":"PT","topMostParentId":"490G00011292","towards":"New Malden Or Norbiton"},{"icsId":"1014489","id":"490014489W","lat":51.44082,"lon":-0.24406,"name":"West Lodge","parentId":"490G00014489","stationId":"490G00014489","stopLetter":"PU","topMostParentId":"490G00014489","towards":"New Malden Or Norbiton"},{"icsId":"1008832","id":"490008832S2","lat":51.43879,"lon":-0.2477,"name":"Roehampton Vale / Asda","parentId":"490G00008832","stationId":"490G00008832","stopLetter":"PA","topMostParentId":"490G00008832","towards":"Norbiton"}]}]}