{"direction":"outbound","lineId":"97","lineName":"97","mode":"bus","stopPointSequences":[{"stopPoint":[{"icsId":"1001063","id":"490001063C","lat":51.63354,"lon":0.01052,"name":"Chingford Station","stopLetter":"C","topMostParentId":"490001063C","towards":"Chingford Mount Or Woodford Wells"},{"icsId":"1012617","id":"490012617E","lat":51.63303,"lon":0.00865,"name":"Station Road / Chingford Station","parentId":"490G000764","stationId":"490G000764","stopLetter":"E","topMostParentId":"490G000764","towards":"Chingford Hospital, Chingford Mount Or Ponders End"},{"icsId":"1012558","id":"490012558G","lat":51.63178,"lon":0.00522,"name":"Stanley Road","parentId":"490G00012558","stationId":"490G00012558","stopLetter":"G","topMostParentId":"490G00012558","towards":"Chingford Mount, Chingford Hatch Or Ponders End"},{"icsId":"1012619","id":"490012619J","lat":51.63089,"lon":0.00211,"name":"Station Road / the Green","parentId":"490G00012619","stationId":"490G00012619","stopLetter":"J","topMostParentId":"490G00012619","towards":"Chingford Mount, Ponders End Or Yardley Lane Est"},{"icsId":"1008781","id":"490008781Q","lat":51.63086,"lon":-0.00192,"name":"Kings Head Hill","parentId":"490G00008781","stationId":"490G00008781","stopLetter":"Q","topMostParentId":"490G00008781","towards":"Chingford Mount"},{"icsId":"1005171","id":"490005171S","lat":51.62955,"lon":-0.00361,"name":"Chingford Fire Station","parentId":"490G00005171","stationId":"490G00005171","stopLetter":"T","topMostParentId":"490G00005171","towards":"Chingford Mount"},{"icsId":"1006570","id":"490006570S","lat":51.62686,"lon":-0.00822,"name":"Endlebury Road","parentId":"490G00006570","stationId":"490G00006570","stopLetter":"M","topMostParentId":"490G00006570","towards":"Chingford Mount"},{"icsId":"1009611","id":"490009611W","lat":51.62705,"lon":-0.01115,"name":"Mansfield Hill","parentId":"490G00009611","stationId":"490G00009611","stopLetter":"N","topMostParentId":"490G00009611","towards":"Chingford Mount"},{"icsId":"1005169","id":"490005169S","lat":51.62555,"lon":-0.01472,"name":"Ridgeway Park","parentId":"490G00005169","stationId":"490G00005169","stopLetter":"Q","topMostParentId":"490G00005169","towards":"Walthamstow"},{"icsId":"1005181","id":"490005181S","lat":51.62364,"lon":-0.01655,"name":"Chingford Old Church","parentId":"490G00005181","stationId":"490G00005181","stopLetter":"Z","topMostParentId":"490G00005181","towards":"Walthamstow"},{"icsId":"1003270","id":"490003270B","lat":51.62024,"lon":-0.01701,"name":"Alpha Road","parentId":"490G00003270","stationId":"490G00003270","stopLetter":"B","topMostParentId":"490G00003270","towards":"Walthamstow"},{"icsId":"1007676","id":"490007676J","lat":51.61663,"lon":-0.01735,"name":"Hall Lane","parentId":"490G000561","stationId":"490G000561","stopLetter":"J","topMostParentId":"490G000561","towards":"Blackhorse Road Or Walthamstow"},{"icsId":"1008981","id":"490008981S","lat":51.61354,"lon":-0.01741,"name":"Larkswood Road","parentId":"490G00008981","stationId":"490G00008981","stopLetter":"U","topMostParentId":"490G00008981","towards":"Blackhorse Road Or Walthamstow"},{"icsId":"1003124","id":"490003124S","lat":51.61219,"lon":-0.01785,"name":"Ainslie Wood Road","parentId":"490G00003124","stationId":"490G00003124","stopLetter":"V","topMostParentId":"490G00003124","towards":"Blackhorse Road Or Walthamstow"},{"icsId":"1009091","id":"490009091S","lat":51.60961,"lon":-0.01747,"name":"Leonard Road","parentId":"490G00009091","stationId":"490G00009091","stopLetter":"->S","topMostParentId":"490G00009091","towards":"Blackhorse Road Or Walthamstow"},{"icsId":"1008132","id":"490008132S","lat":51.60738,"lon":-0.01669,"name":"Higham Station Avenue","parentId":"490G00008132","stationId":"490G00008132","stopLetter":"->S","topMostParentId":"490G00008132","towards":"Blackhorse Road Or Walthamstow"},{"icsId":"1011741","id":"490011741S","lat":51.6052,"lon":-0.01635,"name":"Rowden Park Gardens","parentId":"490G00011741","stationId":"490G00011741","stopLetter":"CC","topMostParentId":"490G00011741","towards":"Blackhorse Road Or Walthamstow"},{"icsId":"1014170","id":"490014170S","lat":51.60366,"lon":-0.01634,"name":"Walthamstow Stadium","parentId":"490G00014170","stationId":"490G00014170","stopLetter":"CD","topMostParentId":"490G00014170","towards":"Blackhorse Road Or Walthamstow"},{"icsId":"1005781","id":"490005781S","lat":51.5996,"lon":-0.01591,"name":"Walthamstow / Crooked Billet Roundabout","parentId":"490G00005781","stationId":"490G00005781","stopLetter":"CE","topMostParentId":"490G00005781","towards":"Walthamstow Central"},{"icsId":"1004303","id":"490004303S","lat":51.5977,"lon":-0.01506,"name":"Brettenham Road","parentId":"490G00004303","stationId":"490G00004303","stopLetter":"CF","topMostParentId":"490G00004303","towards":"Walthamstow Central"},{"icsId":"1012179","id":"490012179S","lat":51.59504,"lon":-0.01575,"name":"Sir George Monoux College","parentId":"490G00012179","stationId":"490G00012179","stopLetter":"BK","topMostParentId":"490G00012179","towards":"Walthamstow Central"},{"icsId":"1014158","id":"490014158S","lat":51.59378,"lon":-0.01748,"name":"Aveling Park Road","parentId":"490G00014158","stationId":"490G00014158","stopLetter":"BL","topMostParentId":"490G00014158","towards":"Walthamstow Central"},{"icsId":"1014163","id":"490014163S","lat":51.59062,"lon":-0.01731,"name":"Forest Road / Bell Corner","parentId":"490G00014163","stationId":"490G00014163","stopLetter":"BM","topMostParentId":"490G00014163","towards":"Walthamstow Central"},{"icsId":"1004518","id":"490004518S","lat":51.58849,"lon":-0.02032,"name":"Jewel Road","parentId":"490G00004518","stationId":"490G00004518","stopLetter":"BN","topMostParentId":"490G00004518","towards":"Bakers Arms"},{"icsId":"1014165","id":"490014165J","lat":51.58536,"lon":-0.01948,"name":"Walthamstow Market","parentId":"490G00014165","stationId":"490G00014165","stopLetter":"J","topMostParentId":"490G00014165","towards":"Bakers Arms"},{"icsId":"1000249","id":"490000249XX","lat":51.58298,"lon":-0.01831,"name":"Walthamstow Central Station","stopLetter":"V","topMostParentId":"490000249XX","towards":"Bakers Arms","zone":"3"},{"icsId":"1007547","id":"490007547S","lat":51.57945,"lon":-0.01799,"name":"Grosvenor Park Road","parentId":"490G00007547","stationId":"490G00007547","stopLetter":"K","topMostParentId":"490G00007547","towards":"Clapton, Leyton Or Whipps Cross"},{"icsId":"1007576","id":"490007576S","lat":51.57758,"lon":-0.01637,"name":"Grove Road","parentId":"490G00007576","stationId":"490G00007576","stopLetter":"SJ","topMostParentId":"490G00007576","towards":"Clapton, Leyton Or Whipps Cross"},{"icsId":"1015099","id":"490015099A","lat":51.5762,"lon":-0.0148,"name":"Bakers Avenue","parentId":"490G00015099","stationId":"490G00015099","stopLetter":"SK","topMostParentId":"490G00015099","towards":"Clapton, Leyton Or Whipps Cross"},{"icsId":"1009133","id":"490009133G","lat":51.57433,"lon":-0.01069,"name":"Leyton Green","parentId":"490G00009133","stationId":"490G00009133","stopLetter":"SL","topMostParentId":"490G00009133","towards":"Leyton Station, Leytonstone Or Stratford"},{"icsId":"1005459","id":"490005459S","lat":51.57256,"lon":-0.00832,"name":"Colchester Road","parentId":"490G00005459","stationId":"490G00005459","stopLetter":"SM","topMostParentId":"490G00005459","towards":"Leytonstone Or Stratford"},{"icsId":"1001178","id":"490001178S","lat":51.56943,"lon":-0.00822,"name":"Leyton Midland Road Station","stopLetter":"SN","topMostParentId":"490001178S","towards":"Leytonstone Or Stratford"},{"icsId":"1007653","id":"490007653S","lat":51.56801,"lon":-0.00857,"name":"Leyton Sports Ground","parentId":"490G00007653","stationId":"490G00007653","stopLetter":"SP","topMostParentId":"490G00007653","towards":"Leytonstone Or Stratford"},{"icsId":"1014044","id":"490014044S","lat":51.56519,"lon":-0.01082,"name":"Vicarage Road","parentId":"490G00014044","stationId":"490G00014044","stopLetter":"S","topMostParentId":"490G00014044","towards":"Stratford"},{"icsId":"1007350","id":"490007350P","lat":51.56322,"lon":-0.01077,"name":"Grange Park Road","parentId":"490G00007350","stationId":"490G00007350","stopLetter":"P","topMostParentId":"490G00007350","towards":"Forest Gate Or Stratford"},{"icsId":"1004557","id":"490004557L","lat":51.56052,"lon":-0.00966,"name":"Buckingham Road","parentId":"490G00004557","stationId":"490G00004557","stopLetter":"L","topMostParentId":"490G00004557","towards":"Forest Gate Or Stratford"},{"icsId":"1009137","id":"490009137J","lat":51.55907,"lon":-0.00745,"name":"Leyton Library","parentId":"490G00009137","stationId":"490G00009137","stopLetter":"J","topMostParentId":"490G00009137","towards":"Forest Gate Or Stratford"},{"icsId":"1000136","id":"490000136A","lat":51.55608,"lon":-0.00555,"name":"Leyton Station","stopLetter":"A","topMostParentId":"490000136A","towards":"Forest Gate Or Stratford","zone":"3"},{"icsId":"1006178","id":"490006178S","lat":51.55391,"lon":-0.00514,"name":"Millais Road","parentId":"490G00006178","stationId":"490G00006178","stopLetter":"S","topMostParentId":"490G00006178","towards":"Forest Gate Or Stratford"},{"icsId":"1013194","id":"490013194S","lat":51.55192,"lon":-0.00441,"name":"Drapers Field","parentId":"490G00013194","stationId":"490G00013194","stopLetter":"G","topMostParentId":"490G00013194","towards":"Forest Gate Or Stratford"},{"icsId":"1020129","id":"490020129S","lat":51.54767,"lon":-0.00811,"name":"Chobham Academy","parentId":"490G00020129","stationId":"490G00020129","stopLetter":"Y","topMostParentId":"490G00020129","towards":"Stratford City"},{"icsId":"1001556","id":"490002268ZZ","lat":51.54582,"lon":-0.00809,"name":"Stratford International Station","stopLetter":"D","topMostParentId":"490002268ZZ","towards":"Stratford City"},{"icsId":"1020130","id":"490020130S","lat":51.543159,"lon":-0.010019,"name":"Westfield Avenue","topMostParentId":"490020130S","towards":"Stratford City Bus Station"},{"icsId":"1019793","id":"490019793S","lat":51.54332,"lon":-0.00397,"name":"Stratford City Bus Station","parentId":"490G00019793","stationId":"490G00019793","stopLetter":"S","topMostParentId":"HUBSRA","towards":"Stratford International"}]}]}