{"direction":"outbound","lineId":"98","lineName":"98","mode":"bus","stopPointSequences":[{"stopPoint":[{"icsId":"1014703","id":"490014687N","lat":51.5477,"lon":-0.2402,"name":"Pound Lane / Willesden Bus Garage","parentId":"490G00014703","stationId":"490G00014703","stopLetter":"WX","topMostParentId":"490G00014703","towards":"Willesden Green, Cricklewood Or Neasden"},{"icsId":"1014687","id":"490014687E","lat":51.54856,"lon":-0.2382,"name":"Willesden Bus Garage","parentId":"490G00014687","stationId":"490G00014687","stopLetter":"WN","topMostParentId":"490G00014687","towards":"Cricklewood, Kensal Rise Or Kilburn"},{"icsId":"1014088","id":"490014088N","lat":51.54731,"lon":-0.23292,"name":"Villiers Road","parentId":"490G00014088","stationId":"490G00014088","stopLetter":"S","topMostParentId":"490G00014088","towards":"Cricklewood, Kensal Rise Or Kilburn"},{"icsId":"1014691","id":"490014691M","lat":51.54709,"lon":-0.2301,"name":"Willesden Green Library","parentId":"490G00014691","stationId":"490G00014691","stopLetter":"Q","topMostParentId":"490G00014691","towards":"Cricklewood Or Kilburn"},{"icsId":"1014693","id":"490014693E","lat":51.54729,"lon":-0.22361,"name":"Walm Lane","parentId":"490G00014693","stationId":"490G00014693","stopLetter":"E","topMostParentId":"490G00014693","towards":"Kilburn"},{"icsId":"1012148","id":"490012148E","lat":51.54692,"lon":-0.2205,"name":"Sidmouth Road","parentId":"490G00012148","stationId":"490G00012148","stopLetter":"A","topMostParentId":"490G00012148","towards":"Kilburn"},{"icsId":"1014991","id":"490014991E","lat":51.54628,"lon":-0.21663,"name":"Yates Court","parentId":"490G00014991","stationId":"490G00014991","stopLetter":"B","topMostParentId":"490G00014991","towards":"Kilburn"},{"icsId":"1006023","id":"490006023E1","lat":51.54532,"lon":-0.21416,"name":"Deerhurst Road","parentId":"490G00006023","stationId":"490G00006023","stopLetter":"C","topMostParentId":"490G00006023","towards":"Kilburn"},{"icsId":"1005226","id":"490005226E","lat":51.54374,"lon":-0.20943,"name":"Christchurch","parentId":"490G00005226","stationId":"490G00005226","stopLetter":"D","topMostParentId":"490G00005226","towards":"Marble Arch"},{"icsId":"1011080","id":"490011080E","lat":51.54153,"lon":-0.20583,"name":"Plympton Avenue","parentId":"490G00011080","stationId":"490G00011080","stopLetter":"E","topMostParentId":"490G00011080","towards":"Marble Arch"},{"icsId":"1008793","id":"490008793E","lat":51.54092,"lon":-0.20207,"name":"Kingsley Road","parentId":"490G00008793","stationId":"490G00008793","stopLetter":"F","topMostParentId":"490G00008793","towards":"Marble Arch"},{"icsId":"1008713","id":"490008713H","lat":51.541,"lon":-0.19652,"name":"Kingsgate Place","parentId":"490G00008713","stationId":"490G00008713","stopLetter":"H","topMostParentId":"490G00008713","towards":"Ladbroke Grove, Maida Vale Or Baker Street"},{"icsId":"1011375","id":"490011375N","lat":51.53935,"lon":-0.19492,"name":"Quex Road","parentId":"490G00011375","stationId":"490G00011375","stopLetter":"N","topMostParentId":"490G00011375","towards":"Maida Vale Or Ladbroke Grove"},{"icsId":"1001170","id":"490015243W","lat":51.53645,"lon":-0.19151,"name":"Kilburn High Road Station","stopLetter":"W","topMostParentId":"490015243W","towards":"Edgware Road"},{"icsId":"1008712","id":"490004798S","lat":51.5343,"lon":-0.18836,"name":"Kilburn Park Road","parentId":"490G00008712","stationId":"490G00008712","stopLetter":"KD","topMostParentId":"490G00008712","towards":"Marble Arch Or Paddington Station"},{"icsId":"1004805","id":"490004805S2","lat":51.53309,"lon":-0.18697,"name":"Carlton Vale","parentId":"490G00004805","stationId":"490G00004805","stopLetter":"KE","topMostParentId":"490G00004805","towards":"Marble Arch Or Paddington Station"},{"icsId":"1006475","id":"490006475B","lat":51.53166,"lon":-0.18527,"name":"Elgin Avenue / Maida Vale Station","parentId":"490G000500","stationId":"490G000500","stopLetter":"B","topMostParentId":"490G000500","towards":"Marble Arch Or Paddington Station"},{"icsId":"1015334","id":"4900015334S","lat":51.52884,"lon":-0.18223,"name":"Hall Road","parentId":"490G00015334","stationId":"490G00015334","stopLetter":"J","topMostParentId":"490G00015334","towards":"Marble Arch Or Paddington Station"},{"icsId":"1008926","id":"490007679R","lat":51.52797,"lon":-0.18076,"name":"Sutherland Avenue","parentId":"490G00008926","stationId":"490G00008926","stopLetter":"R","topMostParentId":"490G00008926","towards":"Marble Arch, Maida Hill Or Paddington"},{"icsId":"1012747","id":"490012747E","lat":51.52644,"lon":-0.17886,"name":"St John's Wood Road","parentId":"490G00012747","stationId":"490G00012747","stopLetter":"E","topMostParentId":"490G00012747","towards":"Marble Arch Or Paddington Station"},{"icsId":"1010621","id":"490010621S","lat":51.52342,"lon":-0.17493,"name":"Orchardson Street","parentId":"490G00010621","stationId":"490G00010621","stopLetter":"EA","topMostParentId":"490G00010621","towards":"Marble Arch Or Paddington Station"},{"icsId":"1015285","id":"490015285S","lat":51.5224,"lon":-0.17338,"name":"Church Street Market","parentId":"490G00015285","stationId":"490G00015285","stopLetter":"EB","topMostParentId":"490G00015285","towards":"Marble Arch Or Paddington"},{"icsId":"1000071","id":"490006428D","lat":51.52062,"lon":-0.17087,"name":"Edgware Road Station","stopLetter":"EC","topMostParentId":"490006428D","towards":"Hyde Park Corner Or Oxford Circus","zone":"1"},{"icsId":"1015044","id":"490013046N","lat":51.51843,"lon":-0.16773,"name":"Sussex Gardens","parentId":"490G00015044","stationId":"490G00015044","stopLetter":"EE","topMostParentId":"490G00015044","towards":"Oxford Circus"},{"icsId":"1007167","id":"490007167V","lat":51.51631,"lon":-0.16466,"name":"George Street","parentId":"490G00007167","stationId":"490G00007167","stopLetter":"EH","topMostParentId":"490G00007167","towards":"Knightsbridge, Oxford Circus Or Victoria"},{"icsId":"1008450","id":"490000144H","lat":51.51352,"lon":-0.16029,"name":"Marble Arch Station  / Edgware Road","parentId":"490G00008450","stationId":"490G00008450","stopLetter":"H","topMostParentId":"490G00008450","towards":"Hyde Park Corner Or Oxford Circus"},{"icsId":"1000144","id":"490000144K","lat":51.51358,"lon":-0.15766,"name":"Marble Arch Station","stopLetter":"K","topMostParentId":"490000144K","towards":"Tottenham Court Road","zone":"1"},{"icsId":"1011985","id":"490011985BC","lat":51.51421,"lon":-0.15179,"name":"Selfridges","parentId":"490G000738","stationId":"490G000738","stopLetter":"BC","topMostParentId":"490G000738","towards":"Piccadilly Circus, Holborn Or Warren Street"},{"icsId":"1015204","id":"490015196OF","lat":51.51499,"lon":-0.14475,"name":"Oxford Circus Station  / John Lewis","parentId":"490G00015204","stationId":"490G00015204","stopLetter":"OF","topMostParentId":"490G00015204","towards":"Piccadilly Circus, Holborn Or Warren Street"},{"icsId":"1010689","id":"490010689OJ","lat":51.51567,"lon":-0.13905,"name":"Great Titchfield St / Oxford Circus Stn","parentId":"490G000691","stationId":"490G000691","stopLetter":"OJ","topMostParentId":"490G000691","towards":"Holborn Or King's Cross"},{"icsId":"1000235","id":"490000235V","lat":51.51638,"lon":-0.13195,"name":"Tottenham Court Road Station","stopLetter":"V","topMostParentId":"490000235V","towards":"Holborn Or Kings Cross","zone":"1"},{"icsId":"1018892","id":"490000235Z","lat":51.51673,"lon":-0.12847,"name":"New Oxford Street","parentId":"490G00018892","stationId":"490G00018892","stopLetter":"Z","topMostParentId":"490G00018892","towards":"Aldwych Or Holborn Circus"},{"icsId":"1010131","id":"490010131WB","lat":51.51758,"lon":-0.12434,"name":"Museum Street","parentId":"490G00010131","stationId":"490G00010131","stopLetter":"E","topMostParentId":"490G00010131","towards":"Aldwych, Angel, Bank Or Old Street"},{"icsId":"1004114","id":"490004114X","lat":51.51859,"lon":-0.12208,"name":"Bloomsbury Square","parentId":"490G00004114","stationId":"490G00004114","stopLetter":"F","topMostParentId":"490G00004114","towards":"Old Street Or Angel Islington"},{"icsId":"1007834","id":"490011487G","lat":51.51897,"lon":-0.11949,"name":"Red Lion Square","parentId":"490G00007834","stationId":"490G00007834","stopLetter":"J","topMostParentId":"490G00007834","towards":"Oxford Circus"}]}]}