{"direction":"outbound","lineId":"b14","lineName":"B14","mode":"bus","stopPointSequences":[{"stopPoint":[{"icsId":"1019057","id":"490003976Z","lat":51.45583,"lon":0.14403,"name":"Bexleyheath Library","parentId":"490G00019057","stationId":"490G00019057","stopLetter":"Z","topMostParentId":"490G00019057","towards":"Crayford Or East Wickham"},{"icsId":"1009203","id":"490009203C","lat":51.45791,"lon":0.13523,"name":"Bexleyheath / Lion Road","parentId":"490G00009203","stationId":"490G00009203","stopLetter":"BM","topMostParentId":"490G00009203","towards":"Bexleyheath Station Or Welling"},{"icsId":"1013960","id":"490013960W","lat":51.45839,"lon":0.13194,"name":"Upton Road","parentId":"490G00013960","stationId":"490G00013960","stopLetter":"BN","topMostParentId":"490G00013960","towards":"Sidcup, Welling Or Bexleyheath Station"},{"icsId":"1005805","id":"490005805W","lat":51.45898,"lon":0.1283,"name":"Crook Log / Dallin Road","parentId":"490G00005805","stationId":"490G00005805","stopLetter":"BQ","topMostParentId":"490G00005805","towards":"Sidcup Or Welling"},{"icsId":"1016645","id":"490016645S","lat":51.45875,"lon":0.12358,"name":"Danson Road / Crook Log","parentId":"490G00016645","stationId":"490G00016645","stopLetter":"BP","topMostParentId":"490G00016645","towards":"Sidcup"},{"icsId":"1013400","id":"490013400S","lat":51.45675,"lon":0.12314,"name":"The Grove","parentId":"490G00013400","stationId":"490G00013400","stopLetter":"BR","topMostParentId":"490G00013400","towards":"Sidcup"},{"icsId":"1011904","id":"490011904S","lat":51.45226,"lon":0.12306,"name":"Danson Road / Sandhurst Road","parentId":"490G00011904","stationId":"490G00011904","stopLetter":"S","topMostParentId":"490G00011904","towards":"Sidcup"},{"icsId":"1005956","id":"490005956S","lat":51.44911,"lon":0.11943,"name":"Danson Underpass","parentId":"490G00005956","stationId":"490G00005956","stopLetter":"T","topMostParentId":"490G00005956","towards":"New Eltham Or Sidcup"},{"icsId":"1015607","id":"490015607N1","lat":51.43988,"lon":0.1181,"name":"Penhill Road","parentId":"490G00015607","stationId":"490G00015607","stopLetter":"->N","topMostParentId":"490G00015607"},{"icsId":"1006890","id":"490006890S","lat":51.43834,"lon":0.11898,"name":"Foots Cray Lane / Hurst Road","parentId":"490G00006890","stationId":"490G00006890","stopLetter":"E","topMostParentId":"490G00006890","towards":"Sidcup"},{"icsId":"1004765","id":"490004765S","lat":51.43659,"lon":0.11952,"name":"Canterbury Avenue","parentId":"490G00004765","stationId":"490G00004765","stopLetter":"F","topMostParentId":"490G00004765","towards":"Sidcup"},{"icsId":"1003981","id":"490003981E","lat":51.43198,"lon":0.12127,"name":"Royal Road","parentId":"490G00003981","stationId":"490G00003981","stopLetter":"->E","topMostParentId":"490G00003981"},{"icsId":"1000876","id":"490000876Z","lat":51.43478,"lon":0.12663,"name":"Kimberley Drive","parentId":"490G000198","stationId":"490G000198","stopLetter":"->S","topMostParentId":"490G000198"},{"icsId":"1009613","id":"490009613A","lat":51.43486,"lon":0.12666,"name":"Longmead Drive / Albany Park","parentId":"490G009613","stationId":"490G009613","stopLetter":"A","topMostParentId":"490G009613","towards":"Bexleyheath Or Sidcup"},{"icsId":"1010599","id":"490010599Z","lat":51.43447,"lon":0.12247,"name":"Longmead Drive / Onslow Drive","parentId":"490G00010599","stationId":"490G00010599","stopLetter":"B","topMostParentId":"490G00010599","towards":"Bexleyheath Or Sidcup"},{"icsId":"1005386","id":"490005386S","lat":51.42932,"lon":0.11855,"name":"Bexley Lane / Cleeve Park School","parentId":"490G00005386","stationId":"490G00005386","stopLetter":"->S","topMostParentId":"490G00005386","towards":"Sidcup"},{"icsId":"1007637","id":"490007637S","lat":51.42609,"lon":0.10502,"name":"Granville Road","parentId":"490G00007637","stationId":"490G00007637","stopLetter":"->S","topMostParentId":"490G00007637"},{"icsId":"1012140","id":"490012140U","lat":51.42637,"lon":0.10146,"name":"Sidcup High Street / Station Road","parentId":"490G00012140","stationId":"490G00012140","stopLetter":"U","topMostParentId":"490G00012140","towards":"New Eltham Or Queen Mary's Hospital"},{"icsId":"1019822","id":"490012140S","lat":51.42543,"lon":0.10096,"name":"Sidcup / Carlton Road","parentId":"490G00019822","stationId":"490G00019822","stopLetter":"S","topMostParentId":"490G00019822","towards":"Chislehurst Or St Mary Cray"},{"icsId":"1013421","id":"490013387S","lat":51.4242,"lon":0.10109,"name":"The Green","parentId":"490G00013421","stationId":"490G00013421","stopLetter":"W","topMostParentId":"490G00013421","towards":"Chislehurst Or St Mary Cray"},{"icsId":"1011319","id":"490011319HB","lat":51.41885,"lon":0.10495,"name":"Queen Mary's Hospital / Cancer Unit","parentId":"490G00011319","stationId":"490G00011319","stopLetter":"HB","topMostParentId":"490G00011319","towards":"Sidcup Town Centre Or St Mary Cray"},{"icsId":"1011321","id":"490011321HA","lat":51.41968,"lon":0.10195,"name":"Queen Mary's Hospital / Main Entrance","parentId":"490G00011321","stationId":"490G00011321","stopLetter":"HA","topMostParentId":"490G00011321","towards":"Sidcup Town Centre Or St Mary Cray"},{"icsId":"1012150","id":"490012139HH","lat":51.4195,"lon":0.09901,"name":"Queen Mary's Hospital","parentId":"490G00012150","stationId":"490G00012150","stopLetter":"HH","topMostParentId":"490G00012150","towards":"Chislehurst Or St Mary Cray"},{"icsId":"1016701","id":"490016701S","lat":51.41131,"lon":0.11267,"name":"Kemnal Technology College","parentId":"490G00016701","stationId":"490G00016701","stopLetter":"M","topMostParentId":"490G00016701","towards":"Orpington"},{"icsId":"1009865","id":"490009865W","lat":51.40902,"lon":0.11193,"name":"Midfield Way / Sevenoaks Way","parentId":"490G00009865","stationId":"490G00009865","stopLetter":"E","topMostParentId":"490G00009865","towards":"Orpington"},{"icsId":"1005849","id":"490005849W","lat":51.40879,"lon":0.10638,"name":"Croxley Green","parentId":"490G00005849","stationId":"490G00005849","stopLetter":"J","topMostParentId":"490G00005849","towards":"Orpington"},{"icsId":"1009864","id":"490009864W","lat":51.4087,"lon":0.10363,"name":"Midfield Way / Chipperfield Road","parentId":"490G00009864","stationId":"490G00009864","stopLetter":"K","topMostParentId":"490G00009864","towards":"Orpington"},{"icsId":"1004272","id":"490004272W","lat":51.40843,"lon":0.09902,"name":"Breakspears Drive","parentId":"490G00004272","stationId":"490G00004272","stopLetter":"L","topMostParentId":"490G00004272","towards":"Orpington"},{"icsId":"1003782","id":"490003782S","lat":51.40693,"lon":0.0965,"name":"Beddington Road","parentId":"490G00003782","stationId":"490G00003782","stopLetter":"M","topMostParentId":"490G00003782","towards":"Orpington"},{"icsId":"1005216","id":"490005216E","lat":51.40484,"lon":0.09947,"name":"Chorleywood Crescent","parentId":"490G00005216","stationId":"490G00005216","stopLetter":"N","topMostParentId":"490G00005216","towards":"Orpington"},{"icsId":"1012882","id":"490012882N","lat":51.40354,"lon":0.10351,"name":"Kings Church","parentId":"490G00012882","stationId":"490G00012882","stopLetter":"P","topMostParentId":"490G00012882","towards":"Orpington"},{"icsId":"1011437","id":"490011437E","lat":51.40048,"lon":0.10366,"name":"Ravenscourt Road","parentId":"490G00011437","stationId":"490G00011437","stopLetter":"R","topMostParentId":"490G00011437","towards":"Orpington"},{"icsId":"1009296","id":"490009296S","lat":51.39849,"lon":0.10634,"name":"Longbury Drive","parentId":"490G00009296","stationId":"490G00009296","stopLetter":"S","topMostParentId":"490G00009296","towards":"Orpington"},{"icsId":"1001271","id":"490001271SB","lat":51.39571,"lon":0.10741,"name":"St Mary Cray Station","stopLetter":"SB","topMostParentId":"490001271SB","towards":"Orpington Or Petts Wood"},{"icsId":"1002374","id":"490012606SC","lat":51.3955,"lon":0.1119,"name":"Station Approach","parentId":"490G00002374","stationId":"490G00002374","stopLetter":"SC","topMostParentId":"490G00002374","towards":"Sidcup"},{"icsId":"1009884","id":"490009884N2","lat":51.39501,"lon":0.1143,"name":"Mill Brook Road","parentId":"490G00009884","stationId":"490G00009884","stopLetter":"SF","topMostParentId":"490G00009884","towards":"Orpington"},{"icsId":"1019027","id":"490003836E","lat":51.39375,"lon":0.11617,"name":"Mountfield Community Centre","parentId":"490G00019027","stationId":"490G00019027","stopLetter":"->E","topMostParentId":"490G00019027","towards":"Orpington"},{"icsId":"1010530","id":"490010530E","lat":51.3934,"lon":0.11903,"name":"Oldbury Close","parentId":"490G00010530","stationId":"490G00010530","stopLetter":"->E","topMostParentId":"490G00010530","towards":"Orpington"},{"icsId":"1014955","id":"490014955E","lat":51.3937,"lon":0.12295,"name":"Wotton Green / Sandway Road","parentId":"490G00014955","stationId":"490G00014955","stopLetter":"->E","topMostParentId":"490G00014955","towards":"Orpington"},{"icsId":"1009962","id":"490009962N","lat":51.39201,"lon":0.12321,"name":"Molash Road","parentId":"490G00009962","stationId":"490G00009962","stopLetter":"->N","topMostParentId":"490G00009962","towards":"Orpington"},{"icsId":"1013112","id":"490013112W","lat":51.39144,"lon":0.11996,"name":"Sweeps Lane","parentId":"490G00013112","stationId":"490G00013112","stopLetter":"->W","topMostParentId":"490G00013112","towards":"Orpington"}]},{"stopPoint":[{"icsId":"1013112","id":"490013112W","lat":51.39144,"lon":0.11996,"name":"Sweeps Lane","parentId":"490G00013112","stationId":"490G00013112","stopLetter":"->W","topMostParentId":"490G00013112","towards":"Orpington"},{"icsId":"1009546","id":"490009546S","lat":51.39027,"lon":0.12055,"name":"Manning Road","parentId":"490G00009546","stationId":"490G00009546","stopLetter":"->S","topMostParentId":"490G00009546","towards":"Orpington Or St Mary Cray Station"},{"icsId":"1005785","id":"490005782S","lat":51.38778,"lon":0.12249,"name":"Crockenhill Road","parentId":"490G00005785","stationId":"490G00005785","stopLetter":"->N","topMostParentId":"490G00005785","towards":"Orpington Or St Mary Cray Station"},{"icsId":"1013112","id":"490013112W","lat":51.39144,"lon":0.11996,"name":"Sweeps Lane","parentId":"490G00013112","stationId":"490G00013112","stopLetter":"->W","topMostParentId":"490G00013112","towards":"Orpington"}]},{"stopPoint":[{"icsId":"1013112","id":"490013112W","lat":51.39144,"lon":0.11996,"name":"Sweeps Lane","parentId":"490G00013112","stationId":"490G00013112","stopLetter":"->W","topMostParentId":"490G00013112","towards":"Orpington"},{"icsId":"1006938","id":"490006938W","lat":51.39188,"lon":0.11525,"name":"Forgefield Court","parentId":"490G00006938","stationId":"490G00006938","stopLetter":"SZ","topMostParentId":"490G00006938","towards":"Orpington"},{"icsId":"1013568","id":"490013568S","lat":51.38965,"lon":0.11426,"name":"The Temple","parentId":"490G00013568","stationId":"490G00013568","stopLetter":"SL","topMostParentId":"490G00013568","towards":"Orpington"},{"icsId":"1011544","id":"490011544S","lat":51.38736,"lon":0.11373,"name":"Reynolds Cross / Red Lion","parentId":"490G00011544","stationId":"490G00011544","stopLetter":"SP","topMostParentId":"490G00011544","towards":"Orpington"},{"icsId":"1009428","id":"490009428S","lat":51.38429,"lon":0.10957,"name":"Lower Road","parentId":"490G00009428","stationId":"490G00009428","stopLetter":"N","topMostParentId":"490G00009428","towards":"Orpington"},{"icsId":"1004801","id":"490004801S1","lat":51.38163,"lon":0.10578,"name":"High Street / Carlton Parade","parentId":"490G00004801","stationId":"490G00004801","stopLetter":"P","topMostParentId":"490G00004801","towards":"Green Street Green, Locksbottom Or Petts Wood"},{"icsId":"1010635","id":"490010635W","lat":51.37927,"lon":0.10253,"name":"High Street / Church Hill","parentId":"490G00010635","stationId":"490G00010635","stopLetter":"W","topMostParentId":"490G00010635","towards":"Green Street Green, Locksbottom Or Petts Wood"},{"icsId":"1014142","id":"490014142U","lat":51.37709,"lon":0.10028,"name":"Walnuts Centre","parentId":"490G00014142","stationId":"490G00014142","stopLetter":"U","topMostParentId":"490G00014142","towards":"Green Street Green, Locksbottom Or Petts Wood"},{"icsId":"1019892","id":"490015411S","lat":51.37428,"lon":0.09832,"name":"High Street / Orpington War Memorial","parentId":"490G00019892","stationId":"490G00019892","stopLetter":"S","topMostParentId":"490G00019892","towards":"Green Street Green, Locksbottom Or Petts Wood"},{"icsId":"1013818","id":"490013818J","lat":51.37176,"lon":0.09145,"name":"Tubbenden Lane","parentId":"490G00013818","stationId":"490G00013818","stopLetter":"J","topMostParentId":"490G00013818","towards":"Locksbottom Or Petts Wood"},{"icsId":"1001220","id":"490001220G","lat":51.3732,"lon":0.08962,"name":"Orpington Station","stopLetter":"G","topMostParentId":"490001220G"}]}]}