{"direction":"outbound","lineId":"b15","lineName":"B15","mode":"bus","stopPointSequences":[{"stopPoint":[{"icsId":"1003975","id":"490003975M","lat":51.45648,"lon":0.14643,"name":"Bexleyheath Clock Tower","parentId":"490G00003975","stationId":"490G00003975","stopLetter":"M","topMostParentId":"490G00003975","towards":"Sidcup, Welling Or Bexleyheath Station"},{"icsId":"1003973","id":"490003973A","lat":51.45723,"lon":0.13998,"name":"Trinity Place","parentId":"490G00003973","stationId":"490G00003973","stopLetter":"A","topMostParentId":"490G00003973","towards":"Sidcup, Welling Or Bexleyheath Station"},{"icsId":"1009203","id":"490009203C","lat":51.45791,"lon":0.13523,"name":"Bexleyheath / Lion Road","parentId":"490G00009203","stationId":"490G00009203","stopLetter":"BM","topMostParentId":"490G00009203","towards":"Bexleyheath Station Or Welling"},{"icsId":"1013960","id":"490013960W","lat":51.45839,"lon":0.13194,"name":"Upton Road","parentId":"490G00013960","stationId":"490G00013960","stopLetter":"BN","topMostParentId":"490G00013960","towards":"Sidcup, Welling Or Bexleyheath Station"},{"icsId":"1018994","id":"490007256N","lat":51.46073,"lon":0.13142,"name":"Glynde Road","parentId":"490G00018994","stationId":"490G00018994","stopLetter":"BE","topMostParentId":"490G00018994","towards":"Abbey Wood, Erith Or Plumstead"},{"icsId":"1001025","id":"490001025A","lat":51.46469,"lon":0.13283,"name":"Bexleyheath Station","stopLetter":"BF","topMostParentId":"490001025A","towards":"Abbey Wood, Erith Or Plumstead"},{"icsId":"1006115","id":"490006115Z","lat":51.46649,"lon":0.13097,"name":"Veroan Road","parentId":"490G00006115","stationId":"490G00006115","stopLetter":"->W","topMostParentId":"490G00006115","towards":"Welling"},{"icsId":"1004248","id":"490004248Z","lat":51.46576,"lon":0.12779,"name":"Holmesdale Road","parentId":"490G00004248","stationId":"490G00004248","stopLetter":"->W","topMostParentId":"490G00004248","towards":"Welling"},{"icsId":"1007195","id":"490007195Z","lat":51.46661,"lon":0.12367,"name":"Gipsy Road","parentId":"490G00007195","stationId":"490G00007195","stopLetter":"->W","topMostParentId":"490G00007195","towards":"Welling"},{"icsId":"1007969","id":"490007969Z","lat":51.46698,"lon":0.12016,"name":"Avondale Road","parentId":"490G00007969","stationId":"490G00007969","stopLetter":"->W","topMostParentId":"490G00007969","towards":"Welling"},{"icsId":"1014355","id":"490014355Z","lat":51.46727,"lon":0.11717,"name":"Kenmere Road","parentId":"490G00014355","stationId":"490G00014355","stopLetter":"->W","topMostParentId":"490G00014355","towards":"Welling"},{"icsId":"1018784","id":"490018784Y","lat":51.46802,"lon":0.11105,"name":"Elsa Road / Upper Wickham Lane","parentId":"490G00018784","stationId":"490G00018784","stopLetter":"->W","topMostParentId":"490G00018784","towards":"Welling"},{"icsId":"1012224","id":"490012224S","lat":51.46674,"lon":0.11046,"name":"Somerhill Road","parentId":"490G00012224","stationId":"490G00012224","stopLetter":"R","topMostParentId":"490G00012224","towards":"Bexleyheath"},{"icsId":"1004601","id":"490004601S","lat":51.46484,"lon":0.10928,"name":"Upper Wickham Lane / Burnell Avenue","parentId":"490G00004601","stationId":"490G00004601","stopLetter":"K","topMostParentId":"490G00004601","towards":"Bexleyheath"},{"icsId":"1014352","id":"490014352N","lat":51.46344,"lon":0.10835,"name":"Upper Wickham Lane / Coton Road","parentId":"490G00014352","stationId":"490G00014352","stopLetter":"N","topMostParentId":"490G00014352","towards":"Bexleyheath"},{"icsId":"1014351","id":"490014351P","lat":51.46257,"lon":0.10667,"name":"Bellegrove Road / Churchfield Road","parentId":"490G00014351","stationId":"490G00014351","stopLetter":"P","topMostParentId":"490G00014351","towards":"Falconwood, Plumstead Common Or Shooters Hill"},{"icsId":"1011803","id":"490011803G","lat":51.46313,"lon":0.10312,"name":"Ruskin Drive","parentId":"490G00011803","stationId":"490G00011803","stopLetter":"G","topMostParentId":"490G00011803","towards":"Plumstead Common, Falconwood Or Shooters Hill"},{"icsId":"1011802","id":"490011802D","lat":51.46352,"lon":0.10067,"name":"Ruskin Avenue / Welling Station","parentId":"490G000733","stationId":"490G000733","stopLetter":"D","topMostParentId":"490G000733","towards":"Falconwood, Queen Elizabeth Hospital Or Lewisham"},{"icsId":"1019726","id":"490014364S","lat":51.4642,"lon":0.09451,"name":"Welling Way / Bellegrove Road","parentId":"490G00019726","stationId":"490G00019726","stopLetter":"Z","topMostParentId":"490G00019726","towards":"Eltham"},{"icsId":"1016207","id":"490016207W","lat":51.4623,"lon":0.08817,"name":"Welling Way / Sherwood Road","parentId":"490G00016207","stationId":"490G00016207","stopLetter":"->W","topMostParentId":"490G00016207","towards":"Eltham"},{"icsId":"1016194","id":"490016194W","lat":51.46158,"lon":0.08352,"name":"Montrose Avenue","parentId":"490G00016194","stationId":"490G00016194","stopLetter":"->W","topMostParentId":"490G00016194","towards":"Eltham"},{"icsId":"1014367","id":"490014365W","lat":51.46187,"lon":0.07643,"name":"Welling Way / Rochester Way","parentId":"490G00014367","stationId":"490G00014367","stopLetter":"Z","topMostParentId":"490G00014367","towards":"Eltham"},{"icsId":"1014366","id":"490014366S","lat":51.45939,"lon":0.07845,"name":"Rochester Way / Falconwood Station","parentId":"490G00014366","stationId":"490G00014366","stopLetter":"D","topMostParentId":"490G00014366","towards":"Eltham Or Welling"},{"icsId":"1006536","id":"490006536S","lat":51.45778,"lon":0.07764,"name":"Eltham Cemetery","parentId":"490G00006536","stationId":"490G00006536","stopLetter":"X","topMostParentId":"490G00006536","towards":"Mottingham"},{"icsId":"1005846","id":"490005846S","lat":51.45436,"lon":0.07794,"name":"Riefield Road / Crown Woods School","parentId":"490G00005846","stationId":"490G00005846","stopLetter":"->S","topMostParentId":"490G00005846","towards":"Eltham"},{"icsId":"1011582","id":"490011582W","lat":51.45115,"lon":0.07779,"name":"Riefield Road","parentId":"490G00011582","stationId":"490G00011582","stopLetter":"AD","topMostParentId":"490G00011582","towards":"Eltham"},{"icsId":"1003505","id":"490003505W","lat":51.45187,"lon":0.07352,"name":"Stationers' Crown Woods Academy","parentId":"490G00003505","stationId":"490G00003505","stopLetter":"AE","topMostParentId":"490G00003505","towards":"Eltham"},{"icsId":"1007227","id":"490007227W","lat":51.45141,"lon":0.06629,"name":"Bexley Road / Glenesk Road","parentId":"490G00007227","stationId":"490G00007227","stopLetter":"AF","topMostParentId":"490G00007227","towards":"Eltham"},{"icsId":"1006548","id":"490006548W","lat":51.4507,"lon":0.06123,"name":"Eltham High Street / Foots Cray Road","parentId":"490G00006548","stationId":"490G00006548","stopLetter":"T","topMostParentId":"490G00006548","towards":"Kidbrooke, Lee Green Or Mottingham"},{"icsId":"1000890","id":"490006533P","lat":51.45067,"lon":0.0572,"name":"Eltham High Street / St Mary's Place","parentId":"490G000209","stationId":"490G000209","stopLetter":"P","topMostParentId":"490G000209","towards":"Catford, Kidbrooke Or Lee Green"},{"icsId":"1006539","id":"490006537M","lat":51.45074,"lon":0.05333,"name":"Eltham High Street / Passey Place","parentId":"490G00006539","stationId":"490G00006539","stopLetter":"M","topMostParentId":"490G00006539","towards":"Catford, Kidbrooke Or Lee Green"},{"icsId":"1015433","id":"490015433H","lat":51.45091,"lon":0.05132,"name":"Eltham Church / High Street","parentId":"490G00015433","stationId":"490G00015433","stopLetter":"H","topMostParentId":"490G00015433","towards":"Catford, Kidbrooke Or Lee Green"},{"icsId":"1008778","id":"490008778W","lat":51.45136,"lon":0.04661,"name":"Kingsground","parentId":"490G00008778","stationId":"490G00008778","stopLetter":"W","topMostParentId":"490G00008778","towards":"Horn Park, Kidbrooke Or Lee Green"},{"icsId":"1014008","id":"490014007W","lat":51.45258,"lon":0.0401,"name":"Greenway","parentId":"490G00014008","stationId":"490G00014008","stopLetter":"WD","topMostParentId":"490G00014008","towards":"Horn Park, Kidbrooke Or Lee Green"},{"icsId":"1019825","id":"490015477W","lat":51.45276,"lon":0.03799,"name":"Eltham Hill / Middle Park Avenue","parentId":"490G00019825","stationId":"490G00019825","stopLetter":"WE","topMostParentId":"490G00019825","towards":"Horn Park, Kidbrooke Or Lee Green"},{"icsId":"1019826","id":"490015018S","lat":51.45206,"lon":0.03477,"name":"Westhorne Avenue / Eltham Road","parentId":"490G00019826","stationId":"490G00019826","stopLetter":"WL","topMostParentId":"490G00019826","towards":"Catford Or Horn Park"},{"icsId":"1012142","id":"490012142W","lat":51.45057,"lon":0.03113,"name":"Sidcup Road","parentId":"490G00012142","stationId":"490G00012142","stopLetter":"WM","topMostParentId":"490G00012142","towards":"Catford Or Horn Park"},{"icsId":"1003283","id":"490003283S","lat":51.4488,"lon":0.02515,"name":"Alwold Crescent","parentId":"490G00003283","stationId":"490G00003283","stopLetter":"WN","topMostParentId":"490G00003283","towards":"Catford Or Horn Park"},{"icsId":"1018681","id":"4900018681SE","lat":51.44772,"lon":0.02345,"name":"Horncastle Road","parentId":"490G00018681","stationId":"490G00018681","stopLetter":"M","topMostParentId":"490G00018681","towards":"Eltham"}]}]}