{"direction":"outbound","lineId":"c11","lineName":"C11","mode":"bus","stopPointSequences":[{"stopPoint":[{"icsId":"1000008","id":"490000008NW","lat":51.5661,"lon":-0.1352,"name":"Archway Station","stopLetter":"E","topMostParentId":"490000008NW","towards":"Highgate Village, Tufnell Park Or Crouch End","zone":"2+3"},{"icsId":"1014625","id":"490014625J","lat":51.56614,"lon":-0.13774,"name":"Whittington Hospital","parentId":"490G00014625","stationId":"490G00014625","stopLetter":"J","topMostParentId":"490G00014625","towards":"Tufnell Park Or Parliament Hill Fields"},{"icsId":"1011872","id":"490011872W","lat":51.56541,"lon":-0.14067,"name":"Magdala Avenue / Dartmouth Park Hill","parentId":"490G00011872","stationId":"490G00011872","stopLetter":"HJ","topMostParentId":"490G00011872","towards":"Tufnell Park Or Parliament Hill Fields"},{"icsId":"1015267","id":"490015267S","lat":51.56292,"lon":-0.14054,"name":"Chester Road","parentId":"490G00015267","stationId":"490G00015267","stopLetter":"HK","topMostParentId":"490G00015267","towards":"Tufnell Park Or Parliament Hill Fields"},{"icsId":"1005137","id":"490005132W","lat":51.56372,"lon":-0.14322,"name":"Chester Road / Highgate Library","parentId":"490G00005137","stationId":"490G00005137","stopLetter":"HM","topMostParentId":"490G00005137","towards":"Parliament Hill Fields"},{"icsId":"1004454","id":"490004454W","lat":51.56264,"lon":-0.14723,"name":"Brookfield Park","parentId":"490G00004454","stationId":"490G00004454","stopLetter":"HD","topMostParentId":"490G00004454","towards":"Gospel Oak"},{"icsId":"1010852","id":"490015528S1","lat":51.56066,"lon":-0.15018,"name":"Parliament Hill Fields","parentId":"490G00010852","stationId":"490G00010852","stopLetter":"GL","topMostParentId":"490G00010852","towards":"Royal Free Hospital"},{"icsId":"1014697","id":"490014697S","lat":51.55955,"lon":-0.14943,"name":"William Ellis School","parentId":"490G00014697","stationId":"490G00014697","stopLetter":"GM","topMostParentId":"490G00014697","towards":"Camden Town Or Belsize Park"},{"icsId":"1007308","id":"490005974S","lat":51.55726,"lon":-0.1471,"name":"Gordon House Road","parentId":"490G00007308","stationId":"490G00007308","stopLetter":"GN","topMostParentId":"490G00007308","towards":"Camden Town Or Royal Free Hospital"},{"icsId":"1007308","id":"490007308W","lat":51.55597,"lon":-0.1479,"name":"Gordon House Road","parentId":"490G00007308","stationId":"490G00007308","stopLetter":"GO","topMostParentId":"490G00007308","towards":"Royal Free Hospital"},{"icsId":"1001119","id":"490001119W","lat":51.55478,"lon":-0.15167,"name":"Gospel Oak Station","stopLetter":"GP","topMostParentId":"490001119W","towards":"Swiss Cottage"},{"icsId":"1006648","id":"490006648W","lat":51.55393,"lon":-0.15488,"name":"Estelle Road","parentId":"490G00006648","stationId":"490G00006648","stopLetter":"GQ","topMostParentId":"490G00006648","towards":"Swiss Cottage"},{"icsId":"1012104","id":"490012104W","lat":51.55342,"lon":-0.15686,"name":"Southampton Road / Agincourt Road","parentId":"490G00012104","stationId":"490G00012104","stopLetter":"GR","topMostParentId":"490G00012104","towards":"Swiss Cottage"},{"icsId":"1009017","id":"490009017N","lat":51.55327,"lon":-0.16091,"name":"Lawn Road","parentId":"490G00009017","stationId":"490G00009017","stopLetter":"GU","topMostParentId":"490G00009017","towards":"Belsize Park Or Swiss Cottage"},{"icsId":"1011760","id":"490011760D","lat":51.55395,"lon":-0.16551,"name":"Royal Free Hospital","parentId":"490G000732","stationId":"490G000732","stopLetter":"D","topMostParentId":"490G000732","towards":"Camden Town Or Swiss Cottage"},{"icsId":"1011714","id":"490011714E","lat":51.55344,"lon":-0.16829,"name":"Rosslyn Hill","parentId":"490G00011714","stationId":"490G00011714","stopLetter":"E","topMostParentId":"490G00011714","towards":"Chalk Farm Or Swiss Cottage"},{"icsId":"1015255","id":"490015255F","lat":51.55227,"lon":-0.1673,"name":"Haverstock Hill / Pond Street","parentId":"490G00015255","stationId":"490G00015255","stopLetter":"F","topMostParentId":"490G00015255","towards":"Camden Town Or Swiss Cottage"},{"icsId":"1000020","id":"490000020L","lat":51.55075,"lon":-0.16519,"name":"Belsize Park Station","stopLetter":"L","topMostParentId":"490000020L","towards":"Camden Town Or Swiss Cottage","zone":"2"},{"icsId":"1006180","id":"490006180S","lat":51.55003,"lon":-0.16387,"name":"Downside Crescent","parentId":"490G00006180","stationId":"490G00006180","stopLetter":"M","topMostParentId":"490G00006180","towards":"Camden Town Or Swiss Cottage"},{"icsId":"1013939","id":"490013939S","lat":51.54875,"lon":-0.16172,"name":"Upper Park Road","parentId":"490G00013939","stationId":"490G00013939","stopLetter":"N","topMostParentId":"490G00013939","towards":"Camden Town Or Swiss Cottage"},{"icsId":"1006591","id":"490006591W","lat":51.54721,"lon":-0.16023,"name":"England's Lane","parentId":"490G00006591","stationId":"490G00006591","stopLetter":"S","topMostParentId":"490G00006591","towards":"Swiss Cottage"},{"icsId":"1006592","id":"490006591S","lat":51.54604,"lon":-0.16188,"name":"Primrose Gardens","parentId":"490G00006592","stationId":"490G00006592","stopLetter":"T","topMostParentId":"490G00006592","towards":"Swiss Cottage"},{"icsId":"1011186","id":"490011186S","lat":51.54435,"lon":-0.16259,"name":"Primrose Hill Road","parentId":"490G00011186","stationId":"490G00011186","stopLetter":"S","topMostParentId":"490G00011186","towards":"Swiss Cottage"},{"icsId":"1011186","id":"490015529W","lat":51.54347,"lon":-0.16313,"name":"Primrose Hill Road","parentId":"490G00011186","stationId":"490G00011186","stopLetter":"U","topMostParentId":"490G00011186","towards":"Swiss Cottage"},{"icsId":"1013582","id":"490013582W","lat":51.54321,"lon":-0.16531,"name":"Elsworthy Rise","parentId":"490G00013582","stationId":"490G00013582","stopLetter":"V","topMostParentId":"490G00013582","towards":"Swiss Cottage"},{"icsId":"1009423","id":"490009423W","lat":51.54277,"lon":-0.16879,"name":"Lower Merton Rise","parentId":"490G00009423","stationId":"490G00009423","stopLetter":"W","topMostParentId":"490G00009423","towards":"Kilburn Or West Hampstead"},{"icsId":"1003495","id":"490003495H","lat":51.54188,"lon":-0.17223,"name":"Avenue Road / Swiss Cottage Library","parentId":"490G000395","stationId":"490G000395","stopLetter":"H","topMostParentId":"490G000395","towards":"Kilburn Or West Hampstead"},{"icsId":"1000230","id":"490015162L","lat":51.54315,"lon":-0.17525,"name":"Swiss Cottage Stn  /  Finchley Road","stopLetter":"L","topMostParentId":"490015162L","towards":"Golders Green, Kilburn High Road Or Brent Cross","zone":"2"},{"icsId":"1005486","id":"490005487A","lat":51.54485,"lon":-0.17645,"name":"College Crescent","parentId":"490G00005486","stationId":"490G00005486","stopLetter":"A","topMostParentId":"490G00005486","towards":"Golders Green, Brent Cross Or West Hampstead"},{"icsId":"1000082","id":"490000082R","lat":51.54622,"lon":-0.18039,"name":"Finchley Road Station","stopLetter":"FP","topMostParentId":"490000082R","towards":"West Hampstead","zone":"2"},{"icsId":"1006713","id":"490006713W","lat":51.54449,"lon":-0.18405,"name":"Fairhazel Gardens","parentId":"490G00006713","stationId":"490G00006713","stopLetter":"->W","topMostParentId":"490G00006713","towards":"Cricklewood"},{"icsId":"1015387","id":"490015387W","lat":51.54409,"lon":-0.18858,"name":"Priory Road","parentId":"490G00015387","stationId":"490G00015387","stopLetter":"F","topMostParentId":"490G00015387","towards":"Cricklewood"},{"icsId":"1005403","id":"490005403W","lat":51.54416,"lon":-0.19156,"name":"Cleve Road","parentId":"490G00005403","stationId":"490G00005403","stopLetter":"E","topMostParentId":"490G00005403","towards":"Cricklewood"},{"icsId":"1000826","id":"490012082A","lat":51.54587,"lon":-0.19142,"name":"West Hampstead Stn / Broadhurst Gdns","parentId":"490G000160","stationId":"490G000160","stopLetter":"A","topMostParentId":"490G000160","towards":"Cricklewood Or Golders Green"},{"icsId":"1001330","id":"490001330N","lat":51.54855,"lon":-0.19116,"name":"West Hampstead Station","stopLetter":"N","topMostParentId":"490001330N","towards":"Cricklewood Or Golders Green"},{"icsId":"1006041","id":"490006041F","lat":51.54973,"lon":-0.1916,"name":"Dennington Park Road","parentId":"490G000484","stationId":"490G000484","stopLetter":"P","topMostParentId":"490G000484","towards":"Cricklewood Or Golders Green"},{"icsId":"1014431","id":"490014431N","lat":51.5514,"lon":-0.19192,"name":"West End Green","parentId":"490G00014431","stationId":"490G00014431","stopLetter":"R","topMostParentId":"490G00014431","towards":"Cricklewood Or Golders Green"},{"icsId":"1003186","id":"490003186W","lat":51.55199,"lon":-0.19463,"name":"Mill Lane","parentId":"490G00003186","stationId":"490G00003186","stopLetter":"CP","topMostParentId":"490G00003186","towards":"Cricklewood"},{"icsId":"1012218","id":"490012218W","lat":51.55192,"lon":-0.19689,"name":"Solent Road","parentId":"490G00012218","stationId":"490G00012218","stopLetter":"CR","topMostParentId":"490G00012218","towards":"Cricklewood"},{"icsId":"1008214","id":"490008214W","lat":51.55142,"lon":-0.19975,"name":"Hillfield Road","parentId":"490G00008214","stationId":"490G00008214","stopLetter":"CS","topMostParentId":"490G00008214","towards":"Cricklewood"},{"icsId":"1009911","id":"490009911W","lat":51.55103,"lon":-0.20192,"name":"Westbere Road","parentId":"490G00009911","stationId":"490G00009911","stopLetter":"CT","topMostParentId":"490G00009911","towards":"Cricklewood"},{"icsId":"1009940","id":"490009940W","lat":51.553,"lon":-0.20585,"name":"Minster Road","parentId":"490G00009940","stationId":"490G00009940","stopLetter":"CS","topMostParentId":"490G00009940","towards":"Cricklewood"},{"icsId":"1009804","id":"490009804W","lat":51.55427,"lon":-0.20765,"name":"Hampstead School","parentId":"490G00009804","stationId":"490G00009804","stopLetter":"CT","topMostParentId":"490G00009804","towards":"Cricklewood"},{"icsId":"1014415","id":"490014415W","lat":51.55676,"lon":-0.20943,"name":"Westcroft Way","parentId":"490G00014415","stationId":"490G00014415","stopLetter":"CU","topMostParentId":"490G00014415","towards":"Brent Cross"},{"icsId":"1015253","id":"490015253S","lat":51.55813,"lon":-0.21116,"name":"Cricklewood Lane","parentId":"490G00015253","stationId":"490G00015253","stopLetter":"CV","topMostParentId":"490G00015253","towards":"Brent Cross"},{"icsId":"1001075","id":"490001075P","lat":51.55922,"lon":-0.21217,"name":"Cricklewood Station","stopLetter":"CH","topMostParentId":"490001075P","towards":"Brent Cross Or Golders Green"},{"icsId":"1012230","id":"490012230N","lat":51.5609,"lon":-0.21345,"name":"Somerton Road","parentId":"490G00012230","stationId":"490G00012230","stopLetter":"CJ","topMostParentId":"490G00012230","towards":"Brent Cross Or Golders Green"},{"icsId":"1010918","id":"490010914N","lat":51.56492,"lon":-0.21659,"name":"Caney Mews","parentId":"490G00010918","stationId":"490G00010918","stopLetter":"F","topMostParentId":"490G00010918","towards":"Brent Cross"},{"icsId":"1008053","id":"490008053N","lat":51.56727,"lon":-0.2182,"name":"Clitterhouse Road South","parentId":"490G00008053","stationId":"490G00008053","stopLetter":"G","topMostParentId":"490G00008053","towards":"Brent Cross"},{"icsId":"1005435","id":"490005435N","lat":51.56873,"lon":-0.2188,"name":"Clitterhouse Road North","parentId":"490G00005435","stationId":"490G00005435","stopLetter":"H","topMostParentId":"490G00005435","towards":"Brent Cross"},{"icsId":"1005434","id":"490005434N","lat":51.57128,"lon":-0.21936,"name":"Claremont Way","parentId":"490G00005434","stationId":"490G00005434","stopLetter":"J","topMostParentId":"490G00005434","towards":"Brent Cross"},{"icsId":"1009624","id":"490009624V","lat":51.57384,"lon":-0.22069,"name":"Mapledown School","parentId":"490G00009624","stationId":"490G00009624","stopLetter":"V","topMostParentId":"490G00009624","towards":"Brent Cross"},{"icsId":"1004282","id":"490004282A","lat":51.57565,"lon":-0.22352,"name":"Brent Cross Shopping Centre","parentId":"490G00004282","stationId":"490G00004282","stopLetter":"A","topMostParentId":"490G00004282"}]}]}