{"direction":"outbound","lineId":"e11","lineName":"E11","mode":"bus","stopPointSequences":[{"stopPoint":[{"icsId":"1007441","id":"490007441H","lat":51.52744,"lon":-0.35139,"name":"Clifton Road","parentId":"490G00007441","stationId":"490G00007441","stopLetter":"K","topMostParentId":"490G00007441","towards":"Ealing Or Hanwell"},{"icsId":"1004300","id":"490004300S","lat":51.52662,"lon":-0.34189,"name":"Brentside High School","parentId":"490G00004300","stationId":"490G00004300","stopLetter":"GP","topMostParentId":"490G00004300","towards":"Ealing Or Hanwell"},{"icsId":"1008639","id":"490008639S","lat":51.52505,"lon":-0.34137,"name":"Kennedy Road","parentId":"490G00008639","stationId":"490G00008639","stopLetter":"GQ","topMostParentId":"490G00008639","towards":"Ealing Or Hanwell"},{"icsId":"1015330","id":"490015330W","lat":51.52309,"lon":-0.34192,"name":"Greenford Av Gifford Gardens","parentId":"490G00015330","stationId":"490G00015330","stopLetter":"->W","topMostParentId":"490G00015330"},{"icsId":"1019731","id":"490004318W","lat":51.52274,"lon":-0.34359,"name":"Gifford Gardens","parentId":"490G00019731","stationId":"490G00019731","stopLetter":"->W","topMostParentId":"490G00019731"},{"icsId":"1004318","id":"490003817S","lat":51.52167,"lon":-0.34612,"name":"Bridge Avenue","parentId":"490G00004318","stationId":"490G00004318","stopLetter":"->S","topMostParentId":"490G00004318"},{"icsId":"1004318","id":"490009738W","lat":51.52041,"lon":-0.34683,"name":"Bridge Avenue","parentId":"490G00004318","stationId":"490G00004318","stopLetter":"->W","topMostParentId":"490G00004318"},{"icsId":"1009749","id":"490012964S","lat":51.51914,"lon":-0.34712,"name":"High Lane","parentId":"490G00009749","stationId":"490G00009749","stopLetter":"->S","topMostParentId":"490G00009749"},{"icsId":"1012962","id":"490012962E1","lat":51.51914,"lon":-0.34597,"name":"High Lane / Studland Road","parentId":"490G00012962","stationId":"490G00012962","stopLetter":"->E","topMostParentId":"490G00012962"},{"icsId":"1012962","id":"490012962E2","lat":51.51931,"lon":-0.34323,"name":"High Lane / Studland Road","parentId":"490G00012962","stationId":"490G00012962","topMostParentId":"490G00012962"},{"icsId":"1007445","id":"490007445W2","lat":51.51955,"lon":-0.33946,"name":"Studland Road Hanwell","parentId":"490G00007445","stationId":"490G00007445","stopLetter":"->W","topMostParentId":"490G00007445"},{"icsId":"1015886","id":"490015886E","lat":51.52204,"lon":-0.33955,"name":"Bordars Walk","parentId":"490G00015886","stationId":"490G00015886","stopLetter":"BE","topMostParentId":"490G00015886","towards":"Ealing Broadway"},{"icsId":"1016604","id":"490016604E","lat":51.52282,"lon":-0.33565,"name":"Cuckoo Avenue","parentId":"490G00016604","stationId":"490G00016604","stopLetter":"BF","topMostParentId":"490G00016604","towards":"Ealing Broadway"},{"icsId":"1007832","id":"490007832E","lat":51.52335,"lon":-0.3337,"name":"Copley Close","parentId":"490G00007832","stationId":"490G00007832","stopLetter":"BH","topMostParentId":"490G00007832","towards":"Ealing Broadway"},{"icsId":"1001052","id":"490001052N","lat":51.52291,"lon":-0.33154,"name":"Castle Bar Park","stopLetter":"CJ","topMostParentId":"490001052N","towards":"Ealing Broadway"},{"icsId":"1015887","id":"490015887S","lat":51.52114,"lon":-0.33065,"name":"Cheyne Path","parentId":"490G00015887","stationId":"490G00015887","stopLetter":"CK","topMostParentId":"490G00015887","towards":"Ealing Broadway"},{"icsId":"1015889","id":"490015888S","lat":51.51884,"lon":-0.33021,"name":"Framfield Road","parentId":"490G00015889","stationId":"490G00015889","stopLetter":"DD","topMostParentId":"490G00015889","towards":"Ealing Broadway"},{"icsId":"1004507","id":"490015889S","lat":51.51764,"lon":-0.33138,"name":"Browning Avenue","parentId":"490G000431","stationId":"490G000431","stopLetter":"DE","topMostParentId":"490G000431","towards":"Ealing Broadway"},{"icsId":"1006192","id":"490006192D","lat":51.51639,"lon":-0.33114,"name":"Drayton Bridge Road","parentId":"490G00006192","stationId":"490G00006192","stopLetter":"DF","topMostParentId":"490G00006192","towards":"Ealing Broadway"},{"icsId":"1001085","id":"490001085E","lat":51.51669,"lon":-0.3264,"name":"Drayton Green","stopLetter":"DH","topMostParentId":"490001085E","towards":"Ealing Broadway Or Ealing Common"},{"icsId":"1013055","id":"490013055S","lat":51.51608,"lon":-0.32136,"name":"Sutherland Avenue","parentId":"490G00013055","stationId":"490G00013055","stopLetter":"DK","topMostParentId":"490G00013055","towards":"Ealing Broadway"},{"icsId":"1001327","id":"490001327B","lat":51.51406,"lon":-0.32024,"name":"West Ealing Station","stopLetter":"B","topMostParentId":"490001327B","towards":"Ealing Broadway"},{"icsId":"1006194","id":"490006194F","lat":51.51171,"lon":-0.31954,"name":"Drayton Green Road","parentId":"490G00006194","stationId":"490G00006194","stopLetter":"F","topMostParentId":"490G00006194","towards":"Ealing Broadway"},{"icsId":"1004500","id":"490004500M","lat":51.51153,"lon":-0.31595,"name":"Broughton Road","parentId":"490G00004500","stationId":"490G00004500","stopLetter":"M","topMostParentId":"490G00004500","towards":"Acton Or Hanger Lane"},{"icsId":"1012763","id":"490012763E","lat":51.51208,"lon":-0.31252,"name":"St Leonards Road","parentId":"490G00012763","stationId":"490G00012763","stopLetter":"U","topMostParentId":"490G00012763","towards":"Ealing Common Or Hanger Lane"},{"icsId":"1006304","id":"490006301E","lat":51.51268,"lon":-0.30875,"name":"Longfield Avenue","parentId":"490G00006304","stationId":"490G00006304","stopLetter":"V","topMostParentId":"490G00006304","towards":"Acton Or Hanger Lane"},{"icsId":"1004143","id":"490019653E","lat":51.51301,"lon":-0.30655,"name":"Bond Street","parentId":"490G00004143","stationId":"490G00004143","stopLetter":"W","topMostParentId":"490G00004143","towards":"Acton Or Hanger Lane"},{"icsId":"1000062","id":"490000062H","lat":51.514,"lon":-0.30298,"name":"Ealing Broadway Station","stopLetter":"H","topMostParentId":"490000062H","towards":"Acton Or Hanger Lane","zone":"3"},{"icsId":"1010339","id":"490010339E","lat":51.51316,"lon":-0.29694,"name":"North Common Road","parentId":"490G00010339","stationId":"490G00010339","stopLetter":"EM","topMostParentId":"490G00010339","towards":"Acton Or Hanger Lane"},{"icsId":"1013305","id":"490013305S","lat":51.50765,"lon":-0.29525,"name":"The Common / Warwick Dene","parentId":"490G00013305","stationId":"490G00013305","stopLetter":"EW","topMostParentId":"490G00013305","towards":"West Ealing"}]}]}