{"direction":"outbound","lineId":"e5","lineName":"E5","mode":"bus","stopPointSequences":[{"stopPoint":[{"icsId":"1013714","id":"490013714S","lat":51.50303,"lon":-0.36415,"name":"Toplocks Estate / Glade Lane","parentId":"490G00013714","stationId":"490G00013714","stopLetter":"->S","topMostParentId":"490G00013714","towards":"Southall"},{"icsId":"1013715","id":"490013814W","lat":51.50152,"lon":-0.3644,"name":"Mcnair Road","parentId":"490G00013715","stationId":"490G00013715","stopLetter":"->W","topMostParentId":"490G00013715","towards":"Southall"},{"icsId":"1007521","id":"490007521W","lat":51.50023,"lon":-0.36892,"name":"Gregory Road","parentId":"490G00007521","stationId":"490G00007521","stopLetter":"->W","topMostParentId":"490G00007521","towards":"Southall"},{"icsId":"1000443","id":"490014976W","lat":51.50157,"lon":-0.36967,"name":"Hillary Road","parentId":"490G000092","stationId":"490G000092","stopLetter":"->N","topMostParentId":"490G000092","towards":"Southall"},{"icsId":"1007906","id":"490007906W2","lat":51.50195,"lon":-0.37132,"name":"Tensing Road","parentId":"490G00007906","stationId":"490G00007906","stopLetter":"->W","topMostParentId":"490G00007906","towards":"Southall"},{"icsId":"1008429","id":"490008429W","lat":51.5003,"lon":-0.37312,"name":"Hunt Road","parentId":"490G00008429","stationId":"490G00008429","stopLetter":"->W","topMostParentId":"490G00008429","towards":"Southall"},{"icsId":"1016593","id":"490016593K","lat":51.49941,"lon":-0.37639,"name":"Havelock Road","parentId":"490G00016593","stationId":"490G00016593","stopLetter":"K","topMostParentId":"490G00016593","towards":"Southall"},{"icsId":"1010445","id":"490010445A","lat":51.49858,"lon":-0.37889,"name":"Norwood Gardens","parentId":"490G00010445","stationId":"490G00010445","stopLetter":"A","topMostParentId":"490G00010445","towards":"Greenford Or Yeading"},{"icsId":"1014608","id":"490014608C","lat":51.4993,"lon":-0.38279,"name":"Adelaide Road","parentId":"490G00014608","stationId":"490G00014608","stopLetter":"C","topMostParentId":"490G00014608","towards":"Greenford Or Yeading"},{"icsId":"1013056","id":"490013052W2","lat":51.49985,"lon":-0.38642,"name":"Montague Waye","parentId":"490G00013056","stationId":"490G00013056","stopLetter":"->W","topMostParentId":"490G00013056","towards":"Cranford, Hayes, Greenford Or Heston"},{"icsId":"1006772","id":"490006772E","lat":51.50241,"lon":-0.38529,"name":"Featherstone Road","parentId":"490G00006772","stationId":"490G00006772","stopLetter":"->E","topMostParentId":"490G00006772","towards":"Greenford"},{"icsId":"1013388","id":"490013388L","lat":51.5029,"lon":-0.38101,"name":"The Green","parentId":"490G00013388","stationId":"490G00013388","stopLetter":"L","topMostParentId":"490G00013388","towards":"Ealing Hospital, Greenford Or Northolt"},{"icsId":"1010754","id":"490010754P","lat":51.50757,"lon":-0.37832,"name":"Park Avenue","parentId":"490G00010754","stationId":"490G00010754","stopLetter":"P","topMostParentId":"490G00010754","towards":"Ealing Hospital, Greenford Or Yeading"},{"icsId":"1012241","id":"490012241N","lat":51.51037,"lon":-0.37612,"name":"Southall Broadway","parentId":"490G00012241","stationId":"490G00012241","stopLetter":"N","topMostParentId":"490G00012241","towards":"Ealing Hospital Or Greenford"},{"icsId":"1014102","id":"490014102E","lat":51.51198,"lon":-0.37563,"name":"Southall Town Hall","parentId":"490G00014102","stationId":"490G00014102","stopLetter":"E","topMostParentId":"490G00014102","towards":"Greenford Or Northolt"},{"icsId":"1010317","id":"490010317C","lat":51.51444,"lon":-0.3756,"name":"North Avenue","parentId":"490G00010317","stationId":"490G00010317","stopLetter":"C","topMostParentId":"490G00010317","towards":"Greenford Or Northolt"},{"icsId":"1001971","id":"490004807A","lat":51.51582,"lon":-0.37294,"name":"North Road","parentId":"490G00001971","stationId":"490G00001971","stopLetter":"A","topMostParentId":"490G00001971","towards":"Greenford"},{"icsId":"1008790","id":"490008790Z","lat":51.51511,"lon":-0.36905,"name":"Kingsley Avenue","parentId":"490G00008790","stationId":"490G00008790","stopLetter":"Z","topMostParentId":"490G00008790","towards":"Greenford"},{"icsId":"1009712","id":"490009712X","lat":51.51527,"lon":-0.3647,"name":"Masefield Avenue","parentId":"490G00009712","stationId":"490G00009712","stopLetter":"X","topMostParentId":"490G00009712","towards":"Greenford"},{"icsId":"1005976","id":"490013188N","lat":51.51754,"lon":-0.36258,"name":"Wallis Road","parentId":"490G00005976","stationId":"490G00005976","stopLetter":"A","topMostParentId":"490G00005976","towards":"Greenford"},{"icsId":"1007278","id":"490007279E","lat":51.51799,"lon":-0.35844,"name":"Golf Links Estate","parentId":"490G00007278","stationId":"490G00007278","stopLetter":"B","topMostParentId":"490G00007278","towards":"Greenford"},{"icsId":"1007455","id":"490007455E","lat":51.51773,"lon":-0.35598,"name":"Redcroft Road","parentId":"490G00007455","stationId":"490G00007455","stopLetter":"C","topMostParentId":"490G00007455","towards":"Greenford"},{"icsId":"1014766","id":"490014766N","lat":51.51997,"lon":-0.35476,"name":"Windmill Lane","parentId":"490G00014766","stationId":"490G00014766","stopLetter":"E","topMostParentId":"490G00014766","towards":"Greenford Station Or Yeading"},{"icsId":"1007447","id":"490007447N","lat":51.52452,"lon":-0.35346,"name":"Greenford Depot","parentId":"490G00007447","stationId":"490G00007447","stopLetter":"U","topMostParentId":"490G00007447","towards":"Greenford Station Or Yeading"},{"icsId":"1007441","id":"490007441J","lat":51.5274,"lon":-0.35076,"name":"Clifton Road","parentId":"490G00007441","stationId":"490G00007441","stopLetter":"L","topMostParentId":"490G00007441","towards":"Perivale, Ealing Or West Ealing"},{"icsId":"1007443","id":"490007443E","lat":51.52738,"lon":-0.34185,"name":"Greenford Avenue","parentId":"490G00007443","stationId":"490G00007443","stopLetter":"RS","topMostParentId":"490G00007443","towards":"Perivale, Ealing Or West Ealing"},{"icsId":"1005880","id":"490005880E","lat":51.52772,"lon":-0.3386,"name":"Cuckoo Avenue","parentId":"490G00005880","stationId":"490G00005880","stopLetter":"RT","topMostParentId":"490G00005880","towards":"Perivale, Ealing Or West Ealing"},{"icsId":"1007609","id":"490007609E","lat":51.52865,"lon":-0.33154,"name":"Gurnell Leisure Centre","parentId":"490G00007609","stationId":"490G00007609","stopLetter":"RW","topMostParentId":"490G00007609","towards":"Perivale, Ealing Or West Ealing"},{"icsId":"1010944","id":"490010944N","lat":51.53293,"lon":-0.33006,"name":"Perivale Lane","parentId":"490G00010944","stationId":"490G00010944","stopLetter":"B","topMostParentId":"490G00010944","towards":"Alperton Or Medway Estate"},{"icsId":"1015891","id":"490015891N","lat":51.53463,"lon":-0.33326,"name":"Medway Parade","parentId":"490G00015891","stationId":"490G00015891","stopLetter":"C","topMostParentId":"490G00015891","towards":"Perivale Tesco"},{"icsId":"1013183","id":"490013183E","lat":51.53381,"lon":-0.32488,"name":"Teignmouth Gardens","parentId":"490G00013183","stationId":"490G00013183","stopLetter":"E","topMostParentId":"490G00013183","towards":"Perivale Tesco, Alperton Or Hanger Lane"},{"icsId":"1013466","id":"490013466E","lat":51.53357,"lon":-0.32247,"name":"Bideford Avenue","parentId":"490G00013466","stationId":"490G00013466","stopLetter":"P","topMostParentId":"490G00013466","towards":"Perivale Tesco Or Hanger Lane Station"},{"icsId":"1017854","id":"490017854S","lat":51.53442,"lon":-0.31928,"name":"Perivale Tesco","parentId":"490G00017854","stationId":"490G00017854","stopLetter":"T","topMostParentId":"490G00017854","towards":"Greenford"}]}]}