{"direction":"outbound","lineId":"e9","lineName":"E9","mode":"bus","stopPointSequences":[{"stopPoint":[{"icsId":"1014337","id":"490014337S1","lat":51.53012,"lon":-0.40562,"name":"Welbeck Avenue","parentId":"490G00014337","stationId":"490G00014337","stopLetter":"->S","topMostParentId":"490G00014337","towards":"Greenford"},{"icsId":"1003528","id":"490003528Z","lat":51.53174,"lon":-0.40644,"name":"Ayles Road","parentId":"490G00003528","stationId":"490G00003528","stopLetter":"->N","topMostParentId":"490G00003528","towards":"Greenford"},{"icsId":"1007610","id":"490007610E","lat":51.53335,"lon":-0.40306,"name":"Gurney Road","parentId":"490G00007610","stationId":"490G00007610","stopLetter":"->E","topMostParentId":"490G00007610","towards":"Northolt Or Greenford"},{"icsId":"1008784","id":"490008784N","lat":51.5336,"lon":-0.39649,"name":"Kingshill Avenue","parentId":"490G00008784","stationId":"490G00008784","stopLetter":"K","topMostParentId":"490G00008784","towards":"Greenford Or Northolt"},{"icsId":"1015478","id":"490015478N","lat":51.5359,"lon":-0.39246,"name":"Yeading / Tangmere Gardens","parentId":"490G00015478","stationId":"490G00015478","stopLetter":"N","topMostParentId":"490G00015478","towards":"Greenford Or Northolt"},{"icsId":"1015479","id":"490015479E","lat":51.53502,"lon":-0.38904,"name":"Church Road","parentId":"490G00015479","stationId":"490G00015479","stopLetter":"Y","topMostParentId":"490G00015479","towards":"Ealing Or Southall"},{"icsId":"1008596","id":"490008596E","lat":51.53324,"lon":-0.38484,"name":"Wayfarer Road","parentId":"490G00008596","stationId":"490G00008596","stopLetter":"->E","topMostParentId":"490G00008596","towards":"Greenford, Ealing Or Southall"},{"icsId":"1004373","id":"490004373E","lat":51.53293,"lon":-0.37827,"name":"Broadmead Road","parentId":"490G00004373","stationId":"490G00004373","stopLetter":"WE","topMostParentId":"490G00004373","towards":"Ealing, Ealing Hospital Or Southall"},{"icsId":"1003116","id":"490003116E","lat":51.53275,"lon":-0.37287,"name":"Adrienne Avenue","parentId":"490G00003116","stationId":"490G00003116","stopLetter":"WF","topMostParentId":"490G00003116","towards":"Ealing, Ealing Hospital Or Southall"},{"icsId":"1007782","id":"490007782E","lat":51.53237,"lon":-0.36829,"name":"Greenford High School","parentId":"490G00007782","stationId":"490G00007782","stopLetter":"EG","topMostParentId":"490G00007782","towards":"Ealing, Ealing Hospital Or Greenford Roundabout"},{"icsId":"1006369","id":"490006369E","lat":51.52994,"lon":-0.36362,"name":"Eastmead Avenue","parentId":"490G00006369","stationId":"490G00006369","stopLetter":"EH","topMostParentId":"490G00006369","towards":"Ealing, Ealing Hospital Or Greenford Roundabout"},{"icsId":"1010897","id":"490010897E1","lat":51.52868,"lon":-0.35928,"name":"Pembroke Road","parentId":"490G00010897","stationId":"490G00010897","stopLetter":"H","topMostParentId":"490G00010897","towards":"Ealing, Ealing Hospital Or Greenford Roundabout"},{"icsId":"1007446","id":"490007446C","lat":51.52803,"lon":-0.35407,"name":"Greenford Broadway","parentId":"490G00007446","stationId":"490G00007446","stopLetter":"J","topMostParentId":"490G00007446","towards":"Ealing, Ealing Hospital Or Greenford Roundabout"},{"icsId":"1007441","id":"490007441J","lat":51.5274,"lon":-0.35076,"name":"Clifton Road","parentId":"490G00007441","stationId":"490G00007441","stopLetter":"L","topMostParentId":"490G00007441","towards":"Perivale, Ealing Or West Ealing"},{"icsId":"1007443","id":"490007443E","lat":51.52738,"lon":-0.34185,"name":"Greenford Avenue","parentId":"490G00007443","stationId":"490G00007443","stopLetter":"RS","topMostParentId":"490G00007443","towards":"Perivale, Ealing Or West Ealing"},{"icsId":"1005880","id":"490005880E","lat":51.52772,"lon":-0.3386,"name":"Cuckoo Avenue","parentId":"490G00005880","stationId":"490G00005880","stopLetter":"RT","topMostParentId":"490G00005880","towards":"Perivale, Ealing Or West Ealing"},{"icsId":"1007609","id":"490007609E","lat":51.52865,"lon":-0.33154,"name":"Gurnell Leisure Centre","parentId":"490G00007609","stationId":"490G00007609","stopLetter":"RW","topMostParentId":"490G00007609","towards":"Perivale, Ealing Or West Ealing"},{"icsId":"1011787","id":"490011787S","lat":51.528,"lon":-0.32638,"name":"Ruislip Road East","parentId":"490G00011787","stationId":"490G00011787","stopLetter":"AA","topMostParentId":"490G00011787","towards":"Ealing Broadway"},{"icsId":"1011949","id":"490011949S","lat":51.52504,"lon":-0.32412,"name":"Scotch Common","parentId":"490G00011949","stationId":"490G00011949","stopLetter":"AB","topMostParentId":"490G00011949","towards":"Ealing Broadway"},{"icsId":"1008654","id":"490008654E","lat":51.52509,"lon":-0.31916,"name":"Kent Gardens","parentId":"490G00008654","stationId":"490G00008654","stopLetter":"SC","topMostParentId":"490G00008654","towards":"Ealing Broadway"},{"icsId":"1011029","id":"490011029E","lat":51.52613,"lon":-0.31386,"name":"Pitshanger Library","parentId":"490G00011029","stationId":"490G00011029","stopLetter":"SM","topMostParentId":"490G00011029","towards":"Ealing Broadway"},{"icsId":"1012634","id":"490012634E","lat":51.52692,"lon":-0.30946,"name":"St Barnabas Church","parentId":"490G00012634","stationId":"490G00012634","stopLetter":"SN","topMostParentId":"490G00012634","towards":"Ealing Broadway"},{"icsId":"1005149","id":"490005149S","lat":51.5236,"lon":-0.30827,"name":"Fairlea Place","parentId":"490G00005149","stationId":"490G00005149","stopLetter":"SP","topMostParentId":"490G00005149","towards":"Ealing Broadway"},{"icsId":"1010001","id":"490010001S","lat":51.52155,"lon":-0.3066,"name":"Montpelier Road","parentId":"490G00010001","stationId":"490G00010001","stopLetter":"SQ","topMostParentId":"490G00010001","towards":"Ealing Broadway"},{"icsId":"1009636","id":"490009637S","lat":51.52025,"lon":-0.30611,"name":"Marchwood Crescent","parentId":"490G00009636","stationId":"490G00009636","stopLetter":"SR","topMostParentId":"490G00009636","towards":"Northfields"},{"icsId":"1006279","id":"490006279S","lat":51.51677,"lon":-0.30635,"name":"Castlebar Road","parentId":"490G00006279","stationId":"490G00006279","stopLetter":"ST","topMostParentId":"490G00006279","towards":"West Ealing and Northfields"},{"icsId":"1007939","id":"490000062A","lat":51.51565,"lon":-0.30225,"name":"Ealing Broadway Station   / Haven Green","stopLetter":"A","topMostParentId":"490000062A"},{"icsId":"1007913","id":"490007913E","lat":51.5156,"lon":-0.30417,"name":"Haven Grn / Ealing Broadway Stn","parentId":"490G000578","stationId":"490G000578","stopLetter":"E","topMostParentId":"HUBEAL","towards":"Pitshanger Lane And Greenford"}]}]}