{"direction":"outbound","lineId":"h11","lineName":"H11","mode":"bus","stopPointSequences":[{"stopPoint":[{"icsId":"1007845","id":"490007845D","lat":51.58007,"lon":-0.33796,"name":"Harrow Bus Station","parentId":"490G000574","stationId":"490G000574","stopLetter":"D","topMostParentId":"HUBHOH","towards":"North Harrow, Pinner Or Wealdstone"},{"icsId":"1008984","id":"490008984W","lat":51.57672,"lon":-0.3453,"name":"Lascelles Avenue","parentId":"490G00008984","stationId":"490G00008984","stopLetter":"WX","topMostParentId":"490G00008984","towards":"Pinner Or South Harrow"},{"icsId":"1006204","id":"490006204W","lat":51.57508,"lon":-0.35153,"name":"Drury Road","parentId":"490G00006204","stationId":"490G00006204","stopLetter":"WA","topMostParentId":"490G00006204","towards":"Pinner"},{"icsId":"1012024","id":"490012024W","lat":51.57508,"lon":-0.35653,"name":"Shaftesbury Avenue","parentId":"490G00012024","stationId":"490G00012024","stopLetter":"WB","topMostParentId":"490G00012024","towards":"Pinner"},{"icsId":"1006502","id":"490006502N","lat":51.57979,"lon":-0.36302,"name":"Elm Drive","parentId":"490G00006502","stationId":"490G00006502","stopLetter":"NP","topMostParentId":"490G00006502","towards":"Pinner"},{"icsId":"1019911","id":"490013526N1","lat":51.58087,"lon":-0.36421,"name":"Imperial Drive","parentId":"490G00019911","stationId":"490G00019911","stopLetter":"NR","topMostParentId":"490G00019911","towards":"Pinner"},{"icsId":"1005251","id":"490005251N1","lat":51.58299,"lon":-0.36676,"name":"Church Drive","parentId":"490G00005251","stationId":"490G00005251","stopLetter":"NT","topMostParentId":"490G00005251","towards":"Pinner"},{"icsId":"1008961","id":"490008961W","lat":51.58395,"lon":-0.37188,"name":"Suffolk Road","parentId":"490G00008961","stationId":"490G00008961","stopLetter":"->W","topMostParentId":"490G00008961","towards":"Pinner and Mount Vernon Hospital"},{"icsId":"1011451","id":"490011451W","lat":51.58397,"lon":-0.37488,"name":"Rayners Lane","parentId":"490G00011451","stationId":"490G00011451","stopLetter":"->W","topMostParentId":"490G00011451","towards":"Northwood and Mount Vernon Hospital"},{"icsId":"1005534","id":"490005534W","lat":51.58494,"lon":-0.37913,"name":"Compton Rise","parentId":"490G00005534","stationId":"490G00005534","stopLetter":"->W","topMostParentId":"490G00005534","towards":"Northwood and Mount Vernon Hospital"},{"icsId":"1019891","id":"490013601W","lat":51.58576,"lon":-0.38114,"name":"Cannon Lane","parentId":"490G00019891","stationId":"490G00019891","stopLetter":"->W","topMostParentId":"490G00019891","towards":"Northwood & Mount Vernon Hospital"},{"icsId":"1019890","id":"490013601N1","lat":51.58695,"lon":-0.38201,"name":"Hereford Gardens","parentId":"490G00019890","stationId":"490G00019890","topMostParentId":"490G00019890","towards":"Mount Vernon Hospital Or Hatch End"},{"icsId":"1004755","id":"490004755N","lat":51.58888,"lon":-0.38243,"name":"Cannon Lane","parentId":"490G00004755","stationId":"490G00004755","stopLetter":"->N","topMostParentId":"490G00004755","towards":"Hatch End, Northwood Or St Vincent's"},{"icsId":"1011019","id":"490011019E","lat":51.59039,"lon":-0.38076,"name":"Holwell Place","parentId":"490G00011019","stationId":"490G00011019","stopLetter":"H","topMostParentId":"490G00011019","towards":"Hatch End, Northwood Or St Vincent's Nursing Home"},{"icsId":"1000181","id":"490000181B","lat":51.59239,"lon":-0.38207,"name":"Pinner Station","stopLetter":"B","topMostParentId":"490000181B","towards":"Northwood, Hatch End Or St Vincent's Hospital","zone":"5"},{"icsId":"1004332","id":"490004332D","lat":51.5947,"lon":-0.38351,"name":"Love Lane","parentId":"490G00004332","stationId":"490G00004332","stopLetter":"D","topMostParentId":"490G00004332","towards":"Hatch End , Northwood Or St Vincent's Nursing Home"},{"icsId":"1007372","id":"490007372N","lat":51.59585,"lon":-0.3861,"name":"Granville Place","parentId":"490G00007372","stationId":"490G00007372","stopLetter":"PP","topMostParentId":"490G00007372","towards":"Hatch End, Northwood Or St Vincents"},{"icsId":"1014435","id":"490014435N","lat":51.59808,"lon":-0.39182,"name":"West End Lane","parentId":"490G00014435","stationId":"490G00014435","stopLetter":"PR","topMostParentId":"490G00014435","towards":"Hatch End, Northwood Or St.vincent's"},{"icsId":"1005882","id":"490005882W","lat":51.59809,"lon":-0.39614,"name":"Cuckoo Hill","parentId":"490G00005882","stationId":"490G00005882","stopLetter":"PS","topMostParentId":"490G00005882","towards":"Northwood"},{"icsId":"1005820","id":"490005820W","lat":51.59986,"lon":-0.40023,"name":"Crossway","parentId":"490G00005820","stationId":"490G00005820","stopLetter":"PT","topMostParentId":"490G00005820","towards":"Northwood"},{"icsId":"1010435","id":"490010435NW","lat":51.602102,"lon":-0.407591,"name":"Northwood School","topMostParentId":"490010435NW","towards":"Mount Vernon Hospital"},{"icsId":"1008558","id":"490011022D","lat":51.60293,"lon":-0.41061,"name":"Northwood Hills Circus","parentId":"490G000613","stationId":"490G000613","stopLetter":"E","topMostParentId":"490G000613","towards":"Mount Vernon Hospital"},{"icsId":"1010429","id":"490010429W","lat":51.60345,"lon":-0.41266,"name":"Northwood Health Centre","parentId":"490G00010429","stationId":"490G00010429","stopLetter":"G","topMostParentId":"490G00010429","towards":"Mount Vernon Hospital"},{"icsId":"1019880","id":"490010431W","lat":51.60448,"lon":-0.41655,"name":"Northwood Iron Bridge","parentId":"490G00019880","stationId":"490G00019880","stopLetter":"->W","topMostParentId":"490G00019880","towards":"Mount Vernon Hospital"},{"icsId":"1010431","id":"490010431N","lat":51.60551,"lon":-0.41742,"name":"Hallowell Road","parentId":"490G00010431","stationId":"490G00010431","stopLetter":"->N","topMostParentId":"490G00010431","towards":"Mount Vernon Hospital"},{"icsId":"1006563","id":"490006563N","lat":51.60803,"lon":-0.41582,"name":"Emmanuel Church","parentId":"490G00006563","stationId":"490G00006563","stopLetter":"->N","topMostParentId":"490G00006563","towards":"Mount Vernon Hospital"},{"icsId":"1005292","id":"490005292W","lat":51.6103,"lon":-0.41558,"name":"Church Road","parentId":"490G00005292","stationId":"490G00005292","stopLetter":"->W","topMostParentId":"490G00005292","towards":"Mount Vernon Hospital"},{"icsId":"1000165","id":"490015504C","lat":51.61127,"lon":-0.42269,"name":"Northwood Station","stopLetter":"C","topMostParentId":"490015504C","towards":"Mount Vernon Hospital","zone":"6"},{"icsId":"1006032","id":"490006032H","lat":51.61197,"lon":-0.42657,"name":"Dene Road","parentId":"490G00006032","stationId":"490G00006032","stopLetter":"H","topMostParentId":"490G00006032","towards":"Mount Vernon Hospital"},{"icsId":"1013374","id":"490013374E","lat":51.61188,"lon":-0.43091,"name":"The Glen","parentId":"490G00013374","stationId":"490G00013374","stopLetter":"P","topMostParentId":"490G00013374","towards":"Mount Vernon Hospital Or Harefield"},{"icsId":"1011565","id":"490011565W","lat":51.61165,"lon":-0.43247,"name":"Myrtleside Close","parentId":"490G00011565","stationId":"490G00011565","stopLetter":"R","topMostParentId":"490G00011565","towards":"Harefield"},{"icsId":"1008322","id":"490008322N","lat":51.61404,"lon":-0.43768,"name":"Holy Trinity School","parentId":"490G00008322","stationId":"490G00008322","stopLetter":"S","topMostParentId":"490G00008322","towards":"Harefield"},{"icsId":"1010101","id":"490010101Z","lat":51.61562,"lon":-0.44093,"name":"Thirlmere Gardens","parentId":"490G00010101","stationId":"490G00010101","stopLetter":"->W","topMostParentId":"490G00010101","towards":"Mount Vernon Hospital Or Harefield"},{"icsId":"1010100","id":"490010100W","lat":51.61636,"lon":-0.44489,"name":"Mount Vernon Hospital","parentId":"490G00010100","stationId":"490G00010100","stopLetter":"D","topMostParentId":"490G00010100"}]}]}