{"direction":"outbound","lineId":"h19","lineName":"H19","mode":"bus","stopPointSequences":[{"stopPoint":[{"icsId":"1007845","id":"490007845C","lat":51.57997,"lon":-0.33759,"name":"Harrow Bus Station","parentId":"490G000574","stationId":"490G000574","stopLetter":"C","topMostParentId":"HUBHOH","towards":"Northwick Park, Sudbury Or South Harrow"},{"icsId":"1015347","id":"490015347M","lat":51.57957,"lon":-0.33392,"name":"Harrow Town Centre","parentId":"490G00015347","stationId":"490G00015347","stopLetter":"M","topMostParentId":"490G00015347","towards":"Kenton, Wembley Or South Harrow"},{"icsId":"1010958","id":"490010958S","lat":51.57759,"lon":-0.33355,"name":"Tyburn Lane","parentId":"490G000702","stationId":"490G000702","stopLetter":"F","topMostParentId":"490G000702","towards":"Kenton, Wembley Or South Harrow"},{"icsId":"1019853","id":"490010424EE","lat":51.57977,"lon":-0.32231,"name":"Gayton Road","parentId":"490G00019853","stationId":"490G00019853","stopLetter":"EE","topMostParentId":"490G00019853","towards":"Northwick Park Station"},{"icsId":"1000164","id":"490000164MM","lat":51.57902,"lon":-0.31794,"name":"Northwick Park Station","stopLetter":"MM","topMostParentId":"490000164MM","towards":"Kenton","zone":"4"},{"icsId":"1010424","id":"490010424GG","lat":51.57986,"lon":-0.32208,"name":"Northwick Avenue","parentId":"490G00010424","stationId":"490G00010424","stopLetter":"GG","topMostParentId":"490G00010424","towards":"Preston Road, Kingsbury Or Wealdstone"},{"icsId":"1000124","id":"490000124HH","lat":51.58136,"lon":-0.31844,"name":"Kenton Station","stopLetter":"HH","topMostParentId":"490000124HH","towards":"Preston Road, Kingsbury Or Wealdstone","zone":"4"},{"icsId":"1004793","id":"490004793KK","lat":51.58299,"lon":-0.31564,"name":"Carlton Avenue","parentId":"490G00004793","stationId":"490G00004793","stopLetter":"KK","topMostParentId":"490G00004793","towards":"Preston Road, Kingsbury Or Wealdstone"},{"icsId":"1010517","id":"490010517E","lat":51.58415,"lon":-0.31336,"name":"Odeon Parade / Upton Gardens","parentId":"490G00010517","stationId":"490G00010517","stopLetter":"J","topMostParentId":"490G00010517","towards":"Preston Road, Kingsbury Or Wealdstone"},{"icsId":"1012760","id":"490012760E","lat":51.58554,"lon":-0.30987,"name":"St Leonard's Avenue","parentId":"490G00012760","stationId":"490G00012760","stopLetter":"K","topMostParentId":"490G00012760","towards":"Preston Road, Kingsbury Or Wealdstone"},{"icsId":"1008670","id":"490008670N","lat":51.58718,"lon":-0.30728,"name":"Kenton Road","parentId":"490G00008670","stationId":"490G00008670","stopLetter":"A","topMostParentId":"490G00008670","towards":"Harrow Weald, Queensbury Or Wealdstone"},{"icsId":"1008424","id":"490008424N","lat":51.59074,"lon":-0.30942,"name":"Hunters Grove","parentId":"490G00008424","stationId":"490G00008424","stopLetter":"B","topMostParentId":"490G00008424","towards":"Kenton Or Harrow"},{"icsId":"1005230","id":"490005230N","lat":51.59336,"lon":-0.31131,"name":"Kenton Library","parentId":"490G00005230","stationId":"490G00005230","stopLetter":"M","topMostParentId":"490G00005230","towards":"Belmont"},{"icsId":"1011323","id":"490011323N","lat":51.59668,"lon":-0.31307,"name":"Queens Avenue","parentId":"490G00011323","stationId":"490G00011323","stopLetter":"N","topMostParentId":"490G00011323","towards":"Harrow Weald"},{"icsId":"1005420","id":"490005420N","lat":51.59943,"lon":-0.31481,"name":"Clifton Avenue","parentId":"490G00005420","stationId":"490G00005420","stopLetter":"BP","topMostParentId":"490G00005420","towards":"Harrow Weald"},{"icsId":"1003862","id":"490003862E1","lat":51.60093,"lon":-0.31818,"name":"Belmont Circle","parentId":"490G00003862","stationId":"490G00003862","stopLetter":"BQ","topMostParentId":"490G00003862","towards":"Harrow Weald Or Wealdstone"},{"icsId":"1006860","id":"490006860N","lat":51.60149,"lon":-0.3251,"name":"Fisher Road","parentId":"490G00006860","stationId":"490G00006860","stopLetter":"BR","topMostParentId":"490G00006860","towards":"Harrow Weald"},{"icsId":"1013338","id":"490013338N","lat":51.60445,"lon":-0.32809,"name":"College Hill Road","parentId":"490G00013338","stationId":"490G00013338","stopLetter":"BS","topMostParentId":"490G00013338","towards":"Harrow Weald"},{"icsId":"1008998","id":"490008998N","lat":51.6073,"lon":-0.32984,"name":"Laurel Park","parentId":"490G00008998","stationId":"490G00008998","stopLetter":"BT","topMostParentId":"490G00008998","towards":"Harrow Weald"},{"icsId":"1011558","id":"490011558N2","lat":51.61128,"lon":-0.33085,"name":"Richmond Gardens","parentId":"490G00011558","stationId":"490G00011558","stopLetter":"->N","topMostParentId":"490G00011558","towards":"Harrow Weald"},{"icsId":"1004387","id":"490004387W","lat":51.61288,"lon":-0.3324,"name":"Brockhurst Corner","parentId":"490G00004387","stationId":"490G00004387","stopLetter":"->W","topMostParentId":"490G00004387","towards":"Hatch End Or Wealdstone"},{"icsId":"1003251","id":"490003251W","lat":51.61175,"lon":-0.33485,"name":"All Saints Mews","parentId":"490G00003251","stationId":"490G00003251","stopLetter":"WG","topMostParentId":"490G00003251","towards":"Hatch End Or Wealdstone"},{"icsId":"1013971","id":"490013971S","lat":51.60994,"lon":-0.33939,"name":"Uxbridge Road","parentId":"490G00013971","stationId":"490G00013971","stopLetter":"WH","topMostParentId":"490G00013971","towards":"Wealdstone Or Pinner"},{"icsId":"1007870","id":"490007870S","lat":51.60641,"lon":-0.33993,"name":"Harrow Weald Bus Garage","parentId":"490G00007870","stationId":"490G00007870","stopLetter":"WJ","topMostParentId":"490G00007870","towards":"Harrow Or Hatch End"},{"icsId":"1011485","id":"490011485W","lat":51.60433,"lon":-0.34054,"name":"Long Elmes / Aspri Medical Centre","parentId":"490G00011485","stationId":"490G00011485","stopLetter":"WQ","topMostParentId":"490G00011485","towards":"Harrow Or Hatch End"},{"icsId":"1012544","id":"490012544W","lat":51.60412,"lon":-0.34547,"name":"Stanhope Avenue","parentId":"490G00012544","stationId":"490G00012544","stopLetter":"->W","topMostParentId":"490G00012544","towards":"Harrow Or Hatch End"},{"icsId":"1005652","id":"490005652W","lat":51.60385,"lon":-0.35134,"name":"Courtenay Avenue","parentId":"490G00005652","stationId":"490G00005652","stopLetter":"F","topMostParentId":"490G00005652","towards":"Harrow Or Hatch End"},{"icsId":"1007980","id":"490007980B","lat":51.60378,"lon":-0.35676,"name":"Headstone Lane","parentId":"490G000582","stationId":"490G000582","stopLetter":"B","topMostParentId":"490G000582","towards":"Harrow Or Hatch End"},{"icsId":"1001146","id":"490001146S","lat":51.6022,"lon":-0.35646,"name":"Headstone Lane Station","stopLetter":"C","topMostParentId":"490001146S","towards":"North Harrow"},{"icsId":"1010766","id":"490010766S","lat":51.60014,"lon":-0.35578,"name":"Parkfield Avenue","parentId":"490G00010766","stationId":"490G00010766","stopLetter":"->S","topMostParentId":"490G00010766","towards":"North Harrow"},{"icsId":"1011020","id":"490011020S","lat":51.59676,"lon":-0.35636,"name":"Pinner Park Avenue","parentId":"490G00011020","stationId":"490G00011020","stopLetter":"->S","topMostParentId":"490G00011020","towards":"North Harrow"},{"icsId":"1006500","id":"490006500S","lat":51.59346,"lon":-0.36086,"name":"Elmcroft Crescent","parentId":"490G00006500","stationId":"490G00006500","stopLetter":"->S","topMostParentId":"490G00006500","towards":"North Harrow"},{"icsId":"1011242","id":"490011242S","lat":51.59197,"lon":-0.36212,"name":"Priory Way","parentId":"490G00011242","stationId":"490G00011242","stopLetter":"->S","topMostParentId":"490G00011242","towards":"North Harrow"},{"icsId":"1012288","id":"490012288S","lat":51.58867,"lon":-0.36289,"name":"Southfield Park","parentId":"490G00012288","stationId":"490G00012288","stopLetter":"->S","topMostParentId":"490G00012288","towards":"Harrow"},{"icsId":"1010376","id":"490010376S","lat":51.58656,"lon":-0.36155,"name":"Station Road","parentId":"490G000683","stationId":"490G000683","stopLetter":"NC","topMostParentId":"490G000683","towards":"Harrow"},{"icsId":"1006271","id":"490006271E","lat":51.584,"lon":-0.35707,"name":"Durham Road","parentId":"490G00006271","stationId":"490G00006271","stopLetter":"NH","topMostParentId":"490G00006271","towards":"Harrow"},{"icsId":"1011825","id":"490011825B","lat":51.58222,"lon":-0.35184,"name":"Rutland Road","parentId":"490G00011825","stationId":"490G00011825","stopLetter":"WE","topMostParentId":"490G00011825","towards":"Harrow"},{"icsId":"1010683","id":"490010683E","lat":51.58148,"lon":-0.34968,"name":"Oxford Road","parentId":"490G00010683","stationId":"490G00010683","stopLetter":"WF","topMostParentId":"490G00010683","towards":"Harrow"},{"icsId":"1010175","id":"490010175E","lat":51.58126,"lon":-0.34448,"name":"Neptune Road","parentId":"490G00010175","stationId":"490G00010175","stopLetter":"WG","topMostParentId":"490G00010175","towards":"Harrow"},{"icsId":"1012690","id":"490012690X1","lat":51.58102,"lon":-0.33947,"name":"St Georges Centre","parentId":"490G00012690","stationId":"490G00012690","stopLetter":"X1","topMostParentId":"490G00012690"},{"icsId":"1020278","id":"490020278S","lat":51.58038,"lon":-0.33822,"name":"Kymberley Road","parentId":"490G00020278","stationId":"490G00020278","stopLetter":"->S","topMostParentId":"490G00020278"}]}]}