{"direction":"outbound","lineId":"h28","lineName":"H28","mode":"bus","stopPointSequences":[{"stopPoint":[{"icsId":"1004576","id":"490015280N","lat":51.49864,"lon":-0.40594,"name":"Bulls Bridge Tesco","parentId":"490G00004576","stationId":"490G00004576","stopLetter":"BW","topMostParentId":"490G00004576","towards":"Hayes Or Hounslow"},{"icsId":"1004573","id":"490004573E","lat":51.49809,"lon":-0.4056,"name":"Hayes Road / Tesco","parentId":"490G00004573","stationId":"490G00004573","stopLetter":"BA","topMostParentId":"490G00004573","towards":"Hounslow Or Southall"},{"icsId":"1007802","id":"490007802S","lat":51.4965,"lon":-0.40092,"name":"Navigator Park","parentId":"490G00007802","stationId":"490G00007802","stopLetter":"BT","topMostParentId":"490G00007802","towards":"Cranford Or Hounslow"},{"icsId":"1008113","id":"490008113S","lat":51.49348,"lon":-0.40202,"name":"Heston Centre","parentId":"490G00008113","stationId":"490G00008113","stopLetter":"A","topMostParentId":"490G00008113","towards":"Cranford Or Hounslow"},{"icsId":"1005703","id":"490005703S","lat":51.48672,"lon":-0.40533,"name":"Cranford Community School","parentId":"490G00005703","stationId":"490G00005703","stopLetter":"B","topMostParentId":"490G00005703","towards":"Heathrow Or Hounslow"},{"icsId":"1012243","id":"490012243E","lat":51.48519,"lon":-0.40483,"name":"Cranford Lane / Redwood Estate","parentId":"490G00012243","stationId":"490G00012243","stopLetter":"C","topMostParentId":"490G00012243","towards":"Heston Or Hounslow"},{"icsId":"1016379","id":"490016379S","lat":51.48417,"lon":-0.40048,"name":"Brabazon Road / Cranford Lane","parentId":"490G00016379","stationId":"490G00016379","stopLetter":"HA","topMostParentId":"490G00016379","towards":"Hounslow"},{"icsId":"1016380","id":"490016380S","lat":51.48269,"lon":-0.39977,"name":"Bleriot Road","parentId":"490G00016380","stationId":"490G00016380","stopLetter":"HB","topMostParentId":"490G00016380","towards":"Hounslow"},{"icsId":"1016381","id":"490016381E","lat":51.48145,"lon":-0.39727,"name":"Johnson Road","parentId":"490G00016381","stationId":"490G00016381","stopLetter":"HC","topMostParentId":"490G00016381","towards":"Hounslow"},{"icsId":"1016382","id":"490016382N","lat":51.48185,"lon":-0.39554,"name":"Alcock Road","parentId":"490G00016382","stationId":"490G00016382","stopLetter":"HD","topMostParentId":"490G00016382","towards":"Hounslow"},{"icsId":"1016383","id":"490016383N","lat":51.48273,"lon":-0.39411,"name":"Armytage Road","parentId":"490G00016383","stationId":"490G00016383","stopLetter":"HE","topMostParentId":"490G00016383","towards":"Hounslow"},{"icsId":"1010365","id":"490010365E","lat":51.4844,"lon":-0.39283,"name":"Northfield Road","parentId":"490G00010365","stationId":"490G00010365","stopLetter":"E","topMostParentId":"490G00010365","towards":"Hounslow"},{"icsId":"1012229","id":"490012229E","lat":51.48382,"lon":-0.3867,"name":"Somerset Waye","parentId":"490G00012229","stationId":"490G00012229","stopLetter":"F","topMostParentId":"490G00012229","towards":"Hounslow"},{"icsId":"1016384","id":"490016384S","lat":51.48308,"lon":-0.38669,"name":"Speart Lane","parentId":"490G00016384","stationId":"490G00016384","stopLetter":"HF","topMostParentId":"490G00016384","towards":"Hounslow"},{"icsId":"1016385","id":"490016385S","lat":51.4817,"lon":-0.38767,"name":"Blackthorn Court","parentId":"490G00016385","stationId":"490G00016385","stopLetter":"HG","topMostParentId":"490G00016385","towards":"Hounslow"},{"icsId":"1016386","id":"490016386E","lat":51.4804,"lon":-0.38813,"name":"Victoria Gardens","parentId":"490G00016386","stationId":"490G00016386","stopLetter":"->E","topMostParentId":"490G00016386","towards":"Hounslow"},{"icsId":"1016387","id":"490016387E","lat":51.47965,"lon":-0.38503,"name":"Beaufort Gardens","parentId":"490G00016387","stationId":"490G00016387","topMostParentId":"490G00016387","towards":"Hounslow"},{"icsId":"1012992","id":"490012992W","lat":51.48012,"lon":-0.38229,"name":"Edison Primary School","parentId":"490G00012992","stationId":"490G00012992","stopLetter":"VB","topMostParentId":"490G00012992"},{"icsId":"1016388","id":"490016388E","lat":51.48125,"lon":-0.37975,"name":"The Warren","parentId":"490G00016388","stationId":"490G00016388","stopLetter":"CP","topMostParentId":"490G00016388","towards":"Hounslow"},{"icsId":"1016389","id":"490016389E","lat":51.48069,"lon":-0.37529,"name":"Sutton Way","parentId":"490G00016389","stationId":"490G00016389","stopLetter":"CQ","topMostParentId":"490G00016389","towards":"Hounslow"},{"icsId":"1013946","id":"490013946S","lat":51.47924,"lon":-0.3719,"name":"Upper Sutton Lane","parentId":"490G00013946","stationId":"490G00013946","stopLetter":"CR","topMostParentId":"490G00013946","towards":"Hounslow"},{"icsId":"1007426","id":"490007426S","lat":51.47645,"lon":-0.37465,"name":"Willow Gardens / Great West Road","parentId":"490G00007426","stationId":"490G00007426","stopLetter":"CS","topMostParentId":"490G00007426","towards":"Hounslow"},{"icsId":"1011370","id":"490011370S","lat":51.47471,"lon":-0.37567,"name":"Queenswood Avenue","parentId":"490G00011370","stationId":"490G00011370","stopLetter":"->S","topMostParentId":"490G00011370","towards":"Hounslow"},{"icsId":"1006031","id":"490006031S","lat":51.47188,"lon":-0.37809,"name":"Dene Avenue","parentId":"490G00006031","stationId":"490G00006031","stopLetter":"P","topMostParentId":"490G00006031","towards":"Hounslow"},{"icsId":"1003679","id":"490003679N2","lat":51.46817,"lon":-0.37838,"name":"Bath Road","parentId":"490G00003679","stationId":"490G00003679","stopLetter":"R","topMostParentId":"490G00003679","towards":"Hounslow"},{"icsId":"1019052","id":"490012483S","lat":51.46608,"lon":-0.37822,"name":"Staines Road","parentId":"490G00019052","stationId":"490G00019052","stopLetter":"K","topMostParentId":"490G00019052","towards":"Hounslow"},{"icsId":"1003961","id":"490003961S","lat":51.464,"lon":-0.37705,"name":"Beverley Avenue","parentId":"490G00003961","stationId":"490G00003961","stopLetter":"L","topMostParentId":"490G00003961","towards":"Hounslow"},{"icsId":"1016807","id":"490016807S","lat":51.46268,"lon":-0.3764,"name":"Marshall Close","parentId":"490G00016807","stationId":"490G00016807","stopLetter":"->S","topMostParentId":"490G00016807","towards":"Hounslow"},{"icsId":"1007371","id":"490007371S","lat":51.46029,"lon":-0.37446,"name":"Granville Avenue","parentId":"490G00007371","stationId":"490G00007371","stopLetter":"->S","topMostParentId":"490G00007371","towards":"Hounslow"},{"icsId":"1010173","id":"490010173N","lat":51.4575,"lon":-0.37214,"name":"Nelson Road","parentId":"490G00010173","stationId":"490G00010173","stopLetter":"N","topMostParentId":"490G00010173","towards":"Hounslow Town Centre"},{"icsId":"1005798","id":"490005798W","lat":51.45981,"lon":-0.36978,"name":"Cromwell Road","parentId":"490G00005798","stationId":"490G00005798","stopLetter":"ST","topMostParentId":"490G00005798","towards":"Hounslow Town Centre"},{"icsId":"1008126","id":"490008126EB","lat":51.46208,"lon":-0.36747,"name":"Hibernia Road","parentId":"490G00008126","stationId":"490G00008126","stopLetter":"SU","topMostParentId":"490G00008126","towards":"Hounslow Town Centre"},{"icsId":"1003854","id":"490003854E","lat":51.46473,"lon":-0.36475,"name":"Bell Road","parentId":"490G00003854","stationId":"490G00003854","stopLetter":"SW","topMostParentId":"490G00003854","towards":"Hounslow Town Centre"},{"icsId":"1007573","id":"490007573J","lat":51.46686,"lon":-0.36294,"name":"Grove Road","parentId":"490G00007573","stationId":"490G00007573","stopLetter":"J","topMostParentId":"490G00007573","towards":"Hounslow Bus Station"},{"icsId":"1013777","id":"490013777O","lat":51.46752,"lon":-0.36212,"name":"Treaty Centre","parentId":"490G00013777","stationId":"490G00013777","stopLetter":"O","topMostParentId":"490G00013777","towards":"Heston Or Isleworth"},{"icsId":"1008399","id":"490008399K","lat":51.46945,"lon":-0.35801,"name":"Hounslow High Street","parentId":"490G00008399","stationId":"490G00008399","stopLetter":"K","topMostParentId":"490G00008399","towards":"Heston, Isleworth Or West Middlesex Hospital"},{"icsId":"1008392","id":"490015241C","lat":51.47045,"lon":-0.35565,"name":"Hounslow Bus Station","parentId":"490G000601","stationId":"490G000601","stopLetter":"E","topMostParentId":"490G000601","towards":"Heston Or Osterley"},{"icsId":"1000117","id":"490000117E","lat":51.47294,"lon":-0.35676,"name":"Hounslow East Station","stopLetter":"EE","topMostParentId":"490000117E","towards":"Heston Or Osterley","zone":"4"},{"icsId":"1006028","id":"490006028N","lat":51.47595,"lon":-0.36025,"name":"Denbigh Road","parentId":"490G00006028","stationId":"490G00006028","stopLetter":"->N","topMostParentId":"490G00006028","towards":"Heston Or Osterley"},{"icsId":"1016390","id":"490016390E","lat":51.47684,"lon":-0.35646,"name":"Spring Grove Crescent","parentId":"490G00016390","stationId":"490G00016390","stopLetter":"->E","topMostParentId":"490G00016390","towards":"West Middlesex Hospital"},{"icsId":"1019869","id":"490016654E","lat":51.47619,"lon":-0.35373,"name":"Gresham Road","parentId":"490G00019869","stationId":"490G00019869","stopLetter":"->E","topMostParentId":"490G00019869","towards":"West Middlesex Hospital"},{"icsId":"1016392","id":"490016392E","lat":51.47617,"lon":-0.34813,"name":"Witham Road","parentId":"490G00016392","stationId":"490G00016392","stopLetter":"Y","topMostParentId":"490G00016392","towards":"West Middlesex Hospital"},{"icsId":"1016393","id":"490016393N","lat":51.47748,"lon":-0.34558,"name":"Eversley Crescent","parentId":"490G00016393","stationId":"490G00016393","stopLetter":"->N","topMostParentId":"490G00016393","towards":"West Middlesex Hospital"},{"icsId":"1016394","id":"490016394N","lat":51.48048,"lon":-0.34668,"name":"Thornbury Avenue / Great West Road","parentId":"490G00016394","stationId":"490G00016394","stopLetter":"C","topMostParentId":"490G00016394","towards":"West Middlesex Hospital"},{"icsId":"1016395","id":"490016395E","lat":51.48264,"lon":-0.34597,"name":"Osterley Library","parentId":"490G00016395","stationId":"490G00016395","stopLetter":"D","topMostParentId":"490G00016395","towards":"West Middlesex Hospital"},{"icsId":"1016396","id":"490016396E","lat":51.48315,"lon":-0.34375,"name":"Jersey Gardens","parentId":"490G00016396","stationId":"490G00016396","stopLetter":"E","topMostParentId":"490G00016396","towards":"West Middlesex Hospital"},{"icsId":"1016397","id":"490016397N","lat":51.48396,"lon":-0.34246,"name":"Ridgeway Road","parentId":"490G00016397","stationId":"490G00016397","stopLetter":"->N","topMostParentId":"490G00016397","towards":"West Middlesex Hospital"},{"icsId":"1016398","id":"490016398E","lat":51.48716,"lon":-0.3414,"name":"Jersey Road","parentId":"490G00016398","stationId":"490G00016398","stopLetter":"->E","topMostParentId":"490G00016398","towards":"West Middlesex Hospital"},{"icsId":"1016399","id":"490016399S","lat":51.48525,"lon":-0.3389,"name":"Conquest Club","parentId":"490G00016399","stationId":"490G00016399","stopLetter":"->S","topMostParentId":"490G00016399","towards":"West Middlesex Hospital"},{"icsId":"1016400","id":"490016400S","lat":51.48352,"lon":-0.33724,"name":"Braybourne Drive / Great West Road","parentId":"490G00016400","stationId":"490G00016400","stopLetter":"F","topMostParentId":"490G00016400","towards":"West Middlesex Hospital"},{"icsId":"1018933","id":"490018933Y","lat":51.48216,"lon":-0.33639,"name":"Great West Road / Borough Road","parentId":"490G00018933","stationId":"490G00018933","stopLetter":"Y","topMostParentId":"490G00018933","towards":"West Middlesex Hospital"},{"icsId":"1016401","id":"490016401S","lat":51.48019,"lon":-0.33546,"name":"Borough Road","parentId":"490G00016401","stationId":"490G00016401","stopLetter":"->S","topMostParentId":"490G00016401","towards":"Osterley Tesco"},{"icsId":"1019884","id":"490016402S","lat":51.47652,"lon":-0.33232,"name":"Hartham Road","parentId":"490G00019884","stationId":"490G00019884","stopLetter":"S","topMostParentId":"490G00019884","towards":"Osterley Tesco"},{"icsId":"1016403","id":"490016403S","lat":51.47531,"lon":-0.33077,"name":"Alton Close","parentId":"490G00016403","stationId":"490G00016403","stopLetter":"T","topMostParentId":"490G00016403","towards":"Osterley Tesco"},{"icsId":"1014503","id":"490014493N","lat":51.47524,"lon":-0.32629,"name":"Twickenham Rd / West Middlesex Hospital","parentId":"490G00014503","stationId":"490G00014503","stopLetter":"HC","topMostParentId":"490G00014503","towards":"Brentford Or Osterley"},{"icsId":"1019150","id":"490004635TD","lat":51.47787,"lon":-0.32357,"name":"Park Road","parentId":"490G00019150","stationId":"490G00019150","stopLetter":"TD","topMostParentId":"490G00019150","towards":"Brentford Or Osterley"},{"icsId":"1015029","id":"490015029E","lat":51.47921,"lon":-0.32164,"name":"Busch Corner","parentId":"490G00015029","stationId":"490G00015029","stopLetter":"T","topMostParentId":"490G00015029","towards":"Chiswick Or Osterley Tesco"},{"icsId":"1003263","id":"490003263N","lat":51.48043,"lon":-0.32106,"name":"Marlborough Road","parentId":"490G00003263","stationId":"490G00003263","stopLetter":"Y","topMostParentId":"490G00003263","towards":"Osterley Tesco"},{"icsId":"1001291","id":"490001291N","lat":51.48193,"lon":-0.32459,"name":"Syon Lane Station","stopLetter":"B","topMostParentId":"490001291N","towards":"Osterley Tesco"},{"icsId":"1013200","id":"490013200E","lat":51.485,"lon":-0.3304,"name":"Osterley Tesco","parentId":"490G00013200","stationId":"490G00013200","stopLetter":"L","topMostParentId":"490G00013200","towards":"Hounslow"}]}]}