{"direction":"outbound","lineId":"h32","lineName":"H32","mode":"bus","stopPointSequences":[{"stopPoint":[{"icsId":"1015241","id":"490015241B","lat":51.47019,"lon":-0.35588,"name":"School Road","parentId":"490G000884","stationId":"490G000884","stopLetter":"C","topMostParentId":"490G000884","towards":"Hounslow Heath, Hounslow West Or Whitton"},{"icsId":"1007766","id":"490007766L","lat":51.46897,"lon":-0.35883,"name":"Fairfields Road","parentId":"490G00007766","stationId":"490G00007766","stopLetter":"L","topMostParentId":"490G00007766","towards":"Hounslow West Or Heston"},{"icsId":"1013777","id":"490013777R","lat":51.46704,"lon":-0.36369,"name":"Treaty Centre","parentId":"490G00013777","stationId":"490G00013777","stopLetter":"T","topMostParentId":"490G00013777","towards":"Hounslow West Or Heston"},{"icsId":"1008391","id":"490008391X","lat":51.46817,"lon":-0.36691,"name":"Bell Corner / Hounslow Civic Centre","parentId":"490G000600","stationId":"490G000600","stopLetter":"X","topMostParentId":"490G000600","towards":"Hounslow West"},{"icsId":"1012454","id":"490012454W","lat":51.46885,"lon":-0.373,"name":"St Michael & St Martin Church","parentId":"490G00012454","stationId":"490G00012454","stopLetter":"H","topMostParentId":"490G00012454","towards":"Cranford, Heston Or Hatton Cross"},{"icsId":"1006406","id":"490014357W","lat":51.46992,"lon":-0.37757,"name":"Wellington Road North","parentId":"490G00006406","stationId":"490G00006406","stopLetter":"J","topMostParentId":"490G00006406","towards":"Cranford, Heston Or Hatton Cross"},{"icsId":"1012458","id":"490012458W","lat":51.47141,"lon":-0.38184,"name":"St Paul's Church","parentId":"490G00012458","stationId":"490G00012458","stopLetter":"K","topMostParentId":"490G00012458","towards":"Cranford, Heston Or Hatton Cross"},{"icsId":"1000404","id":"490000118D","lat":51.47368,"lon":-0.38662,"name":"Hounslow West Stn  / Vicarage Farm Rd","stopLetter":"D","topMostParentId":"490000118D","towards":"Osterley Or Southall"},{"icsId":"1007423","id":"490007423N","lat":51.47684,"lon":-0.38409,"name":"Great West Road","parentId":"490G00007423","stationId":"490G00007423","stopLetter":"VA","topMostParentId":"490G00007423","towards":"Southall"},{"icsId":"1012992","id":"490012992W","lat":51.48012,"lon":-0.38229,"name":"Edison Primary School","parentId":"490G00012992","stationId":"490G00012992","stopLetter":"VB","topMostParentId":"490G00012992"},{"icsId":"1005705","id":"490008114N","lat":51.48273,"lon":-0.38159,"name":"Cranford Lane","parentId":"490G00005705","stationId":"490G00005705","stopLetter":"VC","topMostParentId":"490G00005705","towards":"Southall"},{"icsId":"1010221","id":"490010221N","lat":51.48603,"lon":-0.38139,"name":"New Heston Road","parentId":"490G00010221","stationId":"490G00010221","stopLetter":"VE","topMostParentId":"490G00010221","towards":"Southall"},{"icsId":"1011586","id":"490011586N","lat":51.49179,"lon":-0.38148,"name":"Ringway","parentId":"490G00011586","stationId":"490G00011586","stopLetter":"VF","topMostParentId":"490G00011586","towards":"Southall"},{"icsId":"1011402","id":"490011402W","lat":51.49274,"lon":-0.3854,"name":"Raleigh Road","parentId":"490G00011402","stationId":"490G00011402","stopLetter":"->W","topMostParentId":"490G00011402","towards":"Southall"},{"icsId":"1010380","id":"490010380W","lat":51.49326,"lon":-0.38884,"name":"Holly Farm Road","parentId":"490G00010380","stationId":"490G00010380","stopLetter":"BL","topMostParentId":"490G00010380","towards":"Southall"},{"icsId":"1005562","id":"490005562W","lat":51.49408,"lon":-0.3924,"name":"Convent Way Shopping Precinct","parentId":"490G00005562","stationId":"490G00005562","stopLetter":"BM","topMostParentId":"490G00005562","towards":"Southall"},{"icsId":"1014393","id":"490014393W1","lat":51.49562,"lon":-0.39697,"name":"Wentworth Road","parentId":"490G00014393","stationId":"490G00014393","stopLetter":"BN","topMostParentId":"490G00014393","towards":"Southall"},{"icsId":"1012133","id":"490012133E","lat":51.49789,"lon":-0.39508,"name":"Brent Road","parentId":"490G00012133","stationId":"490G00012133","stopLetter":"BC","topMostParentId":"490G00012133","towards":"Ealing Hospital Or Greenford"},{"icsId":"1006056","id":"490006056E","lat":51.49914,"lon":-0.39136,"name":"Derley Road","parentId":"490G00006056","stationId":"490G00006056","stopLetter":"BD","topMostParentId":"490G00006056","towards":"Ealing Hospital Or Greenford"},{"icsId":"1013052","id":"490013052E","lat":51.50046,"lon":-0.38797,"name":"Sussex Road","parentId":"490G00013052","stationId":"490G00013052","stopLetter":"->E","topMostParentId":"490G00013052","towards":"Ealing Hospital Or Greenford"},{"icsId":"1014162","id":"490014162E","lat":51.50078,"lon":-0.38485,"name":"Waltham Road","parentId":"490G00014162","stationId":"490G00014162","stopLetter":"H","topMostParentId":"490G00014162","towards":"Ealing Hospital, Greenford Or Havelock Estate"},{"icsId":"1008833","id":"490008833E","lat":51.50138,"lon":-0.38263,"name":"King Street","parentId":"490G00008833","stationId":"490G00008833","stopLetter":"E","topMostParentId":"490G00008833","towards":"Ealing Hospital, Greenford Or Northolt"},{"icsId":"1013388","id":"490013388L","lat":51.5029,"lon":-0.38101,"name":"The Green","parentId":"490G00013388","stationId":"490G00013388","stopLetter":"L","topMostParentId":"490G00013388","towards":"Ealing Hospital, Greenford Or Northolt"},{"icsId":"1010754","id":"490010754P","lat":51.50757,"lon":-0.37832,"name":"Park Avenue","parentId":"490G00010754","stationId":"490G00010754","stopLetter":"P","topMostParentId":"490G00010754","towards":"Ealing Hospital, Greenford Or Yeading"},{"icsId":"1012241","id":"490012241O","lat":51.51022,"lon":-0.37624,"name":"Southall Broadway","parentId":"490G00012241","stationId":"490G00012241","stopLetter":"O","topMostParentId":"490G00012241"},{"icsId":"1014102","id":"490012245K","lat":51.51076,"lon":-0.37527,"name":"Southall Town Hall","parentId":"490G00014102","stationId":"490G00014102","stopLetter":"AP","topMostParentId":"490G00014102"}]}]}