{"direction":"outbound","lineId":"n109","lineName":"N109","mode":"bus","stopPointSequences":[{"stopPoint":[{"icsId":"1006706","id":"490006706C9","lat":51.37322,"lon":-0.09682,"name":"Fairfield Halls","parentId":"490G00006706","stationId":"490G00006706","stopLetter":"KD","topMostParentId":"490G00006706","towards":"West Croydon"},{"icsId":"1014614","id":"490014614E15","lat":51.3761,"lon":-0.0984,"name":"Whitgift Centre","parentId":"490G00014614","stationId":"490G00014614","stopLetter":"WL","topMostParentId":"490G00014614","towards":"Thornton Heath"},{"icsId":"1014420","id":"490014420Y","lat":51.37907,"lon":-0.10148,"name":"West Croydon Bus Station","parentId":"490G000824","stationId":"490G000824","stopLetter":"B4","topMostParentId":"HUBWCY"},{"icsId":"1001324","id":"490001324W2","lat":51.37853,"lon":-0.10369,"name":"West Croydon Station","stopLetter":"WT","topMostParentId":"490001324W2","towards":"Thornton Heath"},{"icsId":"1005856","id":"490005856W3","lat":51.38033,"lon":-0.10531,"name":"Montague Road","parentId":"490G00005856","stationId":"490G00005856","stopLetter":"LD","topMostParentId":"490G00005856","towards":"Thornton Heath"},{"icsId":"1004367","id":"490004367N","lat":51.38377,"lon":-0.10843,"name":"Sumner Road","parentId":"490G00004367","stationId":"490G00004367","stopLetter":"LE","topMostParentId":"490G00004367","towards":"Norbury, Pollards Hill Or Waddon"},{"icsId":"1004368","id":"490004368N","lat":51.3848,"lon":-0.10942,"name":"Broad Green Avenue","parentId":"490G00004368","stationId":"490G00004368","stopLetter":"LF","topMostParentId":"490G00004368","towards":"Norbury, Pollards Hill Or Waddon"},{"icsId":"1009743","id":"490009732B","lat":51.3869,"lon":-0.11105,"name":"Canterbury Road","parentId":"490G00009743","stationId":"490G00009743","stopLetter":"B","topMostParentId":"490G00009743","towards":"Norbury, Pollards Hill Or Waddon"},{"icsId":"1009732","id":"490006250D","lat":51.39028,"lon":-0.11234,"name":"Croydon University Hospital","parentId":"490G00009732","stationId":"490G00009732","stopLetter":"D","topMostParentId":"490G00009732","towards":"Norbury, Pollards Hill Or Waddon"},{"icsId":"1013632","id":"490013632J","lat":51.39284,"lon":-0.11428,"name":"Thornton Heath Pond","parentId":"490G00013632","stationId":"490G00013632","stopLetter":"J","topMostParentId":"490G00013632","towards":"Norbury Or Waddon"},{"icsId":"1005501","id":"490005501S","lat":51.39521,"lon":-0.1149,"name":"Colliers Water Lane","parentId":"490G00005501","stationId":"490G00005501","stopLetter":"S","topMostParentId":"490G00005501","towards":"Norbury Or Pollards Hill"},{"icsId":"1008939","id":"490008942N","lat":51.39767,"lon":-0.11608,"name":"Langdale Road","parentId":"490G00008939","stationId":"490G00008939","stopLetter":"A","topMostParentId":"490G00008939","towards":"Norbury Or Pollards Hill"},{"icsId":"1019842","id":"490007099N","lat":51.40133,"lon":-0.11844,"name":"Galpins Road","parentId":"490G00019842","stationId":"490G00019842","stopLetter":"B","topMostParentId":"490G00019842","towards":"Streatham"},{"icsId":"1006414","id":"490006414N","lat":51.40388,"lon":-0.1195,"name":"Ederline Avenue","parentId":"490G00006414","stationId":"490G00006414","stopLetter":"W","topMostParentId":"490G00006414","towards":"Streatham"},{"icsId":"1013884","id":"490013884G","lat":51.40765,"lon":-0.12159,"name":"Tylecroft Road","parentId":"490G00013884","stationId":"490G00013884","stopLetter":"G","topMostParentId":"490G00013884","towards":"Streatham"},{"icsId":"1001209","id":"490001209B","lat":51.41086,"lon":-0.12309,"name":"Norbury Station","stopLetter":"B","topMostParentId":"490001209B","towards":"Streatham"},{"icsId":"1008080","id":"490008080K","lat":51.41385,"lon":-0.12462,"name":"Hermitage Lane","parentId":"490G00008080","stationId":"490G00008080","stopLetter":"K","topMostParentId":"490G00008080","towards":"Streatham Hill"},{"icsId":"1003389","id":"490003389N","lat":51.41669,"lon":-0.12598,"name":"Arragon Gardens","parentId":"490G00003389","stationId":"490G00003389","stopLetter":"CK","topMostParentId":"490G00003389","towards":"Streatham Hill Or Tooting"},{"icsId":"1008618","id":"490008618N","lat":51.41903,"lon":-0.12797,"name":"Kempshott Road","parentId":"490G00008618","stationId":"490G00008618","stopLetter":"CL","topMostParentId":"490G00008618","towards":"Streatham Hill Or Tooting"},{"icsId":"1012924","id":"490012924N","lat":51.42116,"lon":-0.12882,"name":"Streatham Common / Greyhound Lane","parentId":"490G00012924","stationId":"490G00012924","stopLetter":"CM","topMostParentId":"490G00012924","towards":"Streatham Hill Or Tooting"},{"icsId":"1001279","id":"490001279S3","lat":51.42512,"lon":-0.13092,"name":"Streatham Station","stopLetter":"SJ","topMostParentId":"490001279S3","towards":"Streatham Hill"},{"icsId":"1012761","id":"490012761SQ","lat":51.42838,"lon":-0.13133,"name":"St Leonard's Church","parentId":"490G00012761","stationId":"490G00012761","stopLetter":"SK","topMostParentId":"490G00012761","towards":"Balham, Streatham Hill Or Tooting"},{"icsId":"1003758","id":"490003758OA","lat":51.43282,"lon":-0.12898,"name":"Becmead Avenue","parentId":"490G00003758","stationId":"490G00003758","stopLetter":"OA","topMostParentId":"490G00003758","towards":"Brixton Or Tulse Hill"},{"icsId":"1008765","id":"490008765M","lat":51.43449,"lon":-0.12862,"name":"Kingscourt Road","parentId":"490G00008765","stationId":"490G00008765","stopLetter":"M","topMostParentId":"490G00008765","towards":"Clapham Common, Brixton Or Tulse Hill"},{"icsId":"1010078","id":"490010078K","lat":51.43594,"lon":-0.12819,"name":"Mount Ephraim Road","parentId":"490G00010078","stationId":"490G00010078","stopLetter":"K","topMostParentId":"490G00010078","towards":"Clapham Common, Brixton Or Tulse Hill"},{"icsId":"1019944","id":"490001281A","lat":51.43941,"lon":-0.12626,"name":"Streatham Hill Stn  / Streatham Hill","parentId":"490G000969","stationId":"490G000969","stopLetter":"A","topMostParentId":"490G000969","towards":"Brixton"},{"icsId":"1003598","id":"490003598S","lat":51.44078,"lon":-0.12557,"name":"Barrhill Road","parentId":"490G00003598","stationId":"490G00003598","stopLetter":"S","topMostParentId":"490G00003598","towards":"Clapham Common, Brixton Or Tulse Hill"},{"icsId":"1013186","id":"490013186T","lat":51.44298,"lon":-0.12502,"name":"Telford Avenue","parentId":"490G00013186","stationId":"490G00013186","stopLetter":"T","topMostParentId":"490G00013186","towards":"Brixton Or Tulse Hill"},{"icsId":"1005234","id":"490005234N","lat":51.44459,"lon":-0.12475,"name":"Christchurch Road","parentId":"490G00005234","stationId":"490G00005234","stopLetter":"BS","topMostParentId":"490G00005234","towards":"Brixton Or Clapham Common"},{"icsId":"1008310","id":"490008310N","lat":51.44692,"lon":-0.12479,"name":"Holmewood Road","parentId":"490G00008310","stationId":"490G00008310","stopLetter":"BT","topMostParentId":"490G00008310","towards":"Camberwell Or Kennington Church"},{"icsId":"1015218","id":"490015218N","lat":51.44886,"lon":-0.12385,"name":"New Park Road","parentId":"490G00015218","stationId":"490G00015218","stopLetter":"BU","topMostParentId":"490G00015218","towards":"Camberwell Or Kennington Church"},{"icsId":"1008544","id":"490008544N","lat":51.45108,"lon":-0.12214,"name":"Jebb Avenue / Brixton Prison","parentId":"490G00008544","stationId":"490G00008544","stopLetter":"BV","topMostParentId":"490G00008544","towards":"Camberwell Or Kennington Church"},{"icsId":"1004101","id":"490004101N","lat":51.45428,"lon":-0.12014,"name":"Blenheim Gardens","parentId":"490G00004101","stationId":"490G00004101","stopLetter":"BW","topMostParentId":"490G00004101","towards":"Camberwell Or Kennington Church"},{"icsId":"1011793","id":"490011793N","lat":51.45767,"lon":-0.11799,"name":"Rush Common","parentId":"490G00011793","stationId":"490G00011793","stopLetter":"BY","topMostParentId":"490G00011793","towards":"Camberwell Or Kennington Church"},{"icsId":"1008919","id":"490008919X","lat":51.45988,"lon":-0.11671,"name":"Lambeth Town Hall","parentId":"490G000627","stationId":"490G000627","stopLetter":"X","topMostParentId":"490G000627","towards":"Kennington Church"},{"icsId":"1000031","id":"490000031R","lat":51.46224,"lon":-0.11529,"name":"Brixton Station","stopLetter":"R","topMostParentId":"490000031R","towards":"Kennington Oval","zone":"2"},{"icsId":"1007523","id":"490007523D","lat":51.46561,"lon":-0.1139,"name":"Brixton Road / Brixton Police Station","parentId":"490G000549","stationId":"490G000549","stopLetter":"D","topMostParentId":"490G000549","towards":"Lambeth Bridge Or Lambeth North"},{"icsId":"1014085","id":"490014085N","lat":51.46742,"lon":-0.11292,"name":"Villa Road","parentId":"490G00014085","stationId":"490G00014085","stopLetter":"RA","topMostParentId":"490G00014085","towards":"Elephant & Castle Or Imperial War Museum"},{"icsId":"1009373","id":"490009373N1","lat":51.46958,"lon":-0.11261,"name":"Loughborough Road","parentId":"490G00009373","stationId":"490G00009373","stopLetter":"RB","topMostParentId":"490G00009373","towards":"Kennington Oval"},{"icsId":"1007587","id":"490007587N","lat":51.47288,"lon":-0.11288,"name":"Groveway","parentId":"490G00007587","stationId":"490G00007587","stopLetter":"RC","topMostParentId":"490G00007587","towards":"Elephant & Castle Or Imperial War Museum"},{"icsId":"1008248","id":"490008248N","lat":51.47474,"lon":-0.11305,"name":"Hillyard Street","parentId":"490G00008248","stationId":"490G00008248","stopLetter":"RD","topMostParentId":"490G00008248","towards":"Elephant & Castle Or Imperial War Museum"},{"icsId":"1014013","id":"490014013N","lat":51.47731,"lon":-0.11244,"name":"Vassall Road","parentId":"490G00014013","stationId":"490G00014013","stopLetter":"RE","topMostParentId":"490G00014013","towards":"Elephant & Castle Or Imperial War Museum"},{"icsId":"1008642","id":"490008642H","lat":51.48064,"lon":-0.11106,"name":"St Mark's Church","parentId":"490G00008642","stationId":"490G00008642","stopLetter":"H","topMostParentId":"490G00008642","towards":"Elephant & Castle, Lambeth Bdg Or Lambeth Nth"},{"icsId":"1008645","id":"490008645U","lat":51.48504,"lon":-0.11088,"name":"Kennington Park Post Office","parentId":"490G00008645","stationId":"490G00008645","stopLetter":"U","topMostParentId":"490G00008645","towards":"Parliament Square Or Waterloo"},{"icsId":"1014773","id":"490014773KP","lat":51.4877,"lon":-0.11145,"name":"Windmill Row","parentId":"490G00014773","stationId":"490G00014773","stopLetter":"KP","topMostParentId":"490G00014773","towards":"Parliament Square Or Waterloo"},{"icsId":"1008643","id":"490008643KH","lat":51.49005,"lon":-0.11125,"name":"Kennington Lane","parentId":"490G00008643","stationId":"490G00008643","stopLetter":"KH","topMostParentId":"490G00008643","towards":"Parliament Square"},{"icsId":"1006864","id":"490006864N1","lat":51.49279,"lon":-0.11109,"name":"Fitzalan Street","parentId":"490G00006864","stationId":"490G00006864","stopLetter":"KG","topMostParentId":"490G00006864","towards":"Parliament Square Or Waterloo"},{"icsId":"1008476","id":"490008473E","lat":51.49563,"lon":-0.11134,"name":"Kennington Road / Imperial War Museum","parentId":"490G000608","stationId":"490G000608","stopLetter":"E","topMostParentId":"490G000608","towards":"Waterloo Or Parliament Sq Via Westminster Bridge"},{"icsId":"1000132","id":"490000132G","lat":51.49793,"lon":-0.11219,"name":"Lambeth North Station","stopLetter":"G","topMostParentId":"490000132G","towards":"Westminster Or Waterloo","zone":"1"},{"icsId":"1009420","id":"490009420W","lat":51.4994,"lon":-0.11377,"name":"Lower Marsh","parentId":"490G00009420","stationId":"490G00009420","stopLetter":"A","topMostParentId":"490G00009420","towards":"Pimlico Or Trafalgar Square"},{"icsId":"1018956","id":"490005646D","lat":51.50072,"lon":-0.11937,"name":"St Thomas' Hospital / County Hall","parentId":"490G00018956","stationId":"490G00018956","stopLetter":"D","topMostParentId":"490G00018956","towards":"Trafalgar Square Or Victoria"},{"icsId":"1020361","id":"490015048A","lat":51.50187,"lon":-0.12637,"name":"Westminster Stn  / Parliament Square","parentId":"490G00020361","stationId":"490G00020361","stopLetter":"A","topMostParentId":"HUBWSM","towards":"Aldwych Or Piccadilly Circus"},{"icsId":"1008376","id":"490008376N","lat":51.50405,"lon":-0.12641,"name":"Horse Guards Parade","parentId":"490G00008376","stationId":"490G00008376","stopLetter":"->N","topMostParentId":"490G00008376","towards":"Tottenham Court Road, Oxford Circus Or Aldwych"},{"icsId":"1013767","id":"490013767T","lat":51.50753,"lon":-0.12991,"name":"Trafalgar Square","parentId":"490G000804","stationId":"490G000804","stopLetter":"T","topMostParentId":"490G000804","towards":"Oxford Circus"},{"icsId":"1011516","id":"490011515Z","lat":51.50873,"lon":-0.13407,"name":"Regent Street / St James's","parentId":"490G00011516","stationId":"490G00011516","stopLetter":"Z","topMostParentId":"490G00011516","towards":"Oxford Circus Or Green Park"},{"icsId":"1000179","id":"490011515W","lat":51.50988,"lon":-0.13735,"name":"Piccadilly Circus","stopLetter":"E","topMostParentId":"490011515W","towards":"Baker Street, Great Portland Street Or Marble Arch","zone":"1"},{"icsId":"1004810","id":"490005537RB","lat":51.51237,"lon":-0.14017,"name":"Conduit Street / Hamleys Toy Store","parentId":"490G00004810","stationId":"490G00004810","stopLetter":"M","topMostParentId":"490G00004810","towards":"Great Portland Street Or Marble Arch"}]}]}