{"direction":"outbound","lineId":"n113","lineName":"N113","mode":"bus","stopPointSequences":[{"stopPoint":[{"icsId":"1000070","id":"490015287E","lat":51.61273,"lon":-0.2742,"name":"Edgware Station","stopLetter":"E","topMostParentId":"490015287E","towards":"Mill Hill","zone":"5"},{"icsId":"1011173","id":"490000070B","lat":51.61456,"lon":-0.27576,"name":"Edgware Station  / Station Road","parentId":"490G00011173","stationId":"490G00011173","stopLetter":"B","topMostParentId":"490G00011173","towards":"Barnet, Borehamwood Or Mill Hill"},{"icsId":"1011254","id":"490011254N","lat":51.6179,"lon":-0.27745,"name":"Purcells Avenue","parentId":"490G00011254","stationId":"490G00011254","stopLetter":"P","topMostParentId":"490G00011254","towards":"Borehamwood Or Mill Hill"},{"icsId":"1006423","id":"490006423N","lat":51.62082,"lon":-0.27765,"name":"Edgwarebury Lane / Edgware Way","parentId":"490G00006423","stationId":"490G00006423","stopLetter":"Q","topMostParentId":"490G00006423","towards":"Borehamwood Or Mill Hill"},{"icsId":"1003002","id":"490003002E","lat":51.62171,"lon":-0.27342,"name":"Broadfields Avenue","parentId":"490G00003002","stationId":"490G00003002","stopLetter":"T","topMostParentId":"490G00003002","towards":"Mill Hill"},{"icsId":"1013401","id":"490013401E","lat":51.62223,"lon":-0.26989,"name":"Broadhurst Avenue","parentId":"490G00013401","stationId":"490G00013401","stopLetter":"U","topMostParentId":"490G00013401","towards":"Brent Cross"},{"icsId":"1008216","id":"490008196E","lat":51.62233,"lon":-0.26587,"name":"Kenilworth Road","parentId":"490G00008216","stationId":"490G00008216","stopLetter":"A","topMostParentId":"490G00008216","towards":"Mill Hill Or Brent Cross"},{"icsId":"1008561","id":"490008561E","lat":51.62193,"lon":-0.26268,"name":"Stoneyfields Park","parentId":"490G00008561","stationId":"490G00008561","stopLetter":"B","topMostParentId":"490G00008561","towards":"Mill Hill"},{"icsId":"1010081","id":"490010081E","lat":51.62161,"lon":-0.25868,"name":"Mount Grove","parentId":"490G00010081","stationId":"490G00010081","stopLetter":"C","topMostParentId":"490G00010081","towards":"Mill Hill"},{"icsId":"1003642","id":"490003642S","lat":51.62101,"lon":-0.2531,"name":"Barnet Way / Apex Corner","parentId":"490G00003642","stationId":"490G00003642","stopLetter":"D","topMostParentId":"490G00003642","towards":"Brent Cross"},{"icsId":"1009904","id":"490009904S","lat":51.61741,"lon":-0.2462,"name":"Mill Hill Circus","parentId":"490G00009904","stationId":"490G00009904","stopLetter":"S","topMostParentId":"490G00009904","towards":"Brent Cross"},{"icsId":"1005998","id":"490005991Q","lat":51.61469,"lon":-0.24175,"name":"University College London Observatory","parentId":"490G00005998","stationId":"490G00005998","stopLetter":"Q","topMostParentId":"490G00005998","towards":"Brent Cross"},{"icsId":"1009906","id":"490009906S","lat":51.61161,"lon":-0.24132,"name":"Mill Hill Park","parentId":"490G00009906","stationId":"490G00009906","stopLetter":"->S","topMostParentId":"490G00009906","towards":"Brent Cross"},{"icsId":"1004580","id":"490004580S","lat":51.60725,"lon":-0.24038,"name":"Bunns Lane Bridge","parentId":"490G00004580","stationId":"490G00004580","stopLetter":"->S","topMostParentId":"490G00004580","towards":"Brent Cross"},{"icsId":"1013685","id":"490013685S","lat":51.60392,"lon":-0.23824,"name":"Tithe Walk","parentId":"490G00013685","stationId":"490G00013685","stopLetter":"QY","topMostParentId":"490G00013685","towards":"Brent Cross"},{"icsId":"1003023","id":"490003023S","lat":51.60233,"lon":-0.23589,"name":"Fiveways Corner","parentId":"490G00003023","stationId":"490G00003023","stopLetter":"->S","topMostParentId":"490G00003023","towards":"Brent Cross"},{"icsId":"1014514","id":"490014514S","lat":51.59927,"lon":-0.23335,"name":"Westside","parentId":"490G00014514","stationId":"490G00014514","stopLetter":"->S","topMostParentId":"490G00014514","towards":"Brent Cross"},{"icsId":"1012291","id":"490012291S","lat":51.59539,"lon":-0.2335,"name":"Southfields","parentId":"490G00012291","stationId":"490G00012291","stopLetter":"->S","topMostParentId":"490G00012291","towards":"Brent Cross"},{"icsId":"1007527","id":"490007527S","lat":51.59221,"lon":-0.23429,"name":"Greyhound Hill","parentId":"490G00007527","stationId":"490G00007527","stopLetter":"->S","topMostParentId":"490G00007527","towards":"Brent Cross"},{"icsId":"1012753","id":"490012753M","lat":51.58674,"lon":-0.23186,"name":"St Joseph's School","parentId":"490G00012753","stationId":"490G00012753","stopLetter":"M","topMostParentId":"490G00012753","towards":"Brent Cross"},{"icsId":"1008057","id":"490008057J","lat":51.58584,"lon":-0.23024,"name":"Hendon War Memorial","parentId":"490G00008057","stationId":"490G00008057","stopLetter":"J","topMostParentId":"490G00008057","towards":"Brent Cross"},{"icsId":"1000106","id":"490000106G","lat":51.58386,"lon":-0.22808,"name":"Hendon Central Station","stopLetter":"G","topMostParentId":"490000106G","towards":"Brent Cross Or Swiss Cottage","zone":"3+4"},{"icsId":"1003724","id":"490003724S","lat":51.57989,"lon":-0.22527,"name":"Beaufort Gardens","parentId":"490G00003724","stationId":"490G00003724","stopLetter":"->S","topMostParentId":"490G00003724","towards":"Brent Cross Or Swiss Cottage"},{"icsId":"1003096","id":"490010329H","lat":51.57748,"lon":-0.21952,"name":"North Circular Road","parentId":"490G00003096","stationId":"490G00003096","stopLetter":"H","topMostParentId":"490G00003096","towards":"Brent Cross Or Swiss Cottage"},{"icsId":"1004285","id":"490004285P","lat":51.57597,"lon":-0.21558,"name":"Highfield Avenue","parentId":"490G000423","stationId":"490G000423","stopLetter":"P","topMostParentId":"490G000423","towards":"Golders Green Or Swiss Cottage"},{"icsId":"1014915","id":"490014915S","lat":51.57455,"lon":-0.21356,"name":"Woodville Gardens","parentId":"490G00014915","stationId":"490G00014915","stopLetter":"U","topMostParentId":"490G00014915","towards":"Swiss Cottage"},{"icsId":"1014396","id":"490014396E","lat":51.57122,"lon":-0.20981,"name":"Wessex Gardens","parentId":"490G00014396","stationId":"490G00014396","stopLetter":"V","topMostParentId":"490G00014396","towards":"Swiss Cottage"},{"icsId":"1000503","id":"490013578S","lat":51.5678,"lon":-0.20696,"name":"The Vale","parentId":"490G00000503","stationId":"490G00000503","stopLetter":"W","topMostParentId":"490G00000503","towards":"Golders Green Or Swiss Cottage"},{"icsId":"1007131","id":"490007131S","lat":51.5644,"lon":-0.20514,"name":"Garth Road","parentId":"490G00007131","stationId":"490G00007131","stopLetter":"->S","topMostParentId":"490G00007131","towards":"Swiss Cottage"},{"icsId":"1005774","id":"490005774S","lat":51.56196,"lon":-0.20375,"name":"Cricklewood Lane","parentId":"490G00005774","stationId":"490G00005774","stopLetter":"S","topMostParentId":"490G00005774","towards":"Swiss Cottage"},{"icsId":"1009462","id":"490009462S","lat":51.55976,"lon":-0.19862,"name":"Lyndale Avenue","parentId":"490G00009462","stationId":"490G00009462","stopLetter":"T","topMostParentId":"490G00009462","towards":"Swiss Cottage"},{"icsId":"1006952","id":"490006952S","lat":51.55866,"lon":-0.19616,"name":"Fortune Green Road","parentId":"490G00006952","stationId":"490G00006952","stopLetter":"G","topMostParentId":"490G00006952","towards":"Swiss Cottage"},{"icsId":"1004626","id":"490004626S","lat":51.55595,"lon":-0.19408,"name":"Burrard Road","parentId":"490G00004626","stationId":"490G00004626","stopLetter":"CA","topMostParentId":"490G00004626","towards":"Swiss Cottage"},{"icsId":"1012961","id":"490012961S","lat":51.55468,"lon":-0.19185,"name":"Lyncroft Gardens","parentId":"490G00012961","stationId":"490G00012961","stopLetter":"CB","topMostParentId":"490G00012961","towards":"Swiss Cottage"},{"icsId":"1014433","id":"490014433S","lat":51.55344,"lon":-0.18959,"name":"West End Lane","parentId":"490G00014433","stationId":"490G00014433","stopLetter":"CC","topMostParentId":"490G00014433","towards":"Swiss Cottage"},{"icsId":"1003282","id":"490003282S","lat":51.55262,"lon":-0.1875,"name":"Alvanley Gardens","parentId":"490G00003282","stationId":"490G00003282","stopLetter":"FU","topMostParentId":"490G00003282","towards":"Swiss Cottage"},{"icsId":"1008947","id":"490008947S","lat":51.55178,"lon":-0.18516,"name":"Langland Gardens","parentId":"490G00008947","stationId":"490G00008947","stopLetter":"FV","topMostParentId":"490G00008947","towards":"Swiss Cottage"},{"icsId":"1001109","id":"490001109FF","lat":51.55014,"lon":-0.18237,"name":"Finchley Road & Frognal Station","stopLetter":"FF","topMostParentId":"490001109FF","towards":"Swiss Cottage"},{"icsId":"1000307","id":"490007045FH","lat":51.54795,"lon":-0.18049,"name":"O2 Centre","parentId":"490G00000307","stationId":"490G00000307","stopLetter":"FH","topMostParentId":"490G00000307","towards":"Hampstead Or St John's Wood"},{"icsId":"1000082","id":"490000082FJ","lat":51.54635,"lon":-0.17888,"name":"Finchley Road Station","stopLetter":"FJ","topMostParentId":"490000082FJ","towards":"St John's Wood Or Hampstead","zone":"2"},{"icsId":"1019775","id":"490005487B","lat":51.54453,"lon":-0.17565,"name":"Finchley Road / College Crescent","parentId":"490G00019775","stationId":"490G00019775","stopLetter":"B","topMostParentId":"490G00019775","towards":"St John's Wood Or Hampstead"},{"icsId":"1000230","id":"490000230D","lat":51.54289,"lon":-0.17407,"name":"Swiss Cottage Station","stopLetter":"D","topMostParentId":"490000230D","towards":"Baker Street Or Finchley Road O2 Centre","zone":"2"},{"icsId":"1004185","id":"490004185S","lat":51.53933,"lon":-0.17569,"name":"Boundary Road","parentId":"490G00004185","stationId":"490G00004185","stopLetter":"V","topMostParentId":"490G00004185","towards":"Baker Street Or Maida Vale"},{"icsId":"1011336","id":"490011336S","lat":51.53678,"lon":-0.17614,"name":"Queen's Grove","parentId":"490G00011336","stationId":"490G00011336","stopLetter":"U","topMostParentId":"490G00011336","towards":"Baker Street Or Maida Vale"},{"icsId":"1000222","id":"490005318C","lat":51.53409,"lon":-0.17376,"name":"St John's Wood Station","stopLetter":"C","topMostParentId":"490005318C","towards":"Baker Street Or Maida Vale","zone":"2"},{"icsId":"1009359","id":"490009359S","lat":51.53068,"lon":-0.16972,"name":"Lord's Cricket Ground","parentId":"490G00009359","stationId":"490G00009359","stopLetter":"K","topMostParentId":"490G00009359","towards":"Marble Arch"},{"icsId":"1010816","id":"490010816P","lat":51.52937,"lon":-0.16686,"name":"London Central Mosque","parentId":"490G00010816","stationId":"490G00010816","stopLetter":"P","topMostParentId":"490G00010816","towards":"Marble Arch"},{"icsId":"1003269","id":"490003269S","lat":51.52756,"lon":-0.16467,"name":"Alpha Close","parentId":"490G00003269","stationId":"490G00003269","stopLetter":"LA","topMostParentId":"490G00003269","towards":"Marble Arch"},{"icsId":"1011716","id":"490011716S","lat":51.5261,"lon":-0.16202,"name":"London Business School","parentId":"490G00011716","stationId":"490G00011716","stopLetter":"LB","topMostParentId":"490G00011716","towards":"Marble Arch"},{"icsId":"1000011","id":"490000011B","lat":51.52257,"lon":-0.15771,"name":"Baker Street Station","stopLetter":"B","topMostParentId":"490000011B","towards":"Marble Arch Or Oxford Circus","zone":"1"},{"icsId":"1009990","id":"490015021G","lat":51.51997,"lon":-0.15646,"name":"Dorset Street","parentId":"490G00009990","stationId":"490G00009990","stopLetter":"G","topMostParentId":"490G00009990","towards":"Marble Arch Or Oxford Circus"},{"icsId":"1015317","id":"490015316J","lat":51.5178,"lon":-0.15548,"name":"George Street","parentId":"490G00015317","stationId":"490G00015317","stopLetter":"J","topMostParentId":"490G00015317","towards":"Marble Arch Or Oxford Circus"},{"icsId":"1010622","id":"490010622L","lat":51.51438,"lon":-0.15391,"name":"Orchard Street / Selfridges","parentId":"490G00010622","stationId":"490G00010622","stopLetter":"BZ","topMostParentId":"490G00010622","towards":"Marble Arch Or Oxford Circus"},{"icsId":"1011985","id":"490011985BC","lat":51.51421,"lon":-0.15179,"name":"Selfridges","parentId":"490G000738","stationId":"490G000738","stopLetter":"BC","topMostParentId":"490G000738","towards":"Piccadilly Circus, Holborn Or Warren Street"},{"icsId":"1015204","id":"490015196OF","lat":51.51499,"lon":-0.14475,"name":"Oxford Circus Station  / John Lewis","parentId":"490G00015204","stationId":"490G00015204","stopLetter":"OF","topMostParentId":"490G00015204","towards":"Piccadilly Circus, Holborn Or Warren Street"},{"icsId":"1000173","id":"490000173RG","lat":51.51459,"lon":-0.14167,"name":"Oxford Circus Station","stopLetter":"RG","topMostParentId":"490000173RG","towards":"Trafalgar Square Or Green Park","zone":"1"},{"icsId":"1000393","id":"490004810RK","lat":51.51123,"lon":-0.13887,"name":"Beak Street / Hamleys Toy Store","parentId":"490G000041","stationId":"490G000041","stopLetter":"V","topMostParentId":"490G000041","towards":"Aldwych"},{"icsId":"1000179","id":"490000179F","lat":51.50996,"lon":-0.13689,"name":"Piccadilly Circus","stopLetter":"F","topMostParentId":"490000179F","towards":"Aldwych Or Parliament Square","zone":"1"},{"icsId":"1020307","id":"490007960R","lat":51.50968,"lon":-0.13273,"name":"Haymarket / Jermyn Street","parentId":"490G00020307","stationId":"490G00020307","stopLetter":"R","topMostParentId":"490G00020307","towards":"Aldwych"},{"icsId":"1013767","id":"490013767B","lat":51.50764,"lon":-0.12954,"name":"Trafalgar Square","parentId":"490G000804","stationId":"490G000804","stopLetter":"B","topMostParentId":"490G000804","towards":"Aldwych"},{"icsId":"1013767","id":"490013767W","lat":51.50735,"lon":-0.1265,"name":"Northumberland Avenue / Trafalgar Square","parentId":"490G000804","stationId":"490G000804","stopLetter":"W","topMostParentId":"490G000804","towards":"Aldgate And Limehouse"}]}]}