{"direction":"outbound","lineId":"n133","lineName":"N133","mode":"bus","stopPointSequences":[{"stopPoint":[{"icsId":"1000151","id":"490000151C","lat":51.40246,"lon":-0.19432,"name":"Morden Station","stopLetter":"C","topMostParentId":"490000151C","towards":"Mitcham, Rosehill Or St Helier","zone":"4"},{"icsId":"1010021","id":"490010021E","lat":51.40281,"lon":-0.19103,"name":"Morden Hall","parentId":"490G00010021","stationId":"490G00010021","stopLetter":"E","topMostParentId":"490G00010021","towards":"Hackbridge, Mitcham Or Rosehill"},{"icsId":"1004931","id":"490004931S","lat":51.3997,"lon":-0.18773,"name":"Morden Hall Road / Central Road","parentId":"490G00004931","stationId":"490G00004931","stopLetter":"P","topMostParentId":"490G00004931","towards":"Hackbridge, Mitcham Or Rosehill"},{"icsId":"1013328","id":"490013328E","lat":51.39723,"lon":-0.18343,"name":"The Drive","parentId":"490G00013328","stationId":"490G00013328","stopLetter":"E","topMostParentId":"490G00013328","towards":"Mitcham"},{"icsId":"1009928","id":"490009928E","lat":51.39586,"lon":-0.17971,"name":"Milner Road","parentId":"490G00009928","stationId":"490G00009928","stopLetter":"F","topMostParentId":"490G00009928","towards":"Mitcham"},{"icsId":"1014189","id":"490014182E","lat":51.39435,"lon":-0.17416,"name":"Bishopsford Road","parentId":"490G00014189","stationId":"490G00014189","stopLetter":"->E","topMostParentId":"490G00014189","towards":"Mitcham"},{"icsId":"1002058","id":"490002058Y","lat":51.39709,"lon":-0.1733,"name":"Mitcham Tram Stop","stopLetter":"V","topMostParentId":"490002058Y","towards":"Streatham Or Tooting"},{"icsId":"1007153","id":"490007153W","lat":51.39897,"lon":-0.17168,"name":"Gedge Court","parentId":"490G00007153","stationId":"490G00007153","stopLetter":"S","topMostParentId":"490G00007153","towards":"Streatham Or Tooting"},{"icsId":"1009944","id":"490009944N","lat":51.40057,"lon":-0.1694,"name":"Mitcham / Cricket Green","parentId":"490G00009944","stationId":"490G00009944","stopLetter":"P","topMostParentId":"490G00009944","towards":"Streatham Or Tooting"},{"icsId":"1009946","id":"490009946P","lat":51.40266,"lon":-0.16773,"name":"Mitcham / Lower Green","parentId":"490G00009946","stationId":"490G00009946","stopLetter":"P","topMostParentId":"490G00009946"},{"icsId":"1007213","id":"490007213N1","lat":51.40385,"lon":-0.16548,"name":"Glebe Court","parentId":"490G00007213","stationId":"490G00007213","stopLetter":"J","topMostParentId":"490G00007213","towards":"Lavender Fields, Streatham Or Tooting"},{"icsId":"1000935","id":"490009949J","lat":51.4051,"lon":-0.16301,"name":"Upper Green East","parentId":"490G000244","stationId":"490G000244","stopLetter":"H","topMostParentId":"490G000244","towards":"Croydon Or Streatham"},{"icsId":"1013650","id":"490013650E","lat":51.40353,"lon":-0.15924,"name":"Three Kings Pond","parentId":"490G00013650","stationId":"490G00013650","stopLetter":"T","topMostParentId":"490G00013650","towards":"Streatham"},{"icsId":"1004911","id":"490004911E1","lat":51.40233,"lon":-0.15476,"name":"Cedars Avenue","parentId":"490G00004911","stationId":"490G00004911","stopLetter":"->E","topMostParentId":"490G00004911","towards":"Streatham"},{"icsId":"1013150","id":"490013150E","lat":51.40045,"lon":-0.14982,"name":"Tamworth Park","parentId":"490G00013150","stationId":"490G00013150","stopLetter":"->E","topMostParentId":"490G00013150","towards":"Streatham"},{"icsId":"1013425","id":"490013425N","lat":51.40043,"lon":-0.14424,"name":"Sherwood Park Road","parentId":"490G00013425","stationId":"490G00013425","stopLetter":"->N","topMostParentId":"490G00013425","towards":"Streatham"},{"icsId":"1011609","id":"490011609N","lat":51.40249,"lon":-0.14018,"name":"Robinhood Lane","parentId":"490G00011609","stationId":"490G00011609","stopLetter":"S","topMostParentId":"490G00011609","towards":"Streatham"},{"icsId":"1010321","id":"490010321P","lat":51.40433,"lon":-0.13737,"name":"Northborough Road","parentId":"490G00010321","stationId":"490G00010321","stopLetter":"P","topMostParentId":"490G00010321","towards":"Eastfields Or Streatham"},{"icsId":"1011739","id":"490011739N","lat":51.40671,"lon":-0.14058,"name":"Stanford Way","parentId":"490G00011739","stationId":"490G00011739","stopLetter":"VA","topMostParentId":"490G00011739","towards":"Eastfields Or Streatham"},{"icsId":"1009338","id":"490009338E1","lat":51.40929,"lon":-0.14217,"name":"Longthornton Road","parentId":"490G00009338","stationId":"490G00009338","stopLetter":"VE","topMostParentId":"490G00009338","towards":"Streatham"},{"icsId":"1011737","id":"490011737N","lat":51.4113,"lon":-0.14055,"name":"Rowan Crescent","parentId":"490G00011737","stationId":"490G00011737","stopLetter":"VF","topMostParentId":"490G00011737","towards":"Streatham"},{"icsId":"1007531","id":"490007531W","lat":51.41275,"lon":-0.1413,"name":"Greyhound Terrace","parentId":"490G00007531","stationId":"490G00007531","stopLetter":"VH","topMostParentId":"490G00007531","towards":"Streatham"},{"icsId":"1004233","id":"490004233N","lat":51.41502,"lon":-0.1402,"name":"Braeside Road","parentId":"490G00004233","stationId":"490G00004233","stopLetter":"VJ","topMostParentId":"490G00004233","towards":"Streatham Hill"},{"icsId":"1003057","id":"490003057S1","lat":51.4178,"lon":-0.13628,"name":"Streatham Common Station","parentId":"490G00003057","stationId":"490G00003057","stopLetter":"CS","topMostParentId":"490G00003057"},{"icsId":"1001287","id":"490001280SA","lat":51.41872,"lon":-0.13456,"name":"Tankerville Road","parentId":"490G00001287","stationId":"490G00001287","stopLetter":"CT","topMostParentId":"490G00001287","towards":"Streatham"},{"icsId":"1012922","id":"490012922SC","lat":51.42163,"lon":-0.12964,"name":"Greyhound Lane / Streatham High Road","parentId":"490G00012922","stationId":"490G00012922","stopLetter":"CU","topMostParentId":"490G00012922","towards":"Streatham Hill"},{"icsId":"1001279","id":"490001279S3","lat":51.42512,"lon":-0.13092,"name":"Streatham Station","stopLetter":"SJ","topMostParentId":"490001279S3","towards":"Streatham Hill"},{"icsId":"1012761","id":"490012761SQ","lat":51.42838,"lon":-0.13133,"name":"St Leonard's Church","parentId":"490G00012761","stationId":"490G00012761","stopLetter":"SK","topMostParentId":"490G00012761","towards":"Balham, Streatham Hill Or Tooting"},{"icsId":"1003758","id":"490003758O","lat":51.43256,"lon":-0.12917,"name":"Becmead Avenue","parentId":"490G00003758","stationId":"490G00003758","stopLetter":"O","topMostParentId":"490G00003758","towards":"Brixton, Clapham Common Or Tulse Hill"},{"icsId":"1008765","id":"490008765M","lat":51.43449,"lon":-0.12862,"name":"Kingscourt Road","parentId":"490G00008765","stationId":"490G00008765","stopLetter":"M","topMostParentId":"490G00008765","towards":"Clapham Common, Brixton Or Tulse Hill"},{"icsId":"1010078","id":"490010078K","lat":51.43594,"lon":-0.12819,"name":"Mount Ephraim Road","parentId":"490G00010078","stationId":"490G00010078","stopLetter":"K","topMostParentId":"490G00010078","towards":"Clapham Common, Brixton Or Tulse Hill"},{"icsId":"1019944","id":"490001281B","lat":51.43919,"lon":-0.12634,"name":"Streatham Hill Stn  / Streatham Hill","parentId":"490G000969","stationId":"490G000969","stopLetter":"B","topMostParentId":"490G000969","towards":"Brixton, Clapham Common Or Tulse Hill"},{"icsId":"1003598","id":"490003598S","lat":51.44078,"lon":-0.12557,"name":"Barrhill Road","parentId":"490G00003598","stationId":"490G00003598","stopLetter":"S","topMostParentId":"490G00003598","towards":"Clapham Common, Brixton Or Tulse Hill"},{"icsId":"1013186","id":"490013186TA","lat":51.44261,"lon":-0.12476,"name":"Telford Avenue","parentId":"490G00013186","stationId":"490G00013186","stopLetter":"TA","topMostParentId":"490G00013186","towards":"Brixton Or Clapham Common"},{"icsId":"1005234","id":"490005234N","lat":51.44459,"lon":-0.12475,"name":"Christchurch Road","parentId":"490G00005234","stationId":"490G00005234","stopLetter":"BS","topMostParentId":"490G00005234","towards":"Brixton Or Clapham Common"},{"icsId":"1008310","id":"490008310N","lat":51.44692,"lon":-0.12479,"name":"Holmewood Road","parentId":"490G00008310","stationId":"490G00008310","stopLetter":"BT","topMostParentId":"490G00008310","towards":"Camberwell Or Kennington Church"},{"icsId":"1015218","id":"490015218N","lat":51.44886,"lon":-0.12385,"name":"New Park Road","parentId":"490G00015218","stationId":"490G00015218","stopLetter":"BU","topMostParentId":"490G00015218","towards":"Camberwell Or Kennington Church"},{"icsId":"1008544","id":"490008544N","lat":51.45108,"lon":-0.12214,"name":"Jebb Avenue / Brixton Prison","parentId":"490G00008544","stationId":"490G00008544","stopLetter":"BV","topMostParentId":"490G00008544","towards":"Camberwell Or Kennington Church"},{"icsId":"1004101","id":"490004101N","lat":51.45428,"lon":-0.12014,"name":"Blenheim Gardens","parentId":"490G00004101","stationId":"490G00004101","stopLetter":"BW","topMostParentId":"490G00004101","towards":"Camberwell Or Kennington Church"},{"icsId":"1011793","id":"490011793N","lat":51.45767,"lon":-0.11799,"name":"Rush Common","parentId":"490G00011793","stationId":"490G00011793","stopLetter":"BY","topMostParentId":"490G00011793","towards":"Camberwell Or Kennington Church"},{"icsId":"1008919","id":"490008919Y","lat":51.45962,"lon":-0.11674,"name":"Lambeth Town Hall","parentId":"490G000627","stationId":"490G000627","stopLetter":"Y","topMostParentId":"490G000627","towards":"Camberwell Or Elephant & Castle"},{"icsId":"1000031","id":"490000031S","lat":51.46214,"lon":-0.11528,"name":"Brixton Station","stopLetter":"S","topMostParentId":"490000031S","towards":"Elephant & Castle","zone":"2"},{"icsId":"1007523","id":"490007523E","lat":51.46538,"lon":-0.11398,"name":"Brixton Road / Brixton Police Station","parentId":"490G000549","stationId":"490G000549","stopLetter":"E","topMostParentId":"490G000549","towards":"Elephant & Castle"},{"icsId":"1014085","id":"490014085N","lat":51.46742,"lon":-0.11292,"name":"Villa Road","parentId":"490G00014085","stationId":"490G00014085","stopLetter":"RA","topMostParentId":"490G00014085","towards":"Elephant & Castle Or Imperial War Museum"},{"icsId":"1009373","id":"490009373N1","lat":51.46958,"lon":-0.11261,"name":"Loughborough Road","parentId":"490G00009373","stationId":"490G00009373","stopLetter":"RB","topMostParentId":"490G00009373","towards":"Kennington Oval"},{"icsId":"1007587","id":"490007587N","lat":51.47288,"lon":-0.11288,"name":"Groveway","parentId":"490G00007587","stationId":"490G00007587","stopLetter":"RC","topMostParentId":"490G00007587","towards":"Elephant & Castle Or Imperial War Museum"},{"icsId":"1008248","id":"490008248N","lat":51.47474,"lon":-0.11305,"name":"Hillyard Street","parentId":"490G00008248","stationId":"490G00008248","stopLetter":"RD","topMostParentId":"490G00008248","towards":"Elephant & Castle Or Imperial War Museum"},{"icsId":"1014013","id":"490014013N","lat":51.47731,"lon":-0.11244,"name":"Vassall Road","parentId":"490G00014013","stationId":"490G00014013","stopLetter":"RE","topMostParentId":"490G00014013","towards":"Elephant & Castle Or Imperial War Museum"},{"icsId":"1008642","id":"490008642H","lat":51.48064,"lon":-0.11106,"name":"St Mark's Church","parentId":"490G00008642","stationId":"490G00008642","stopLetter":"H","topMostParentId":"490G00008642","towards":"Elephant & Castle, Lambeth Bdg Or Lambeth Nth"},{"icsId":"1015244","id":"490015244M","lat":51.48375,"lon":-0.11083,"name":"Kennington Park","parentId":"490G00015244","stationId":"490G00015244","stopLetter":"M","topMostParentId":"490G00015244","towards":"Elephant & Castle"},{"icsId":"1008656","id":"490008645Y","lat":51.48516,"lon":-0.10954,"name":"Kennington Road","parentId":"490G00008656","stationId":"490G00008656","stopLetter":"Y","topMostParentId":"490G00008656","towards":"Elephant & Castle"},{"icsId":"1000121","id":"490000121B","lat":51.48761,"lon":-0.10679,"name":"Kennington Station","stopLetter":"KB","topMostParentId":"490000121B","towards":"London Bridge","zone":"1+2"},{"icsId":"1010925","id":"490010925N","lat":51.48997,"lon":-0.10438,"name":"Penton Place","parentId":"490G00010925","stationId":"490G00010925","stopLetter":"BK","topMostParentId":"490G00010925","towards":"London Bridge"},{"icsId":"1010223","id":"490010223N","lat":51.49168,"lon":-0.10283,"name":"Newington Butts","parentId":"490G00010223","stationId":"490G00010223","stopLetter":"BL","topMostParentId":"490G00010223","towards":"London Bridge"},{"icsId":"1000073","id":"490000073S","lat":51.49396,"lon":-0.10072,"name":"Elephant & Castle Station","stopLetter":"S","topMostParentId":"490000073S","towards":"London Bridge","zone":"1+2"},{"icsId":"1009297","id":"490000073F","lat":51.49643,"lon":-0.09998,"name":"Elephant & Castle / Newington Causeway","parentId":"490G000644","stationId":"490G000644","stopLetter":"F","topMostParentId":"490G000644","towards":"Southwark Bridge, Bermondsey Or London Bridge"},{"icsId":"1003548","id":"490012354N","lat":51.49859,"lon":-0.09783,"name":"Inner London Crown Court","parentId":"490G00003548","stationId":"490G00003548","stopLetter":"P","topMostParentId":"490G00003548","towards":"London Bridge Or Rotherhithe"},{"icsId":"1000026","id":"490000026C","lat":51.50088,"lon":-0.09394,"name":"Borough Station","stopLetter":"C","topMostParentId":"490000026C","towards":"Liverpool Street","zone":"1"},{"icsId":"1013910","id":"490013910G","lat":51.50304,"lon":-0.09203,"name":"Union Street","parentId":"490G00013910","stationId":"490G00013910","stopLetter":"G","topMostParentId":"490G00013910","towards":"Aldgate, Liverpool Street Or Moorgate"},{"icsId":"1018542","id":"490000139M","lat":51.5067,"lon":-0.08833,"name":"London Bridge","parentId":"490G000922","stationId":"490G000922","stopLetter":"M","topMostParentId":"HUBLBG","towards":"Bank, St Paul's Or Liverpool Street"},{"icsId":"1000148","id":"490009267D","lat":51.50946,"lon":-0.08748,"name":"Monument Station","stopLetter":"Q","topMostParentId":"490009267D","towards":"Bank, St Pauls Or Liverpool Street","zone":"1"},{"icsId":"1019176","id":"490000148T","lat":51.5114,"lon":-0.08562,"name":"Gracechurch Street / Monument Station","parentId":"490G00019176","stationId":"490G00019176","stopLetter":"T","topMostParentId":"490G00019176","towards":"Liverpool Street"},{"icsId":"1002303","id":"490004043N2","lat":51.51586,"lon":-0.08222,"name":"Camomile Street","parentId":"490G00002303","stationId":"490G00002303","stopLetter":"W","topMostParentId":"490G00002303","towards":"Bethnal Green, Dalston Or Hackney"},{"icsId":"1004043","id":"490004043Q","lat":51.51618,"lon":-0.08229,"name":"Wormwood Street","parentId":"490G00004043","stationId":"490G00004043","stopLetter":"Q","topMostParentId":"490G00004043","towards":"St Paul's"},{"icsId":"1000138","id":"490000138N","lat":51.51801,"lon":-0.08274,"name":"Liverpool Street Station","stopLetter":"->N","topMostParentId":"490000138N","zone":"1"}]}]}