{"direction":"outbound","lineId":"n155","lineName":"N155","mode":"bus","stopPointSequences":[{"stopPoint":[{"icsId":"1000151","id":"490000151C","lat":51.40246,"lon":-0.19432,"name":"Morden Station","stopLetter":"C","topMostParentId":"490000151C","towards":"Mitcham, Rosehill Or St Helier","zone":"4"},{"icsId":"1006133","id":"490006133N","lat":51.40721,"lon":-0.1923,"name":"Dorset Road","parentId":"490G000486","stationId":"490G000486","stopLetter":"->N","topMostParentId":"490G000486","towards":"Colliers Wood Or Wimbledon"},{"icsId":"1002060","id":"490002060A","lat":51.40942,"lon":-0.19248,"name":"Morden Road Tram Stop","stopLetter":"SL","topMostParentId":"490002060A","towards":"Colliers Wood Or Wimbledon"},{"icsId":"1015174","id":"490015174A","lat":51.41486,"lon":-0.19281,"name":"Morden Road / South Wimbledon Station","parentId":"490G000867","stationId":"490G000867","stopLetter":"SM","topMostParentId":"490G000867","towards":"Wimbledon Village"},{"icsId":"1000216","id":"490000216D","lat":51.41572,"lon":-0.19051,"name":"South Wimbledon Station","stopLetter":"SZ","topMostParentId":"490000216D","towards":"Mitcham Or Tooting","zone":"3+4"},{"icsId":"1007938","id":"490007938F","lat":51.41611,"lon":-0.18536,"name":"Abbey Road","parentId":"490G00007938","stationId":"490G00007938","stopLetter":"SH","topMostParentId":"490G00007938","towards":"Mitcham Or Tooting"},{"icsId":"1009830","id":"490009830E","lat":51.41642,"lon":-0.18153,"name":"Merton Abbey","parentId":"490G00009830","stationId":"490G00009830","stopLetter":"E","topMostParentId":"490G00009830","towards":"Mitcham Or Tooting"},{"icsId":"1000055","id":"490000055D","lat":51.41889,"lon":-0.17755,"name":"Colliers Wood Station","stopLetter":"D","topMostParentId":"490000055D","towards":"Tooting Broadway","zone":"3"},{"icsId":"1014149","id":"490014149N","lat":51.42094,"lon":-0.17556,"name":"Walpole Road","parentId":"490G00014149","stationId":"490G00014149","stopLetter":"L","topMostParentId":"490G00014149","towards":"Tooting Broadway"},{"icsId":"1009332","id":"490009332H11","lat":51.42336,"lon":-0.1731,"name":"Longley Road","parentId":"490G00009332","stationId":"490G00009332","stopLetter":"HQ","topMostParentId":"490G00009332","towards":"Streatham Or Tooting Bec"},{"icsId":"1010468","id":"490010468H8","lat":51.42569,"lon":-0.17028,"name":"Nutwell Street","parentId":"490G00010468","stationId":"490G00010468","stopLetter":"HN","topMostParentId":"490G00010468","towards":"Mitcham, Streatham Or Tooting Bec"},{"icsId":"1000234","id":"490015513L","lat":51.42738,"lon":-0.16881,"name":"Tooting Broadway Station","stopLetter":"L","topMostParentId":"490015513L","towards":"Tooting Bec","zone":"3"},{"icsId":"1005921","id":"490011987A","lat":51.42949,"lon":-0.16659,"name":"Broadwater Road","parentId":"490G00005921","stationId":"490G00005921","stopLetter":"A","topMostParentId":"490G00005921","towards":"Balham Or Wandsworth Common"},{"icsId":"1008040","id":"490008040N","lat":51.43151,"lon":-0.16458,"name":"Hebdon Road","parentId":"490G00008040","stationId":"490G00008040","stopLetter":"M","topMostParentId":"490G00008040","towards":"Balham Or Wandsworth Common"},{"icsId":"1009484","id":"490009484N","lat":51.43347,"lon":-0.16326,"name":"Lynwood Road","parentId":"490G00009484","stationId":"490G00009484","stopLetter":"N","topMostParentId":"490G00009484","towards":"Balham Or Wandsworth Common"},{"icsId":"1000233","id":"490000233C","lat":51.43542,"lon":-0.16038,"name":"Tooting Bec Station","stopLetter":"C","topMostParentId":"490000233C","towards":"Balham Or Wandsworth Common","zone":"3"},{"icsId":"1013949","id":"490013949N","lat":51.43869,"lon":-0.15661,"name":"Upper Tooting Park","parentId":"490G00013949","stationId":"490G00013949","stopLetter":"H","topMostParentId":"490G00013949","towards":"Clapham South"},{"icsId":"1006209","id":"490006209N","lat":51.44104,"lon":-0.155,"name":"Du Cane Court","parentId":"490G00006209","stationId":"490G00006209","stopLetter":"L","topMostParentId":"490G00006209","towards":"Clapham South"},{"icsId":"1000012","id":"490000012B","lat":51.443,"lon":-0.1534,"name":"Balham Station","stopLetter":"B","topMostParentId":"490000012B","towards":"Clapham South","zone":"3"},{"icsId":"1008204","id":"490008204D","lat":51.44452,"lon":-0.1523,"name":"Hildreth Street Market","parentId":"490G00008204","stationId":"490G00008204","stopLetter":"D","topMostParentId":"490G00008204","towards":"Brixton Or Clapham Common"},{"icsId":"1003561","id":"490003561F","lat":51.44727,"lon":-0.14912,"name":"Balham New Road","parentId":"490G00003561","stationId":"490G00003561","stopLetter":"F","topMostParentId":"490G00003561","towards":"Brixton Or Clapham Common"},{"icsId":"1003175","id":"490003175N","lat":51.44933,"lon":-0.1481,"name":"Alderbrook Road","parentId":"490G00003175","stationId":"490G00003175","stopLetter":"SP","topMostParentId":"490G00003175","towards":"Brixton Or Clapham Common"},{"icsId":"1004870","id":"490004870N","lat":51.45045,"lon":-0.14793,"name":"Cathles Road","parentId":"490G00004870","stationId":"490G00004870","stopLetter":"SR","topMostParentId":"490G00004870","towards":"Brixton Or Clapham Common"},{"icsId":"1000052","id":"490000052SC","lat":51.45243,"lon":-0.14798,"name":"Clapham South Station","stopLetter":"SC","topMostParentId":"490000052SC","towards":"Brixton Or Clapham Common","zone":"2+3"},{"icsId":"1009474","id":"490009474SF","lat":51.45469,"lon":-0.14589,"name":"Lynette Avenue","parentId":"490G00009474","stationId":"490G00009474","stopLetter":"SF","topMostParentId":"490G00009474","towards":"Stockwell"},{"icsId":"1006520","id":"490006520N","lat":51.45713,"lon":-0.14357,"name":"Elms Road / Windmill on the Common","parentId":"490G00006520","stationId":"490G00006520","stopLetter":"C","topMostParentId":"490G00006520","towards":"Stockwell"},{"icsId":"1000050","id":"490000050D","lat":51.46152,"lon":-0.13851,"name":"Clapham Common Station","stopLetter":"D","topMostParentId":"490000050D","towards":"Stockwell","zone":"2"},{"icsId":"1000286","id":"490012768A","lat":51.46274,"lon":-0.13564,"name":"Nelson's Row","parentId":"490G00000286","stationId":"490G00000286","stopLetter":"CA","topMostParentId":"490G00000286","towards":"Brixton Or Stockwell"},{"icsId":"1020113","id":"490000051B","lat":51.46411,"lon":-0.13199,"name":"Clapham North & High Street Stns","parentId":"490G00020113","stationId":"490G00020113","stopLetter":"L","topMostParentId":"490G00020113","towards":"Brixton Or Stockwell"},{"icsId":"1016814","id":"490000051C","lat":51.46586,"lon":-0.12941,"name":"Clapham Road / Bedford Road","parentId":"490G00016814","stationId":"490G00016814","stopLetter":"C","topMostParentId":"490G00016814","towards":"Vauxhall, Brixton Or Kennington"},{"icsId":"1013907","id":"490013907N","lat":51.4684,"lon":-0.12728,"name":"Union Road","parentId":"490G00013907","stationId":"490G00013907","stopLetter":"J","topMostParentId":"490G00013907","towards":"Kennington, Brixton Or Vauxhall"},{"icsId":"1000223","id":"490000223G","lat":51.4717,"lon":-0.1233,"name":"Stockwell Station","stopLetter":"G","topMostParentId":"490000223G","towards":"Brixton Or Kennington","zone":"2"},{"icsId":"1008970","id":"490008970D","lat":51.47417,"lon":-0.12068,"name":"Lansdowne Way","parentId":"490G00008970","stationId":"490G00008970","stopLetter":"D","topMostParentId":"490G00008970","towards":"Kennington"},{"icsId":"1003164","id":"490003164N","lat":51.47626,"lon":-0.11849,"name":"Albert Square","parentId":"490G00003164","stationId":"490G00003164","stopLetter":"W","topMostParentId":"490G00003164","towards":"Kennington"},{"icsId":"1006134","id":"490006134N","lat":51.47792,"lon":-0.11672,"name":"Dorset Road","parentId":"490G00006134","stationId":"490G00006134","stopLetter":"Y","topMostParentId":"490G00006134","towards":"Kennington"},{"icsId":"1006796","id":"490006796S","lat":51.48017,"lon":-0.11431,"name":"Fentiman Road","parentId":"490G00006796","stationId":"490G00006796","stopLetter":"S","topMostParentId":"490G00006796","towards":"Kennington"},{"icsId":"1000172","id":"490000172Q","lat":51.48154,"lon":-0.11274,"name":"Oval Station","stopLetter":"Q","topMostParentId":"490000172Q","towards":"Elephant & Castle","zone":"2"},{"icsId":"1015244","id":"490015244M","lat":51.48375,"lon":-0.11083,"name":"Kennington Park","parentId":"490G00015244","stationId":"490G00015244","stopLetter":"M","topMostParentId":"490G00015244","towards":"Elephant & Castle"},{"icsId":"1008656","id":"490008645Y","lat":51.48516,"lon":-0.10954,"name":"Kennington Road","parentId":"490G00008656","stationId":"490G00008656","stopLetter":"Y","topMostParentId":"490G00008656","towards":"Elephant & Castle"},{"icsId":"1000121","id":"490000121B","lat":51.48761,"lon":-0.10679,"name":"Kennington Station","stopLetter":"KB","topMostParentId":"490000121B","towards":"London Bridge","zone":"1+2"},{"icsId":"1010925","id":"490010925N","lat":51.48997,"lon":-0.10438,"name":"Penton Place","parentId":"490G00010925","stationId":"490G00010925","stopLetter":"BK","topMostParentId":"490G00010925","towards":"London Bridge"},{"icsId":"1010223","id":"490010223N","lat":51.49168,"lon":-0.10283,"name":"Newington Butts","parentId":"490G00010223","stationId":"490G00010223","stopLetter":"BL","topMostParentId":"490G00010223","towards":"London Bridge"},{"icsId":"1000073","id":"490000073V","lat":51.49447,"lon":-0.10085,"name":"Elephant & Castle Station","stopLetter":"V","topMostParentId":"490000073V","towards":"Waterloo Or Westminster","zone":"1+2"},{"icsId":"1009270","id":"490009270Z","lat":51.49525,"lon":-0.10206,"name":"London College of Communication","parentId":"490G000641","stationId":"490G000641","stopLetter":"Z","topMostParentId":"490G000641","towards":"Pimlico, Vauxhall Or Westminster"},{"icsId":"1008479","id":"490008473N","lat":51.49645,"lon":-0.1059,"name":"St George's Road / Imperial War Museum","parentId":"490G000609","stationId":"490G000609","stopLetter":"N","topMostParentId":"490G000609","towards":"Pimlico Or Westminster"},{"icsId":"1000132","id":"490000132B","lat":51.49856,"lon":-0.11182,"name":"Lambeth North Station","stopLetter":"B","topMostParentId":"490000132B","towards":"Pimlico Or Trafalgar Square","zone":"1"},{"icsId":"1009420","id":"490009420W","lat":51.4994,"lon":-0.11377,"name":"Lower Marsh","parentId":"490G00009420","stationId":"490G00009420","stopLetter":"A","topMostParentId":"490G00009420","towards":"Pimlico Or Trafalgar Square"},{"icsId":"1018956","id":"490005646D","lat":51.50072,"lon":-0.11937,"name":"St Thomas' Hospital / County Hall","parentId":"490G00018956","stationId":"490G00018956","stopLetter":"D","topMostParentId":"490G00018956","towards":"Trafalgar Square Or Victoria"},{"icsId":"1020361","id":"490015048A","lat":51.50187,"lon":-0.12637,"name":"Westminster Stn  / Parliament Square","parentId":"490G00020361","stationId":"490G00020361","stopLetter":"A","topMostParentId":"HUBWSM","towards":"Aldwych Or Piccadilly Circus"},{"icsId":"1008376","id":"490008376N","lat":51.50405,"lon":-0.12641,"name":"Horse Guards Parade","parentId":"490G00008376","stationId":"490G00008376","stopLetter":"->N","topMostParentId":"490G00008376","towards":"Tottenham Court Road, Oxford Circus Or Aldwych"},{"icsId":"1000045","id":"490013766E","lat":51.50804,"lon":-0.12649,"name":"Charing Cross Stn / Trafalgar Square","stopLetter":"E","topMostParentId":"490013766E","towards":"Aldwych","zone":"1"},{"icsId":"1012247","id":"490012247A","lat":51.5104,"lon":-0.12182,"name":"Southampton Street / Covent Garden","parentId":"490G00012247","stationId":"490G00012247","stopLetter":"A","topMostParentId":"490G00012247","towards":"Fleet Street, Holborn Or Waterloo"},{"icsId":"1019703","id":"490019703E","lat":51.51283,"lon":-0.11841,"name":"Aldwych / Drury Lane","parentId":"490G00019703","stationId":"490G00019703","stopLetter":"E","topMostParentId":"490G00019703","towards":"Clerkenwell Green"}]}]}