{"direction":"outbound","lineId":"n18","lineName":"N18","mode":"bus","stopPointSequences":[{"stopPoint":[{"icsId":"1007870","id":"490007870S2","lat":51.60582,"lon":-0.34018,"name":"Harrow Weald Bus Garage","parentId":"490G00007870","stationId":"490G00007870","stopLetter":"WK","topMostParentId":"490G00007870","towards":"Wealdstone"},{"icsId":"1014327","id":"490014327S","lat":51.6032,"lon":-0.33869,"name":"Weald Lane","parentId":"490G00014327","stationId":"490G00014327","stopLetter":"WL","topMostParentId":"490G00014327","towards":"Harrow"},{"icsId":"1011882","id":"490011882S","lat":51.60017,"lon":-0.33766,"name":"Salvatorian College / St Joseph's Church","parentId":"490G00011882","stationId":"490G00011882","stopLetter":"WN","topMostParentId":"490G00011882","towards":"Harrow"},{"icsId":"1007844","id":"490007844D","lat":51.59699,"lon":-0.33572,"name":"Wealdstone Baptist Church","parentId":"490G00007844","stationId":"490G00007844","stopLetter":"D","topMostParentId":"490G00007844","towards":"Harrow"},{"icsId":"1015250","id":"490015250F","lat":51.59446,"lon":-0.33495,"name":"The Wealdstone Centre","parentId":"490G00015250","stationId":"490G00015250","stopLetter":"F","topMostParentId":"490G00015250"},{"icsId":"1000101","id":"490015249M","lat":51.59231,"lon":-0.33392,"name":"Harrow & Wealdstone Station","stopLetter":"M","topMostParentId":"490015249M","towards":"Northwick Park Hospital Or South Harrow","zone":"5"},{"icsId":"1007846","id":"490007846L","lat":51.58849,"lon":-0.33238,"name":"Harrow Civic Centre / Harrow Mosque","parentId":"490G00007846","stationId":"490G00007846","stopLetter":"L","topMostParentId":"490G00007846","towards":"Northwick Park Hospital Or South Harrow"},{"icsId":"1008255","id":"490008255V","lat":51.58453,"lon":-0.33209,"name":"Hindes Road","parentId":"490G00008255","stationId":"490G00008255","stopLetter":"V","topMostParentId":"490G00008255","towards":"Northwick Park Hospital Or South Harrow"},{"icsId":"1019800","id":"490015347H","lat":51.58228,"lon":-0.33235,"name":"Harrow Town Centre / St John's Road","parentId":"490G00019800","stationId":"490G00019800","stopLetter":"H","topMostParentId":"490G00019800","towards":"South Harrow Or Northwick Park Hospital"},{"icsId":"1015347","id":"490015347S","lat":51.58071,"lon":-0.33391,"name":"Harrow Town Centre","parentId":"490G00015347","stationId":"490G00015347","stopLetter":"J","topMostParentId":"490G00015347","towards":"South Harrow Or Northwick Park Hospital"},{"icsId":"1007845","id":"490007845C","lat":51.57997,"lon":-0.33759,"name":"Harrow Bus Station","parentId":"490G000574","stationId":"490G000574","stopLetter":"C","topMostParentId":"HUBHOH","towards":"Northwick Park, Sudbury Or South Harrow"},{"icsId":"1015347","id":"490015347M","lat":51.57957,"lon":-0.33392,"name":"Harrow Town Centre","parentId":"490G00015347","stationId":"490G00015347","stopLetter":"M","topMostParentId":"490G00015347","towards":"Kenton, Wembley Or South Harrow"},{"icsId":"1010958","id":"490010958S","lat":51.57759,"lon":-0.33355,"name":"Tyburn Lane","parentId":"490G000702","stationId":"490G000702","stopLetter":"F","topMostParentId":"490G000702","towards":"Kenton, Wembley Or South Harrow"},{"icsId":"1010425","id":"490015197AA","lat":51.57496,"lon":-0.32501,"name":"Northwick Park Hospital","parentId":"490G00010425","stationId":"490G00010425","stopLetter":"AA","topMostParentId":"490G00010425","towards":"Wembley"},{"icsId":"1013393","id":"490013393S","lat":51.56747,"lon":-0.32103,"name":"The Green / Carlton Avenue West","parentId":"490G00013393","stationId":"490G00013393","stopLetter":"S","topMostParentId":"490G00013393","towards":"Wembley"},{"icsId":"1012979","id":"490012979S","lat":51.56406,"lon":-0.32097,"name":"Sudbury Court Road","parentId":"490G00012979","stationId":"490G00012979","stopLetter":"K","topMostParentId":"490G00012979","towards":"Wembley"},{"icsId":"1012983","id":"490012983S","lat":51.56021,"lon":-0.31921,"name":"Perrin Road","parentId":"490G00012983","stationId":"490G00012983","stopLetter":"E","topMostParentId":"490G00012983","towards":"Sudbury Or Wembley"},{"icsId":"1007857","id":"490007857S","lat":51.55685,"lon":-0.3172,"name":"Harrow Road","parentId":"490G000576","stationId":"490G000576","stopLetter":"F","topMostParentId":"490G000576","towards":"Wembley Or Alperton"},{"icsId":"1001282","id":"490003597G","lat":51.55384,"lon":-0.31436,"name":"Sudbury & Harrow Road Station","stopLetter":"G","topMostParentId":"490003597G","towards":"Wembley Or Alperton"},{"icsId":"1013363","id":"490013363E","lat":51.55189,"lon":-0.31017,"name":"Chaplin Road","parentId":"490G00013363","stationId":"490G00013363","stopLetter":"HA","topMostParentId":"490G00013363","towards":"Kingsbury, Stonebridge Or Wembley Park"},{"icsId":"1005583","id":"490005583E","lat":51.55209,"lon":-0.30544,"name":"Copland Avenue","parentId":"490G00005583","stationId":"490G00005583","stopLetter":"HB","topMostParentId":"490G00005583","towards":"Kingsbury, Stonebridge Or Wembley Park"},{"icsId":"1006299","id":"490006299A","lat":51.55222,"lon":-0.30076,"name":"Ealing Road","parentId":"490G00006299","stationId":"490G00006299","stopLetter":"CX","topMostParentId":"490G00006299","towards":"Kingsbury, Stonebridge Or Wembley Park"},{"icsId":"1000256","id":"490000256F","lat":51.55243,"lon":-0.29755,"name":"Wembley Central Station","stopLetter":"CN","topMostParentId":"490000256F","towards":"Kingsbury, Wembley Park Or Harlesden","zone":"4"},{"icsId":"1005588","id":"490005584K","lat":51.55365,"lon":-0.29214,"name":"Ark Elvin Academy / Park Lane","parentId":"490G00005588","stationId":"490G00005588","stopLetter":"SG","topMostParentId":"490G00005588","towards":"Wembley Park, Brent Park Or Harlesden"},{"icsId":"1014387","id":"490014387E2","lat":51.55362,"lon":-0.28835,"name":"Wembley Triangle","parentId":"490G00014387","stationId":"490G00014387","stopLetter":"SC","topMostParentId":"490G00014387","towards":"North Wembley, Wembley Park Or Harlesden"},{"icsId":"1014315","id":"490014315N1","lat":51.55263,"lon":-0.28485,"name":"Waverley Avenue","parentId":"490G00014315","stationId":"490G00014315","stopLetter":"SK","topMostParentId":"490G00014315","towards":"Harlesden Or Park Royal"},{"icsId":"1013797","id":"490013797S","lat":51.55002,"lon":-0.28148,"name":"Tring Avenue","parentId":"490G00013797","stationId":"490G00013797","stopLetter":"->S","topMostParentId":"490G00013797","towards":"Harlesden Or Park Royal"},{"icsId":"1006871","id":"490007867E","lat":51.54845,"lon":-0.27849,"name":"Flamsted Avenue","parentId":"490G00006871","stationId":"490G00006871","stopLetter":"->E","topMostParentId":"490G00006871","towards":"Harlesden Or Park Royal"},{"icsId":"1014975","id":"490014975E","lat":51.54725,"lon":-0.27529,"name":"Wyld Way","parentId":"490G00014975","stationId":"490G00014975","stopLetter":"->E","topMostParentId":"490G00014975","towards":"Harlesden Or Park Royal"},{"icsId":"1010337","id":"490010337D","lat":51.54555,"lon":-0.27296,"name":"Stonebridge Park Stn   / Point Place","parentId":"490G000681","stationId":"490G000681","stopLetter":"D","topMostParentId":"490G000681","towards":"Harlesden"},{"icsId":"1010332","id":"490010332J","lat":51.54374,"lon":-0.27095,"name":"North Circular Road","parentId":"490G00010332","stationId":"490G00010332","stopLetter":"J","topMostParentId":"490G00010332","towards":"Harlesden"},{"icsId":"1005452","id":"490005452E","lat":51.54302,"lon":-0.26931,"name":"Sunny Crescent","parentId":"490G00005452","stationId":"490G00005452","stopLetter":"->E","topMostParentId":"490G00005452","towards":"Harlesden"},{"icsId":"1019834","id":"490012847E","lat":51.54213,"lon":-0.26559,"name":"West End Close","parentId":"490G00019834","stationId":"490G00019834","stopLetter":"K","topMostParentId":"490G00019834","towards":"Harlesden"},{"icsId":"1012848","id":"490012848E","lat":51.54125,"lon":-0.26051,"name":"Shakespeare Road","parentId":"490G00012848","stationId":"490G00012848","stopLetter":"L","topMostParentId":"490G00012848","towards":"Harlesden"},{"icsId":"1008865","id":"490008865E","lat":51.54141,"lon":-0.25776,"name":"Knatchbull Road","parentId":"490G00008865","stationId":"490G00008865","stopLetter":"M","topMostParentId":"490G00008865","towards":"Kensal Green"},{"icsId":"1005720","id":"490005720E","lat":51.54082,"lon":-0.25553,"name":"Craven Park","parentId":"490G00005720","stationId":"490G00005720","stopLetter":"N","topMostParentId":"490G00005720","towards":"Kensal Green"},{"icsId":"1012803","id":"490012803E","lat":51.53919,"lon":-0.25126,"name":"St Mary's Road","parentId":"490G00012803","stationId":"490G00012803","stopLetter":"E","topMostParentId":"490G00012803","towards":"Acton Or Kensal Green"},{"icsId":"1009571","id":"490009571A","lat":51.53713,"lon":-0.24627,"name":"Tavistock Road","parentId":"490G00009571","stationId":"490G00009571","stopLetter":"A","topMostParentId":"490G00009571","towards":"Acton Or Kensal Green"},{"icsId":"1013826","id":"490013826G","lat":51.53438,"lon":-0.24225,"name":"Nightingale Road","parentId":"490G00013826","stationId":"490G00013826","stopLetter":"G","topMostParentId":"490G00013826","towards":"Paddington Or White City"},{"icsId":"1005491","id":"490005491E","lat":51.53238,"lon":-0.23635,"name":"Scrubs Lane","parentId":"490G00005491","stationId":"490G00005491","stopLetter":"T","topMostParentId":"490G00005491","towards":"Paddington Green"},{"icsId":"1014076","id":"490014076E","lat":51.53138,"lon":-0.23133,"name":"Victor Road","parentId":"490G00014076","stationId":"490G00014076","stopLetter":"U","topMostParentId":"490G00014076","towards":"Paddington Green"},{"icsId":"1012788","id":"490012788E","lat":51.53064,"lon":-0.22892,"name":"St Mary's Cemetery","parentId":"490G00012788","stationId":"490G00012788","stopLetter":"KW","topMostParentId":"490G00012788","towards":"Paddington Green"},{"icsId":"1000122","id":"490000122E","lat":51.53014,"lon":-0.2248,"name":"Kensal Green Station","stopLetter":"KX","topMostParentId":"490000122E","towards":"Paddington Green","zone":"2"},{"icsId":"1014700","id":"490014700E","lat":51.52918,"lon":-0.22048,"name":"Berens Road","parentId":"490G00014700","stationId":"490G00014700","stopLetter":"KY","topMostParentId":"490G00014700","towards":"Paddington Green"},{"icsId":"1008727","id":"490008711X","lat":51.52828,"lon":-0.21676,"name":"Kilburn Lane","parentId":"490G00008727","stationId":"490G00008727","stopLetter":"X","topMostParentId":"490G00008727","towards":"Paddington Green"},{"icsId":"1006839","id":"490006832E","lat":51.52717,"lon":-0.21289,"name":"Fifth Avenue","parentId":"490G00006839","stationId":"490G00006839","stopLetter":"Z","topMostParentId":"490G00006839","towards":"Paddington Green Or Notting Hill Gate"},{"icsId":"1013613","id":"490013613E","lat":51.52678,"lon":-0.20904,"name":"Third Avenue","parentId":"490G00013613","stationId":"490G00013613","stopLetter":"P","topMostParentId":"490G00013613","towards":"Paddington Green Or Notting Hill Gate"},{"icsId":"1011135","id":"490011135E","lat":51.52576,"lon":-0.20437,"name":"Portnall Road","parentId":"490G00011135","stationId":"490G00011135","stopLetter":"R","topMostParentId":"490G00011135","towards":"Paddington Green Or Notting Hill Gate"},{"icsId":"1018988","id":"490003444E","lat":51.52471,"lon":-0.20249,"name":"Great Western Road / Elgin Avenue","parentId":"490G00018988","stationId":"490G00018988","stopLetter":"D","topMostParentId":"490G00018988","towards":"Paddington Green Or Notting Hill Gate"},{"icsId":"1007865","id":"490007865E","lat":51.52364,"lon":-0.19862,"name":"Westminster Registration Office","parentId":"490G00007865","stationId":"490G00007865","stopLetter":"G","topMostParentId":"490G00007865","towards":"Marble Arch Or Paddington Green"},{"icsId":"1013054","id":"490013054E","lat":51.52276,"lon":-0.19412,"name":"Sutherland Avenue","parentId":"490G00013054","stationId":"490G00013054","stopLetter":"RA","topMostParentId":"490G00013054","towards":"Marble Arch Or Paddington Green"},{"icsId":"1005320","id":"490005320E","lat":51.52088,"lon":-0.19182,"name":"Westminster Academy / Cirencester Street","parentId":"490G00005320","stationId":"490G00005320","stopLetter":"RB","topMostParentId":"490G00005320","towards":"Marble Arch Or Paddington Green"},{"icsId":"1000196","id":"490000196C","lat":51.51993,"lon":-0.18941,"name":"Royal Oak Station","stopLetter":"RC","topMostParentId":"490000196C","towards":"Euston","zone":"2"},{"icsId":"1015473","id":"490015473E","lat":51.51978,"lon":-0.18624,"name":"Westbourne Terrace","parentId":"490G00015473","stationId":"490G00015473","stopLetter":"RT","topMostParentId":"490G00015473","towards":"Euston"},{"icsId":"1014250","id":"490014250E","lat":51.52042,"lon":-0.17928,"name":"Bishops Bridge Road / Little Venice","parentId":"490G00014250","stationId":"490G00014250","stopLetter":"R","topMostParentId":"490G00014250","towards":"Euston Or Paddington"},{"icsId":"1010713","id":"490010713E","lat":51.52013,"lon":-0.17151,"name":"Edgware Road","parentId":"490G00010713","stationId":"490G00010713","stopLetter":"EX","topMostParentId":"490G00010713","towards":"Baker Street and Euston"},{"icsId":"1000071","id":"490000071E","lat":51.52023,"lon":-0.169,"name":"Edgware Road Station  / Bakerloo Line","stopLetter":"EZ","topMostParentId":"490000071E","towards":"Baker Street and Euston","zone":"1"},{"icsId":"1000351","id":"490015502N","lat":51.52137,"lon":-0.16235,"name":"Marylebone Station","parentId":"490G00000351","stationId":"490G00000351","stopLetter":"N","topMostParentId":"490G00000351","towards":"Camden Town Or Euston"},{"icsId":"1000285","id":"490015040W","lat":51.52202,"lon":-0.15888,"name":"Old Marylebone Town Hall","stopLetter":"W","topMostParentId":"490015040W","towards":"Camden Town, Euston Or Oxford Circus"},{"icsId":"1000011","id":"490000011D","lat":51.52242,"lon":-0.15628,"name":"Baker Street Station","stopLetter":"D","topMostParentId":"490000011D","towards":"Camden Town, Euston Or Oxford Circus","zone":"1"},{"icsId":"1007807","id":"490007807E","lat":51.52336,"lon":-0.14954,"name":"Harley Street","parentId":"490G00007807","stationId":"490G00007807","stopLetter":"M","topMostParentId":"490G00007807","towards":"Camden Town, Euston Or Oxford Circus"},{"icsId":"1000191","id":"490000191A","lat":51.52376,"lon":-0.14703,"name":"Regent's Park Station","stopLetter":"A","topMostParentId":"490000191A","towards":"Camden Town, Euston Or Oxford Circus","zone":"1"},{"icsId":"1000091","id":"490000091E","lat":51.52297,"lon":-0.14392,"name":"Great Portland Street Station","stopLetter":"E","topMostParentId":"490000091E","towards":"Oxford Circus","zone":"1"},{"icsId":"1010198","id":"490010198W","lat":51.51988,"lon":-0.14386,"name":"New Cavendish Street","parentId":"490G00010198","stationId":"490G00010198","stopLetter":"->W","topMostParentId":"490G00010198","towards":"Piccadilly Circus"},{"icsId":"1010697","id":"490000173RF","lat":51.51594,"lon":-0.14222,"name":"Oxford Circus Stn  / Margaret Street","parentId":"490G000694","stationId":"490G000694","stopLetter":"RF","topMostParentId":"490G000694","towards":"Trafalgar Square Or Green Park"},{"icsId":"1000173","id":"490000173RG","lat":51.51459,"lon":-0.14167,"name":"Oxford Circus Station","stopLetter":"RG","topMostParentId":"490000173RG","towards":"Trafalgar Square Or Green Park","zone":"1"},{"icsId":"1000393","id":"490004810RK","lat":51.51123,"lon":-0.13887,"name":"Beak Street / Hamleys Toy Store","parentId":"490G000041","stationId":"490G000041","stopLetter":"V","topMostParentId":"490G000041","towards":"Aldwych"},{"icsId":"1000179","id":"490000179F","lat":51.50996,"lon":-0.13689,"name":"Piccadilly Circus","stopLetter":"F","topMostParentId":"490000179F","towards":"Aldwych Or Parliament Square","zone":"1"},{"icsId":"1007960","id":"490007960P","lat":51.50898,"lon":-0.1321,"name":"Haymarket / Charles Il Street","parentId":"490G00007960","stationId":"490G00007960","stopLetter":"P","topMostParentId":"490G00007960","towards":"Parliament Square"},{"icsId":"1013767","id":"490013767A","lat":51.50763,"lon":-0.1298,"name":"Trafalgar Sq / Charing Cross Stn","parentId":"490G000804","stationId":"490G000804","stopLetter":"A","topMostParentId":"490G000804","towards":"Lambeth Or Vauxhall"},{"icsId":"1014585","id":"490014585N","lat":51.50627,"lon":-0.12699,"name":"Whitehall / Trafalgar Square","parentId":"490G000832","stationId":"490G000832","stopLetter":"N","topMostParentId":"490G000832","towards":"Victoria Or Vauxhall"}]}]}