{"direction":"outbound","lineId":"n199","lineName":"N199","mode":"bus","stopPointSequences":[{"stopPoint":[{"icsId":"1013766","id":"490013766G","lat":51.50864,"lon":-0.12623,"name":"Trafalgar Square / Charing Cross Stn","parentId":"490G000803","stationId":"490G000803","stopLetter":"G","topMostParentId":"HUBCHX","towards":"Aldwych"},{"icsId":"1012247","id":"490012247A","lat":51.5104,"lon":-0.12182,"name":"Southampton Street / Covent Garden","parentId":"490G00012247","stationId":"490G00012247","stopLetter":"A","topMostParentId":"490G00012247","towards":"Fleet Street, Holborn Or Waterloo"},{"icsId":"1003191","id":"490003191D","lat":51.5127,"lon":-0.11859,"name":"Aldwych","parentId":"490G000385","stationId":"490G000385","stopLetter":"D","topMostParentId":"490G000385","towards":"Ludgate Circus"},{"icsId":"1011757","id":"490011757L","lat":51.51319,"lon":-0.1146,"name":"The Royal Courts of Justice","parentId":"490G000731","stationId":"490G000731","stopLetter":"L","topMostParentId":"490G000731","towards":"St Paul's"},{"icsId":"1006826","id":"490006826E","lat":51.51425,"lon":-0.10875,"name":"Fetter Lane","parentId":"490G00006826","stationId":"490G00006826","stopLetter":"->E","topMostParentId":"490G00006826","towards":"Bank, Clerkenwell Green Or Moorgate"},{"icsId":"1019205","id":"490012105HA","lat":51.51423,"lon":-0.10591,"name":"Ludgate Circus","parentId":"490G00019205","stationId":"490G00019205","stopLetter":"E","topMostParentId":"490G00019205","towards":"Bank, Clerkenwell Green Or Moorgate"},{"icsId":"1009443","id":"490009443G","lat":51.51395,"lon":-0.10189,"name":"Ludgate Hill / Old Bailey","parentId":"490G00009443","stationId":"490G00009443","stopLetter":"G","topMostParentId":"490G00009443","towards":"Bank, Monument Or Moorgate"},{"icsId":"1012873","id":"490012873A","lat":51.51319,"lon":-0.09763,"name":"St Paul's Cathedral","parentId":"490G00012873","stationId":"490G00012873","stopLetter":"SK","topMostParentId":"490G00012873","towards":"Bank, Monument Or Moorgate"},{"icsId":"1000143","id":"490000143E","lat":51.51267,"lon":-0.09488,"name":"Mansion House Station","stopLetter":"ME","topMostParentId":"490000143E","towards":"Liverpool Street Or Monument","zone":"1"},{"icsId":"1000040","id":"490000040B","lat":51.51192,"lon":-0.09106,"name":"Cannon Street Station","stopLetter":"MB","topMostParentId":"490000040B","towards":"Aldgate Or London Bridge","zone":"1"},{"icsId":"1000148","id":"490009267E","lat":51.5095,"lon":-0.08703,"name":"Monument Station","stopLetter":"P","topMostParentId":"490009267E","towards":"Borough Or Bermondsey","zone":"1"},{"icsId":"1018542","id":"490000139Y","lat":51.50658,"lon":-0.08812,"name":"London Bridge","parentId":"490G000922","stationId":"490G000922","stopLetter":"Y","topMostParentId":"HUBLBG","towards":"Bricklayers Arms, Elephant Or Rotherhithe"},{"icsId":"1000139","id":"490000139R","lat":51.50597,"lon":-0.08738,"name":"London Bridge Station","stopLetter":"R","topMostParentId":"490000139R","towards":"Rotherhithe Or Tower Bridge","zone":"1"},{"icsId":"1007964","id":"490007964H","lat":51.50515,"lon":-0.0841,"name":"Hay's Galleria","parentId":"490G00007964","stationId":"490G00007964","stopLetter":"H","topMostParentId":"490G00007964","towards":"Aldgate Or Rotherhithe"},{"icsId":"1018666","id":"4900R0049J","lat":51.50418,"lon":-0.08188,"name":"Abbots Lane","parentId":"490G00018666","stationId":"490G00018666","stopLetter":"J","topMostParentId":"490G00018666","towards":"Aldgate Or Rotherhithe"},{"icsId":"1019766","id":"490016580H","lat":51.50357,"lon":-0.07997,"name":"Unicorn Theatre","parentId":"490G00019766","stationId":"490G00019766","stopLetter":"J","topMostParentId":"490G00019766","towards":"Aldgate Or Rotherhithe"},{"icsId":"1013746","id":"490013746K","lat":51.50272,"lon":-0.07798,"name":"Tower Bridge Road","parentId":"490G00013746","stationId":"490G00013746","stopLetter":"K","topMostParentId":"490G00013746","towards":"Rotherhithe Or Canada Water"},{"icsId":"1013745","id":"490013745S","lat":51.5017,"lon":-0.07638,"name":"Boss Street","parentId":"490G00013745","stationId":"490G00013745","stopLetter":"S","topMostParentId":"490G00013745","towards":"Surrey Quays"},{"icsId":"1006091","id":"490006091E","lat":51.49971,"lon":-0.07192,"name":"Dockhead","parentId":"490G00006091","stationId":"490G00006091","stopLetter":"H","topMostParentId":"490G00006091","towards":"Surrey Quays"},{"icsId":"1003034","id":"490003034E","lat":51.49857,"lon":-0.06932,"name":"Jamaica Road / Abbey Street","parentId":"490G00003034","stationId":"490G00003034","stopLetter":"J","topMostParentId":"490G00003034","towards":"Surrey Quays"},{"icsId":"1000021","id":"490012729D","lat":51.49808,"lon":-0.06549,"name":"Bermondsey Station","stopLetter":"D","topMostParentId":"490012729D","towards":"Surrey Quays","zone":"2"},{"icsId":"1006202","id":"490006202E","lat":51.49841,"lon":-0.06251,"name":"Drummond Road","parentId":"490G00006202","stationId":"490G00006202","stopLetter":"E","topMostParentId":"490G00006202","towards":"Surrey Quays"},{"icsId":"1012349","id":"490012349F","lat":51.49907,"lon":-0.05712,"name":"Southwark Park","parentId":"490G00012349","stationId":"490G00012349","stopLetter":"F","topMostParentId":"490G00012349","towards":"Surrey Quays"},{"icsId":"1010176","id":"490010176S","lat":51.49797,"lon":-0.05427,"name":"Neptune Street / St Olaves Estate","parentId":"490G000670","stationId":"490G000670","stopLetter":"S","topMostParentId":"490G000670","towards":"Deptford"},{"icsId":"1013041","id":"490013041T","lat":51.4969,"lon":-0.05296,"name":"Surrey Quays Road","parentId":"490G00013041","stationId":"490G00013041","stopLetter":"Y","topMostParentId":"490G00013041","towards":"Deptford"},{"icsId":"1004733","id":"490000037S","lat":51.49795,"lon":-0.05,"name":"Canada Water Bus Station","parentId":"490G000438","stationId":"490G000438","stopLetter":"B2","topMostParentId":"HUBZCW"},{"icsId":"1011723","id":"490011723E","lat":51.49494,"lon":-0.05048,"name":"Rotherhithe Police Station","parentId":"490G00011723","stationId":"490G00011723","stopLetter":"E","topMostParentId":"490G00011723","towards":"South Bermondsey, Deptford Or New Cross"},{"icsId":"1013042","id":"490013042K","lat":51.494,"lon":-0.04587,"name":"Surrey Quays Shopping Centre","parentId":"490G000775","stationId":"490G000775","stopLetter":"K","topMostParentId":"490G000775","towards":"Greenwich Or Peckham"},{"icsId":"1000229","id":"490000229L","lat":51.49342,"lon":-0.04601,"name":"Surrey Quays Station","stopLetter":"L","topMostParentId":"490000229L","towards":"Southwark Park Road, New Cross Or Lewisham"},{"icsId":"1011487","id":"490000229S","lat":51.49233,"lon":-0.04557,"name":"Lower Road / Surrey Quays Station","parentId":"490G00011487","stationId":"490G00011487","stopLetter":"M","topMostParentId":"490G00011487","towards":"Greenwich Or Lewisham"},{"icsId":"1015001","id":"490015001E","lat":51.49275,"lon":-0.04107,"name":"Yeoman Street","parentId":"490G00015001","stationId":"490G00015001","stopLetter":"->E","topMostParentId":"490G00015001","towards":"Greenwich"},{"icsId":"1006258","id":"490006258E","lat":51.49256,"lon":-0.03593,"name":"Dunnage Crescent","parentId":"490G00006258","stationId":"490G00006258","stopLetter":"->E","topMostParentId":"490G00006258","towards":"Greenwich"},{"icsId":"1016665","id":"490016665S","lat":51.49215,"lon":-0.0344,"name":"Grove Street / Plough Way","parentId":"490G00016665","stationId":"490G00016665","stopLetter":"->S","topMostParentId":"490G00016665","towards":"Greenwich"},{"icsId":"1007582","id":"490007582S","lat":51.49024,"lon":-0.03436,"name":"Windlass Place","parentId":"490G00007582","stationId":"490G00007582","stopLetter":"->S","topMostParentId":"490G00007582","towards":"Greenwich"},{"icsId":"1011605","id":"490011605W","lat":51.48887,"lon":-0.03448,"name":"Riverside Youth Club","parentId":"490G00011605","stationId":"490G00011605","stopLetter":"X","topMostParentId":"490G00011605","towards":"Greenwich"},{"icsId":"1006052","id":"490006052S","lat":51.4879,"lon":-0.0374,"name":"Deptford Park School","parentId":"490G00006052","stationId":"490G00006052","stopLetter":"Y","topMostParentId":"490G00006052","towards":"Greenwich"},{"icsId":"1006049","id":"490006049E","lat":51.4858,"lon":-0.03463,"name":"Deptford Fire Station","parentId":"490G00006049","stationId":"490G00006049","stopLetter":"V","topMostParentId":"490G00006049","towards":"Greenwich Or Lewisham"},{"icsId":"1007585","id":"490007585E","lat":51.48355,"lon":-0.03112,"name":"Abinger Grove","parentId":"490G00007585","stationId":"490G00007585","stopLetter":"W","topMostParentId":"490G00007585","towards":"Greenwich Or Lewisham"},{"icsId":"1018861","id":"490018861","lat":51.48213,"lon":-0.02816,"name":"Sayes Court Estate","parentId":"490G00018861","stationId":"490G00018861","stopLetter":"->E","topMostParentId":"490G00018861","towards":"Greenwich Or Lewisham"},{"icsId":"1006050","id":"490006050C","lat":51.48124,"lon":-0.02499,"name":"Deptford High Street","parentId":"490G00006050","stationId":"490G00006050","stopLetter":"C","topMostParentId":"490G00006050","towards":"Lewisham Or North Greenwich"},{"icsId":"1011687","id":"490011687D","lat":51.48099,"lon":-0.02148,"name":"Macmillan Students Village","parentId":"490G00011687","stationId":"490G00011687","stopLetter":"D","topMostParentId":"490G00011687","towards":"Lewisham Or North Greenwich"},{"icsId":"1005736","id":"490005736E","lat":51.48141,"lon":-0.01724,"name":"Creekside","parentId":"490G00005736","stationId":"490G00005736","stopLetter":"Z","topMostParentId":"490G00005736","towards":"Lewisham Or North Greenwich"},{"icsId":"1010309","id":"490010309E","lat":51.4815,"lon":-0.01435,"name":"Creek Road / Norman Road","parentId":"490G00010309","stationId":"490G00010309","stopLetter":"Y","topMostParentId":"490G00010309","towards":"Lewisham Or North Greenwich"},{"icsId":"1002027","id":"490002027A","lat":51.48152,"lon":-0.01112,"name":"Greenwich Tn Ctr / Cutty Sark Stn","stopLetter":"A","topMostParentId":"490002027A","towards":"Lewisham Or North Greenwich","zone":"2+3"},{"icsId":"1007506","id":"490007506E","lat":51.48086,"lon":-0.00887,"name":"Greenwich Town Centre / Nelson Road","parentId":"490G000546","stationId":"490G000546","stopLetter":"E","topMostParentId":"490G000546","towards":"Blackheath Village, Deptford Or Lewisham"},{"icsId":"1007516","id":"490007513K","lat":51.47909,"lon":-0.01022,"name":"Greenwich High Road / Royal Hill","parentId":"490G00007516","stationId":"490G00007516","stopLetter":"K","topMostParentId":"490G00007516","towards":"Blackheath Village, Lewisham Or New Cross"},{"icsId":"1001123","id":"490001123L","lat":51.47826,"lon":-0.01145,"name":"Greenwich Station","stopLetter":"L","topMostParentId":"490001123L","towards":"Lewisham Or Blackheath Village","zone":"2+3"},{"icsId":"1003411","id":"490003411S","lat":51.47498,"lon":-0.01335,"name":"Ashburnham Grove","parentId":"490G00003411","stationId":"490G00003411","stopLetter":"A","topMostParentId":"490G00003411","towards":"Catford Or Blackheath Village"},{"icsId":"1015265","id":"490015265S","lat":51.47345,"lon":-0.01485,"name":"Greenwich South Street / Blackheath Road","parentId":"490G00015265","stationId":"490G00015265","stopLetter":"B","topMostParentId":"490G00015265","towards":"Catford Or Blackheath Village"},{"icsId":"1012371","id":"490012371S","lat":51.47152,"lon":-0.01485,"name":"Sparta Street","parentId":"490G00012371","stationId":"490G00012371","stopLetter":"C","topMostParentId":"490G00012371","towards":"Catford"},{"icsId":"1010022","id":"490010022D","lat":51.46917,"lon":-0.0132,"name":"Morden Hill","parentId":"490G00010022","stationId":"490G00010022","stopLetter":"EE","topMostParentId":"490G00010022","towards":"Catford"},{"icsId":"1004068","id":"490004068S","lat":51.4676,"lon":-0.01171,"name":"Blackheath Rise","parentId":"490G00004068","stationId":"490G00004068","stopLetter":"EF","topMostParentId":"490G00004068","towards":"Catford"},{"icsId":"1001177","id":"490001177Z","lat":51.46424,"lon":-0.01255,"name":"Lewisham Station","stopLetter":"B","topMostParentId":"490001177Z","towards":"Catford","zone":"2+3"},{"icsId":"1009105","id":"490009110W","lat":51.46088,"lon":-0.01058,"name":"Lewisham Centre","parentId":"490G00009105","stationId":"490G00009105","stopLetter":"W","topMostParentId":"490G00009105","towards":"Catford"},{"icsId":"1010038","id":"490010038Z","lat":51.4587,"lon":-0.01246,"name":"Morley Road","parentId":"490G00010038","stationId":"490G00010038","stopLetter":"Z","topMostParentId":"490G00010038","towards":"Catford"},{"icsId":"1009111","id":"490009111HN","lat":51.4567,"lon":-0.0139,"name":"Lewisham Fire Station","parentId":"490G00009111","stationId":"490G00009111","stopLetter":"HN","topMostParentId":"490G00009111","towards":"Catford"},{"icsId":"1009113","id":"490009113S","lat":51.45427,"lon":-0.01597,"name":"Lewisham Park","parentId":"490G00009113","stationId":"490G00009113","stopLetter":"HP","topMostParentId":"490G00009113","towards":"Catford"},{"icsId":"1009109","id":"490009109S","lat":51.45289,"lon":-0.01628,"name":"Lewisham Hospital","parentId":"490G00009109","stationId":"490G00009109","stopLetter":"HR","topMostParentId":"490G00009109","towards":"Bellingham, Forest Hill Or Sydenham"},{"icsId":"1000914","id":"490007163HS","lat":51.4512,"lon":-0.01678,"name":"Mount Pleasant Road","parentId":"490G000231","stationId":"490G000231","stopLetter":"HS","topMostParentId":"490G000231","towards":"Bellingham, Forest Hill Or Sydenham"},{"icsId":"1011703","id":"490011703O","lat":51.44813,"lon":-0.01762,"name":"Rosenthal Road","parentId":"490G00011703","stationId":"490G00011703","stopLetter":"G","topMostParentId":"490G00011703","towards":"Bellingham, Forest Hill Or Sydenham"},{"icsId":"1013282","id":"490013282D","lat":51.44476,"lon":-0.01987,"name":"The Catford Centre","parentId":"490G00013282","stationId":"490G00013282","stopLetter":"D","topMostParentId":"490G00013282","towards":"Bellingham"},{"icsId":"1015150","id":"490015150Y","lat":51.44371,"lon":-0.02023,"name":"Bromley Road / Lewisham Town Hall","parentId":"490G00015150","stationId":"490G00015150","stopLetter":"Y","topMostParentId":"490G00015150","towards":"Beckenham Or Downham"},{"icsId":"1005020","id":"490003596S","lat":51.43927,"lon":-0.01969,"name":"Inchmery Road","parentId":"490G00005020","stationId":"490G00005020","stopLetter":"->S","topMostParentId":"490G00005020","towards":"Beckenham Or Downham"},{"icsId":"1010248","id":"490010248S","lat":51.43709,"lon":-0.01855,"name":"Newquay Road","parentId":"490G00010248","stationId":"490G00010248","stopLetter":"BM","topMostParentId":"490G00010248","towards":"Beckenham Or Downham"},{"icsId":"1004867","id":"490004865S","lat":51.43467,"lon":-0.01779,"name":"Catford Bus Garage","parentId":"490G00004867","stationId":"490G00004867","stopLetter":"BN","topMostParentId":"490G00004867","towards":"Beckenham Or Downham"},{"icsId":"1003852","id":"490003852B","lat":51.43393,"lon":-0.01763,"name":"Bellingham Road","parentId":"490G000410","stationId":"490G000410","stopLetter":"BQ","topMostParentId":"490G000410","towards":"Beckenham Or Downham"},{"icsId":"1004866","id":"490004866S","lat":51.43124,"lon":-0.01568,"name":"Catford Police Station","parentId":"490G00004866","stationId":"490G00004866","stopLetter":"BS","topMostParentId":"490G00004866","towards":"Beckenham Or Downham"},{"icsId":"1002403","id":"490013572S","lat":51.42949,"lon":-0.01436,"name":"Southend Lane","parentId":"490G00002403","stationId":"490G00002403","stopLetter":"ST","topMostParentId":"490G00002403","towards":"Beckenham Or Downham"},{"icsId":"1012286","id":"490012286S","lat":51.42778,"lon":-0.01154,"name":"Green Man Community Hub","parentId":"490G00012286","stationId":"490G00012286","stopLetter":"SX","topMostParentId":"490G00012286","towards":"Beckenham, Bromley Or Grove Park"},{"icsId":"1010528","id":"490010528S","lat":51.4258,"lon":-0.00554,"name":"Old Bromley Road","parentId":"490G00010528","stationId":"490G00010528","stopLetter":"DL","topMostParentId":"490G00010528","towards":"Bromley Or Grove Park"},{"icsId":"1004430","id":"490004430DA","lat":51.42384,"lon":-0.00348,"name":"Bromley Road / Downham Way","parentId":"490G00004430","stationId":"490G00004430","stopLetter":"DA","topMostParentId":"490G00004430","towards":"Bromley"},{"icsId":"1003438","id":"490003438S2","lat":51.4222,"lon":-0.0023,"name":"Ashgrove Road","parentId":"490G00003438","stationId":"490G00003438","stopLetter":"DB","topMostParentId":"490G00003438","towards":"Bromley"},{"icsId":"1004422","id":"490004422S","lat":51.41917,"lon":0.00097,"name":"Bromley Hill Cemetery","parentId":"490G00004422","stationId":"490G00004422","stopLetter":"DC","topMostParentId":"490G00004422","towards":"Bromley"},{"icsId":"1004418","id":"490004418S1","lat":51.41717,"lon":0.00402,"name":"Bromley Court Hotel","parentId":"490G00004418","stationId":"490G00004418","stopLetter":"DG","topMostParentId":"490G00004418","towards":"Bromley Common"},{"icsId":"1010748","id":"490010748S","lat":51.41503,"lon":0.00669,"name":"Park Avenue","parentId":"490G00010748","stationId":"490G00010748","stopLetter":"->S","topMostParentId":"490G00010748","towards":"Bromley Common"},{"icsId":"1014230","id":"490007999S","lat":51.41286,"lon":0.00832,"name":"Warner Road","parentId":"490G00014230","stationId":"490G00014230","stopLetter":"->S","topMostParentId":"490G00014230","towards":"Bromley Common"},{"icsId":"1006765","id":"490006765S2","lat":51.41039,"lon":0.0102,"name":"Farwig Lane","parentId":"490G00006765","stationId":"490G00006765","stopLetter":"->S","topMostParentId":"490G00006765","towards":"Bromley Common"},{"icsId":"1004419","id":"490004419C","lat":51.40796,"lon":0.0114,"name":"Bromley Magistrates Court","parentId":"490G00004419","stationId":"490G00004419","stopLetter":"A","topMostParentId":"490G00004419","towards":"Bromley Common"},{"icsId":"1004409","id":"4900004411SE","lat":51.40596,"lon":0.0139,"name":"High Street / Market Square","parentId":"490G00004409","stationId":"490G00004409","stopLetter":"I","topMostParentId":"490G00004409","towards":"Bromley Common"},{"icsId":"1004435","id":"490004435K","lat":51.40624,"lon":0.01781,"name":"Bromley Town Hall","parentId":"490G00004435","stationId":"490G00004435","stopLetter":"K","topMostParentId":"490G00004435","towards":"Bromley Common"},{"icsId":"1008665","id":"490008665T","lat":51.40531,"lon":0.0188,"name":"Bromley Civic Centre","parentId":"490G00008665","stationId":"490G00008665","stopLetter":"T","topMostParentId":"490G00008665","towards":"Beckenham, Bromley Common Or Hayes"},{"icsId":"1006507","id":"490006507Y","lat":51.40184,"lon":0.01625,"name":"Bromley High Street / the Mall","parentId":"490G00006507","stationId":"490G00006507","stopLetter":"X","topMostParentId":"490G00006507","towards":"Bickley Or Bromley Common"},{"icsId":"1001037","id":"490001037Z","lat":51.40049,"lon":0.01712,"name":"Bromley South Station","stopLetter":"Z","topMostParentId":"490001037Z","towards":"Bickley Or Bromley Common"},{"icsId":"1004423","id":"490004423G","lat":51.39892,"lon":0.01891,"name":"Cromwell Avenue","parentId":"490G00004423","stationId":"490G00004423","stopLetter":"G","topMostParentId":"490G00004423","towards":"Bickley Or Bromley Common"},{"icsId":"1003934","id":"490003934S","lat":51.3968,"lon":0.02353,"name":"Bertha James Day Centre","parentId":"490G00003934","stationId":"490G00003934","stopLetter":"BA","topMostParentId":"490G00003934","towards":"Biggin Hill, Locksbottom Or Petts Wood"},{"icsId":"1008330","id":"490008330S","lat":51.39604,"lon":0.02493,"name":"Homesdale Road","parentId":"490G00008330","stationId":"490G00008330","stopLetter":"BB","topMostParentId":"490G00008330","towards":"Biggin Hill, Locksbottom Or Petts Wood"},{"icsId":"1012309","id":"490012309S","lat":51.39269,"lon":0.0311,"name":"Southlands Road","parentId":"490G00012309","stationId":"490G00012309","stopLetter":"BA","topMostParentId":"490G00012309","towards":"Biggin Hill, Locksbottom Or Petts Wood"},{"icsId":"1008573","id":"490008573S","lat":51.39021,"lon":0.03455,"name":"Bromley Common / the Crown","parentId":"490G00008573","stationId":"490G00008573","stopLetter":"BB","topMostParentId":"490G00008573","towards":"Biggin Hill, Locksbottom Or Petts Wood"},{"icsId":"1015277","id":"490015277E","lat":51.38881,"lon":0.03672,"name":"Crown Lane Spur","parentId":"490G00015277","stationId":"490G00015277","stopLetter":"BC","topMostParentId":"490G00015277","towards":"Petts Wood"},{"icsId":"1012253","id":"490012253E","lat":51.38972,"lon":0.0434,"name":"Southborough Library","parentId":"490G00012253","stationId":"490G00012253","stopLetter":"M","topMostParentId":"490G00012253","towards":"Bickley Or Petts Wood"},{"icsId":"1013351","id":"490013351E","lat":51.38978,"lon":0.0502,"name":"The Fairway","parentId":"490G00013351","stationId":"490G00013351","stopLetter":"E","topMostParentId":"490G00013351","towards":"Orpington"},{"icsId":"1004055","id":"490004055E","lat":51.39074,"lon":0.0543,"name":"Southborough Lane / Blackbrook Lane","parentId":"490G00004055","stationId":"490G00004055","stopLetter":"P","topMostParentId":"490G00004055","towards":"Orpington"},{"icsId":"1010694","id":"490010694E","lat":51.38937,"lon":0.0601,"name":"Oxhawth Crescent / West Arm","parentId":"490G00010694","stationId":"490G00010694","stopLetter":"Q","topMostParentId":"490G00010694","towards":"Orpington"},{"icsId":"1010698","id":"490010693E","lat":51.38863,"lon":0.06492,"name":"Southborough Lane / Baptist Church","parentId":"490G00010698","stationId":"490G00010698","stopLetter":"R","topMostParentId":"490G00010698","towards":"Orpington"},{"icsId":"1005738","id":"490005738E","lat":51.38895,"lon":0.06803,"name":"Crescent Drive","parentId":"490G00005738","stationId":"490G00005738","stopLetter":"S","topMostParentId":"490G00005738","towards":"Orpington"},{"icsId":"1010976","id":"490010976B","lat":51.38892,"lon":0.07288,"name":"Queensway / Petts Wood Station","parentId":"490G000703","stationId":"490G000703","stopLetter":"B","topMostParentId":"490G000703","towards":"Orpington"},{"icsId":"1008551","id":"490008551N1","lat":51.38526,"lon":0.07687,"name":"Jersey Drive","parentId":"490G00008551","stationId":"490G00008551","stopLetter":"->S","topMostParentId":"490G00008551","towards":"Orpington"},{"icsId":"1005792","id":"490005792S","lat":51.38196,"lon":0.07981,"name":"Crofton School","parentId":"490G00005792","stationId":"490G00005792","stopLetter":"->S","topMostParentId":"490G00005792","towards":"Orpington"},{"icsId":"1011033","id":"490011033S","lat":51.37932,"lon":0.0791,"name":"Place Farm Avenue","parentId":"490G00011033","stationId":"490G00011033","stopLetter":"CJ","topMostParentId":"490G00011033","towards":"Orpington"},{"icsId":"1012952","id":"490012952S","lat":51.37494,"lon":0.07623,"name":"St Thomas Drive","parentId":"490G00012952","stationId":"490G00012952","stopLetter":"CK","topMostParentId":"490G00012952","towards":"Orpington"},{"icsId":"1005790","id":"490005788E","lat":51.37335,"lon":0.07671,"name":"Crofton Road / Crofton Lane","parentId":"490G00005790","stationId":"490G00005790","stopLetter":"CP","topMostParentId":"490G00005790","towards":"Chislehurst Or Ramsden Estate"},{"icsId":"1011150","id":"490011150E","lat":51.373,"lon":0.08054,"name":"Pound Court Drive","parentId":"490G00011150","stationId":"490G00011150","stopLetter":"CR","topMostParentId":"490G00011150","towards":"Chislehurst Or Ramsden Estate"},{"icsId":"1001220","id":"490001220B","lat":51.37281,"lon":0.08865,"name":"Orpington Station","stopLetter":"B","topMostParentId":"490001220B","towards":"Chislehurst Or Ramsden Estate"},{"icsId":"1013818","id":"490013818H","lat":51.37185,"lon":0.09134,"name":"Tubbenden Lane","parentId":"490G00013818","stationId":"490G00013818","stopLetter":"H","topMostParentId":"490G00013818","towards":"St Mary Cray, Chelsfield Or Chislehurst"},{"icsId":"1019892","id":"490015411R","lat":51.37396,"lon":0.09783,"name":"High Street / Orpington War Memorial","parentId":"490G00019892","stationId":"490G00019892","stopLetter":"R","topMostParentId":"490G00019892","towards":"Chislehurst or St Mary Cray"},{"icsId":"1014142","id":"490014142T","lat":51.37642,"lon":0.09956,"name":"Walnuts Centre","parentId":"490G00014142","stationId":"490G00014142","stopLetter":"T","topMostParentId":"490G00014142","towards":"Chislehurst Or St Mary Cray"},{"icsId":"1010636","id":"490010636V","lat":51.37827,"lon":0.10124,"name":"High Street / Broomhill Road","parentId":"490G00010636","stationId":"490G00010636","stopLetter":"V","topMostParentId":"490G00010636","towards":"Chislehurst Or St Mary Cray"},{"icsId":"1007292","id":"490007292N","lat":51.38165,"lon":0.10245,"name":"Goodmead Road","parentId":"490G00007292","stationId":"490G00007292","stopLetter":"D","topMostParentId":"490G00007292","towards":"Chislehurst Or St Mary Cray"},{"icsId":"1004808","id":"490004801N","lat":51.38203,"lon":0.10706,"name":"Carlton Parade","parentId":"490G00004808","stationId":"490G00004808","stopLetter":"L","topMostParentId":"490G00004808","towards":"St Mary Cray"},{"icsId":"1008673","id":"490011155SV","lat":51.38711,"lon":0.10872,"name":"Kent Road","parentId":"490G00008673","stationId":"490G00008673","stopLetter":"SV","topMostParentId":"490G00008673","towards":"Grovelands Or Sidcup"},{"icsId":"1010455","id":"490010455SJ","lat":51.39175,"lon":0.11076,"name":"Nugent Retail Park","parentId":"490G00010455","stationId":"490G00010455","stopLetter":"SJ","topMostParentId":"490G00010455","towards":"Chislehurst, Grovelands Or Sidcup"},{"icsId":"1012606","id":"490012606SD","lat":51.39508,"lon":0.11087,"name":"St Mary Cray / Station Approach","parentId":"490G00012606","stationId":"490G00012606","stopLetter":"SD","topMostParentId":"490G00012606","towards":"Chislehurst, Grovelands Or Sidcup"},{"icsId":"1001271","id":"490001271SA","lat":51.39574,"lon":0.10721,"name":"St Mary Cray Station","stopLetter":"SA","topMostParentId":"490001271SA","towards":"Sidcup"}]}]}