{"direction":"outbound","lineId":"n22","lineName":"N22","mode":"bus","stopPointSequences":[{"stopPoint":[{"icsId":"1012333","id":"490012333E","lat":51.43571,"lon":-0.34953,"name":"South Road / Fulwell","parentId":"490G00012333","stationId":"490G00012333","stopLetter":"F","topMostParentId":"490G00012333","towards":"Twickenham Or Whitton"},{"icsId":"1007064","id":"490007064E","lat":51.43664,"lon":-0.35045,"name":"Fulwell / Sixth Cross Road","parentId":"490G00007064","stationId":"490G00007064","stopLetter":"J","topMostParentId":"490G00007064","towards":"Isleworth, Richmond Or Whitton"},{"icsId":"1013765","id":"490013765N","lat":51.44026,"lon":-0.34697,"name":"Trafalgar Road / Prince of Wales","parentId":"490G00013765","stationId":"490G00013765","stopLetter":"SD","topMostParentId":"490G00013765","towards":"Isleworth, Richmond Or Whitton"},{"icsId":"1013865","id":"490013865N","lat":51.44203,"lon":-0.34423,"name":"The Prince Albert / Twickenham","parentId":"490G00013865","stationId":"490G00013865","stopLetter":"GA","topMostParentId":"490G00013865","towards":"Isleworth, Richmond Or Whitton"},{"icsId":"1013869","id":"490013869N","lat":51.44393,"lon":-0.34092,"name":"Twickenham Green","parentId":"490G00013869","stationId":"490G00013869","stopLetter":"GM","topMostParentId":"490G00013869","towards":"Isleworth, Richmond Or Whitton"},{"icsId":"1008009","id":"490008009E","lat":51.44541,"lon":-0.33593,"name":"Heath Road / Grove Avenue","parentId":"490G00008009","stationId":"490G00008009","stopLetter":"GP","topMostParentId":"490G00008009","towards":"Isleworth Or Richmond"},{"icsId":"1020202","id":"490008007T","lat":51.44551,"lon":-0.33062,"name":"Heath Road / Twickenham","parentId":"490G00020202","stationId":"490G00020202","stopLetter":"T","topMostParentId":"490G00020202","towards":"Isleworth Or Richmond"},{"icsId":"1015022","id":"490015022H","lat":51.44754,"lon":-0.32716,"name":"York Street / Twickenham","parentId":"490G00015022","stationId":"490G00015022","stopLetter":"H","topMostParentId":"490G00015022","towards":"Richmond"},{"icsId":"1009053","id":"490009053E","lat":51.44918,"lon":-0.32355,"name":"Lebanon Court","parentId":"490G00009053","stationId":"490G00009053","stopLetter":"S","topMostParentId":"490G00009053","towards":"Richmond"},{"icsId":"1018556","id":"490005841R","lat":51.45031,"lon":-0.32135,"name":"Orleans Park School","parentId":"490G00018556","stationId":"490G00018556","stopLetter":"T","topMostParentId":"490G00018556","towards":"Richmond"},{"icsId":"1005841","id":"490005841U","lat":51.4519,"lon":-0.31632,"name":"Marble Hill Park / Crown Road","parentId":"490G00005841","stationId":"490G00005841","stopLetter":"U","topMostParentId":"490G00005841","towards":"Richmond"},{"icsId":"1012460","id":"490012460N","lat":51.45336,"lon":-0.31346,"name":"St Stephen's Church","parentId":"490G00012460","stationId":"490G00012460","stopLetter":"V","topMostParentId":"490G00012460","towards":"Barnes Or Richmond Station"},{"icsId":"1005755","id":"490005755E","lat":51.45589,"lon":-0.30981,"name":"Cresswell Road","parentId":"490G00005755","stationId":"490G00005755","stopLetter":"W","topMostParentId":"490G00005755","towards":"Barnes Or Richmond Station"},{"icsId":"1007166","id":"490007166B","lat":51.46071,"lon":-0.30474,"name":"George Street","parentId":"490G00007166","stationId":"490G00007166","stopLetter":"B","topMostParentId":"490G00007166","towards":"Hammersmith Or Kew"},{"icsId":"1000192","id":"490013511C","lat":51.46274,"lon":-0.30268,"name":"Richmond Station","stopLetter":"C","topMostParentId":"490013511C","towards":"Chiswick, Kew Or Mortlake","zone":"4"},{"icsId":"1011557","id":"490011557E","lat":51.46539,"lon":-0.29715,"name":"Richmond Circus","parentId":"490G00011557","stationId":"490G00011557","stopLetter":"RS","topMostParentId":"490G00011557","towards":"Chiswick, Kew Or Mortlake"},{"icsId":"1012048","id":"490012048E","lat":51.46596,"lon":-0.29443,"name":"Sheendale Road","parentId":"490G00012048","stationId":"490G00012048","stopLetter":"ST","topMostParentId":"490G00012048","towards":"Chiswick, Kew Or Mortlake"},{"icsId":"1009547","id":"490009547SA","lat":51.46711,"lon":-0.29029,"name":"Manor Circus","parentId":"490G00009547","stationId":"490G00009547","stopLetter":"SA","topMostParentId":"490G00009547","towards":"Chiswick, Kew Or Mortlake"},{"icsId":"1015035","id":"490015035SL","lat":51.46796,"lon":-0.28704,"name":"Sandycombe Road","parentId":"490G00015035","stationId":"490G00015035","stopLetter":"SL","topMostParentId":"490G00015035","towards":"Barnes, Chiswick Or Kew"},{"icsId":"1009670","id":"490009670E","lat":51.46808,"lon":-0.28271,"name":"Marksbury Avenue","parentId":"490G00009670","stationId":"490G00009670","stopLetter":"A","topMostParentId":"490G00009670","towards":"Barnes, Chiswick Or Kew"},{"icsId":"1010049","id":"490010049N","lat":51.46887,"lon":-0.27924,"name":"Mortlake Road","parentId":"490G00010049","stationId":"490G00010049","stopLetter":"B","topMostParentId":"490G00010049","towards":"Chiswick Or Barnes"},{"icsId":"1005410","id":"490005410E","lat":51.46894,"lon":-0.27375,"name":"Clifford Avenue","parentId":"490G00005410","stationId":"490G00005410","stopLetter":"M","topMostParentId":"490G00005410","towards":"Hammersmith Bridge"},{"icsId":"1012467","id":"490012467W","lat":51.46928,"lon":-0.26922,"name":"Ship Lane / Stag Brewery","parentId":"490G000759","stationId":"490G000759","stopLetter":"N","topMostParentId":"490G000759","towards":"Hammersmith Bridge"},{"icsId":"1010046","id":"490010046E","lat":51.4699,"lon":-0.26424,"name":"Sheen Lane / Mortlake Station","parentId":"490G00010046","stationId":"490G00010046","stopLetter":"A","topMostParentId":"490G00010046","towards":"Hammersmith Bridge Or Putney"},{"icsId":"1002152","id":"490003516E","lat":51.46992,"lon":-0.25953,"name":"Avondale Road","parentId":"490G000373","stationId":"490G000373","stopLetter":"S","topMostParentId":"490G000373","towards":"Hammersmith Bridge Or Putney"},{"icsId":"1014596","id":"490014596E","lat":51.4705,"lon":-0.25688,"name":"White Hart Lane","parentId":"490G00014596","stationId":"490G00014596","stopLetter":"T","topMostParentId":"490G00014596","towards":"Hammersmith Bridge Or Putney"},{"icsId":"1001015","id":"490001015BK","lat":51.47256,"lon":-0.25288,"name":"Barnes Bridge Station","stopLetter":"BK","topMostParentId":"490001015BK","towards":"Hammersmith Bridge Or Putney"},{"icsId":"1003630","id":"490003630ZZ","lat":51.47351,"lon":-0.25057,"name":"Barnes High Street","parentId":"490G00003630","stationId":"490G00003630","stopLetter":"->E","topMostParentId":"490G00003630","towards":"Hammersmith Bridge, Putney Or Roehampton"},{"icsId":"1003632","id":"490003632BF","lat":51.47388,"lon":-0.24677,"name":"Barnes Pond","parentId":"490G00003632","stationId":"490G00003632","stopLetter":"BF","topMostParentId":"490G00003632","towards":"Hammersmith Bridge"},{"icsId":"1007216","id":"490007216BE","lat":51.47443,"lon":-0.24371,"name":"Glebe Road","parentId":"490G00007216","stationId":"490G00007216","stopLetter":"BE","topMostParentId":"490G00007216","towards":"Hammersmith Bridge"},{"icsId":"1005298","id":"490005298WS","lat":51.47471,"lon":-0.23878,"name":"Church Road / Red Lion","parentId":"490G00005298","stationId":"490G00005298","stopLetter":"WS","topMostParentId":"490G00005298","towards":"Roehampton Or Sheen"},{"icsId":"1011420","id":"490011420WT","lat":51.47286,"lon":-0.23754,"name":"Ranelagh Avenue","parentId":"490G00011420","stationId":"490G00011420","stopLetter":"WT","topMostParentId":"490G00011420","towards":"Roehampton Or Sheen"},{"icsId":"1012375","id":"490012375E","lat":51.4685,"lon":-0.22781,"name":"Commondale","parentId":"490G00012375","stationId":"490G00012375","stopLetter":"E","topMostParentId":"490G00012375","towards":"Fulham Or Wandsworth"},{"icsId":"1006825","id":"490006825E","lat":51.46829,"lon":-0.22342,"name":"Festing Road","parentId":"490G00006825","stationId":"490G00006825","stopLetter":"F","topMostParentId":"490G00006825","towards":"Fulham Or Wandsworth"},{"icsId":"1011828","id":"490011828E","lat":51.46732,"lon":-0.21921,"name":"Ruvigny Gardens","parentId":"490G00011828","stationId":"490G00011828","stopLetter":"G","topMostParentId":"490G00011828","towards":"Fulham Or Wandsworth"},{"icsId":"1002026","id":"490013344Q","lat":51.46638,"lon":-0.21488,"name":"Putney Pier","parentId":"930GPUT","stationId":"930GPUT","stopLetter":"Q","topMostParentId":"930GPUT","towards":"Fulham Or Wandsworth"},{"icsId":"1011278","id":"490011278S","lat":51.46674,"lon":-0.21331,"name":"St Mary's Church / Putney Pier","parentId":"490G00011278","stationId":"490G00011278","stopLetter":"S","topMostParentId":"490G00011278","towards":"Fulham Or Hammersmith"},{"icsId":"1007281","id":"490015157V","lat":51.46804,"lon":-0.21184,"name":"Putney Bridge","parentId":"490G000536","stationId":"490G000536","stopLetter":"FH","topMostParentId":"490G000536","towards":"Chelsea, Fulham Or Hammersmith"},{"icsId":"1008435","id":"490008435E","lat":51.46937,"lon":-0.20954,"name":"Putney Bridge Stn / Fulham High Street","parentId":"490G00008435","stationId":"490G00008435","stopLetter":"FW","topMostParentId":"490G00008435","towards":"Chelsea Or Sands End"},{"icsId":"1015393","id":"490015393Z","lat":51.47195,"lon":-0.20461,"name":"Munster Road","parentId":"490G00015393","stationId":"490G00015393","stopLetter":"Z","topMostParentId":"490G00015393","towards":"Chelsea Or Sands End"},{"icsId":"1015575","id":"490015575X","lat":51.47287,"lon":-0.19925,"name":"Parsons Green","parentId":"490G00015575","stationId":"490G00015575","stopLetter":"X","topMostParentId":"490G00015575","towards":"Chelsea"},{"icsId":"1005156","id":"490005189E","lat":51.47407,"lon":-0.19632,"name":"Irene Road","parentId":"490G00005156","stationId":"490G00005156","stopLetter":"GA","topMostParentId":"490G00005156","towards":"Chelsea"},{"icsId":"1014186","id":"490014186I","lat":51.47549,"lon":-0.19434,"name":"Wandsworth Bridge Road","parentId":"490G00014186","stationId":"490G00014186","stopLetter":"GB","topMostParentId":"490G00014186","towards":"Chelsea"},{"icsId":"1011788","id":"490011788N","lat":51.47845,"lon":-0.18899,"name":"Rumbold Road","parentId":"490G00011788","stationId":"490G00011788","stopLetter":"GC","topMostParentId":"490G00011788","towards":"Chelsea"},{"icsId":"1009370","id":"490009370E","lat":51.48072,"lon":-0.18485,"name":"Worlds End Health Centre","parentId":"490G00009370","stationId":"490G00009370","stopLetter":"GD","topMostParentId":"490G00009370","towards":"Sloane Square Or Earls Court"},{"icsId":"1005076","id":"490015066E","lat":51.48168,"lon":-0.18235,"name":"Edith Grove / Worlds End","parentId":"490G00005076","stationId":"490G00005076","stopLetter":"->E","topMostParentId":"490G00005076","towards":"Sloane Square"},{"icsId":"1005086","id":"490005076E","lat":51.48244,"lon":-0.17915,"name":"Hobury Street / Worlds End","parentId":"490G00005086","stationId":"490G00005086","stopLetter":"QH","topMostParentId":"490G00005086","towards":"Sloane Square"},{"icsId":"1003682","id":"490015145E","lat":51.48433,"lon":-0.17644,"name":"Beaufort Street","parentId":"490G00003682","stationId":"490G00003682","stopLetter":"QT","topMostParentId":"490G00003682","towards":"Sloane Square"},{"icsId":"1010534","id":"490010534E","lat":51.48554,"lon":-0.17383,"name":"Old Church Street","parentId":"490G00010534","stationId":"490G00010534","stopLetter":"KE","topMostParentId":"490G00010534","towards":"Sloane Square Or South Kensington"},{"icsId":"1004809","id":"490008763KF","lat":51.48663,"lon":-0.17114,"name":"Carlyle Square","parentId":"490G00004809","stationId":"490G00004809","stopLetter":"KF","topMostParentId":"490G00004809","towards":"Sloane Square Or South Kensington"},{"icsId":"1005073","id":"490005073KL","lat":51.48778,"lon":-0.16808,"name":"Chelsea Old Town Hall","parentId":"490G00005073","stationId":"490G00005073","stopLetter":"KL","topMostParentId":"490G00005073","towards":"Sloane Square"},{"icsId":"1009666","id":"490009666KN","lat":51.48895,"lon":-0.16523,"name":"Markham Street","parentId":"490G00009666","stationId":"490G00009666","stopLetter":"KN","topMostParentId":"490G00009666","towards":"Sloane Square"},{"icsId":"1006224","id":"490006224KP","lat":51.49086,"lon":-0.16129,"name":"Duke of York Square","parentId":"490G00006224","stationId":"490G00006224","stopLetter":"KP","topMostParentId":"490G00006224","towards":"Victoria Or Hyde Park Corner"},{"icsId":"1006228","id":"490000206E","lat":51.49202,"lon":-0.15901,"name":"Cadogan Gardens / Sloane Square","parentId":"490G00006228","stationId":"490G00006228","stopLetter":"E","topMostParentId":"490G00006228","towards":"Victoria Or Hyde Park Corner"},{"icsId":"1015175","id":"490015175A","lat":51.49333,"lon":-0.15799,"name":"Sloane Street / Sloane Square Station","parentId":"490G000868","stationId":"490G000868","stopLetter":"A","topMostParentId":"490G000868","towards":"Hyde Park Corner Or South Kensington"},{"icsId":"1011097","id":"490011097N","lat":51.49636,"lon":-0.15889,"name":"Pont Street","parentId":"490G00011097","stationId":"490G00011097","stopLetter":"KM","topMostParentId":"490G00011097","towards":"Hyde Park Corner Or South Kensington"},{"icsId":"1000130","id":"490000130K1","lat":51.5009,"lon":-0.16021,"name":"Knightsbridge Station","parentId":"940GZZLUKNB","stationId":"940GZZLUKNB","stopLetter":"KJ","topMostParentId":"940GZZLUKNB","towards":"Hyde Park Corner Or South Kensington","zone":"1"},{"icsId":"1000119","id":"490000119T","lat":51.50302,"lon":-0.15351,"name":"Hyde Park Corner Station","stopLetter":"T","topMostParentId":"490000119T","towards":"Oxford Circus Or Piccadilly Circus","zone":"1"},{"icsId":"1010574","id":"490010574C","lat":51.50408,"lon":-0.14841,"name":"Old Park Lane / Hard Rock Cafe","parentId":"490G00010574","stationId":"490G00010574","stopLetter":"C","topMostParentId":"490G00010574","towards":"Oxford Circus Or Trafalgar Square"},{"icsId":"1000093","id":"490000093PA","lat":51.50734,"lon":-0.14381,"name":"Green Park Station","stopLetter":"R","topMostParentId":"490000093PA","towards":"Oxford Circus","zone":"1"},{"icsId":"1003923","id":"490003923N","lat":51.50937,"lon":-0.14635,"name":"Berkeley Square","parentId":"490G00003923","stationId":"490G00003923","stopLetter":"V","topMostParentId":"490G00003923","towards":"Oxford Circus"},{"icsId":"1018807","id":"490018807E","lat":51.51219,"lon":-0.14207,"name":"Conduit Street / Savile Row","parentId":"490G00018807","stationId":"490G00018807","stopLetter":"Q","topMostParentId":"490G00018807","towards":"Oxford Circus"},{"icsId":"1000173","id":"490000173RC","lat":51.51462,"lon":-0.14194,"name":"Oxford Circus Station","stopLetter":"RC","topMostParentId":"490000173RC","towards":"Marble Arch Or Great Portland Street","zone":"1"},{"icsId":"1010695","id":"490000173N","lat":51.51607,"lon":-0.14233,"name":"Margaret Street / Oxford Circus","parentId":"490G000693","stationId":"490G000693","stopLetter":"RE","topMostParentId":"490G000693"}]}]}