{"direction":"outbound","lineId":"n266","lineName":"N266","mode":"bus","stopPointSequences":[{"stopPoint":[{"icsId":"1007705","id":"490007705C","lat":51.49228,"lon":-0.22388,"name":"Hammersmith Bus Station","parentId":"490G000565","stationId":"490G000565","stopLetter":"B","topMostParentId":"HUBHMS","towards":"Chiswick"},{"icsId":"1008801","id":"490008801P","lat":51.49266,"lon":-0.22728,"name":"Livat Hammersmith Shopping Centre","parentId":"490G000625","stationId":"490G000625","stopLetter":"U","topMostParentId":"490G000625","towards":"Acton Or Chiswick"},{"icsId":"1007711","id":"490007711WA","lat":51.49251,"lon":-0.23286,"name":"Hammersmith Town Hall","parentId":"490G00007711","stationId":"490G00007711","stopLetter":"WA","topMostParentId":"490G00007711","towards":"Chiswick Or Acton"},{"icsId":"1000188","id":"490000188A","lat":51.49548,"lon":-0.23456,"name":"Ravenscourt Park Station","stopLetter":"A","topMostParentId":"490000188A","towards":"Acton","zone":"2"},{"icsId":"1008559","id":"490008559N","lat":51.49695,"lon":-0.23538,"name":"John Betts School","parentId":"490G00008559","stationId":"490G00008559","stopLetter":"SR","topMostParentId":"490G00008559","towards":"Acton"},{"icsId":"1012004","id":"490012004N","lat":51.49948,"lon":-0.23789,"name":"Goldhawk Road","parentId":"490G00012004","stationId":"490G00012004","stopLetter":"ST","topMostParentId":"490G00012004","towards":"Acton"},{"icsId":"1012595","id":"490012595N","lat":51.50034,"lon":-0.23982,"name":"Kelmscott Gardens","parentId":"490G00012595","stationId":"490G00012595","stopLetter":"SU","topMostParentId":"490G00012595","towards":"Acton"},{"icsId":"1007145","id":"490007145N","lat":51.50324,"lon":-0.24338,"name":"Askew Road Library / Gayford Road","parentId":"490G00007145","stationId":"490G00007145","stopLetter":"AE","topMostParentId":"490G00007145","towards":"Acton"},{"icsId":"1018989","id":"490003456N1","lat":51.50605,"lon":-0.24494,"name":"Uxbridge Road","parentId":"490G00018989","stationId":"490G00018989","stopLetter":"AF","topMostParentId":"490G00018989","towards":"Acton"},{"icsId":"1013612","id":"490013612W","lat":51.50661,"lon":-0.24883,"name":"Third Avenue","parentId":"490G00013612","stationId":"490G00013612","stopLetter":"VK","topMostParentId":"490G00013612","towards":"Chiswick, Ealing Or North Acton"},{"icsId":"1004438","id":"490004438W","lat":51.50663,"lon":-0.25142,"name":"Acton Vale / Bromyard Avenue","parentId":"490G00004438","stationId":"490G00004438","stopLetter":"VL","topMostParentId":"490G00004438","towards":"Chiswick, Ealing Or North Acton"},{"icsId":"1008976","id":"490008976W","lat":51.50661,"lon":-0.25406,"name":"Larden Road","parentId":"490G00008976","stationId":"490G00008976","stopLetter":"VM","topMostParentId":"490G00008976","towards":"Ealing Or North Acton"},{"icsId":"1006312","id":"490006312W","lat":51.50654,"lon":-0.25608,"name":"East Acton Lane","parentId":"490G00006312","stationId":"490G00006312","stopLetter":"VN","topMostParentId":"490G00006312","towards":"Ealing Or North Acton"},{"icsId":"1003084","id":"490003084W","lat":51.50637,"lon":-0.261,"name":"Acton Park","parentId":"490G00003084","stationId":"490G00003084","stopLetter":"VQ","topMostParentId":"490G00003084","towards":"Ealing Or North Acton"},{"icsId":"1001002","id":"490001002J","lat":51.50647,"lon":-0.26405,"name":"Acton Central Station","stopLetter":"J","topMostParentId":"490001002J","towards":"Ealing Or North Acton"},{"icsId":"1003083","id":"490003083G","lat":51.5067,"lon":-0.26891,"name":"Acton Old Town Hall","parentId":"490G00003083","stationId":"490G00003083","stopLetter":"G","topMostParentId":"490G00003083","towards":"Ealing Broadway Or North Acton"},{"icsId":"1012681","id":"490012681O","lat":51.50975,"lon":-0.27279,"name":"Rosemont Road","parentId":"490G00012681","stationId":"490G00012681","stopLetter":"O","topMostParentId":"490G00012681","towards":"Harlesden Or Park Royal"},{"icsId":"1005761","id":"490005761N","lat":51.51233,"lon":-0.27056,"name":"Creswick Road","parentId":"490G00005761","stationId":"490G00005761","stopLetter":"->N","topMostParentId":"490G00005761","towards":"Harlesden Or Park Royal"},{"icsId":"1003063","id":"490003063N","lat":51.51368,"lon":-0.26979,"name":"Acacia Road","parentId":"490G00003063","stationId":"490G00003063","stopLetter":"->N","topMostParentId":"490G00003063","towards":"Harlesden Or Park Royal"},{"icsId":"1006737","id":"490006737N","lat":51.51517,"lon":-0.26869,"name":"Faraday Road","parentId":"490G00006737","stationId":"490G00006737","stopLetter":"->N","topMostParentId":"490G00006737","towards":"Harlesden Or Park Royal"},{"icsId":"1001003","id":"490001003J","lat":51.51785,"lon":-0.26631,"name":"Acton Main Line Station","stopLetter":"J","topMostParentId":"490001003J","towards":"Harlesden Or Park Royal"},{"icsId":"1010291","id":"490010291K","lat":51.51906,"lon":-0.26546,"name":"Noel Road","parentId":"490G00010291","stationId":"490G00010291","stopLetter":"K","topMostParentId":"490G00010291","towards":"Harlesden Or Park Royal"},{"icsId":"1007188","id":"490015319O","lat":51.52067,"lon":-0.26436,"name":"Gypsy Corner","parentId":"490G00007188","stationId":"490G00007188","stopLetter":"O","topMostParentId":"490G00007188","towards":"Harlesden Or Park Royal"},{"icsId":"1010825","id":"490010825U","lat":51.52289,"lon":-0.26209,"name":"Chase Road","parentId":"490G00010825","stationId":"490G00010825","stopLetter":"U","topMostParentId":"490G00010825","towards":"East Acton Or Harlesden"},{"icsId":"1000157","id":"490000157V","lat":51.52287,"lon":-0.25926,"name":"North Acton Station","stopLetter":"Z","topMostParentId":"490000157V","towards":"East Acton, Hanger Lane Or Harlesden","zone":"2+3"},{"icsId":"1015032","id":"490015032A","lat":51.52367,"lon":-0.25769,"name":"Wales Farm Road","parentId":"490G000847","stationId":"490G000847","stopLetter":"A","topMostParentId":"490G000847","towards":"Harlesden"},{"icsId":"1004981","id":"490004981N","lat":51.52587,"lon":-0.25525,"name":"Chandos Road","parentId":"490G00004981","stationId":"490G00004981","stopLetter":"->N","topMostParentId":"490G00004981","towards":"Harlesden"},{"icsId":"1012028","id":"490012028N","lat":51.52759,"lon":-0.25254,"name":"Shaftesbury Gardens","parentId":"490G00012028","stationId":"490G00012028","stopLetter":"D","topMostParentId":"490G00012028","towards":"Harlesden"},{"icsId":"1010570","id":"490010569N","lat":51.52864,"lon":-0.25038,"name":"Old Oak Lane / Atlas Road","parentId":"490G00010570","stationId":"490G00010570","stopLetter":"J","topMostParentId":"490G00010570","towards":"Park Royal Or Craven Park"},{"icsId":"1014331","id":"490014331N","lat":51.53033,"lon":-0.24858,"name":"Webb Place","parentId":"490G00014331","stationId":"490G00014331","stopLetter":"K","topMostParentId":"490G00014331","towards":"Craven Park Or Park Royal"},{"icsId":"1000271","id":"490000271L","lat":51.53207,"lon":-0.24712,"name":"Willesden Junction Station","stopLetter":"L","topMostParentId":"490000271L","towards":"Craven Park Or Park Royal","zone":"2+3"},{"icsId":"1003079","id":"490003079R","lat":51.53441,"lon":-0.24808,"name":"Acton Lane","parentId":"490G00003079","stationId":"490G00003079","stopLetter":"R","topMostParentId":"490G00003079","towards":"Park Royal, White City Or Willesden"},{"icsId":"1007803","id":"490007803X","lat":51.53603,"lon":-0.24771,"name":"Harlesden Jubilee Clock","parentId":"490G00007803","stationId":"490G00007803","stopLetter":"X","topMostParentId":"490G00007803","towards":"Wembley Or Willesden"},{"icsId":"1012803","id":"490012803Z","lat":51.539,"lon":-0.25109,"name":"St Mary's Road","parentId":"490G00012803","stationId":"490G00012803","stopLetter":"Z","topMostParentId":"490G00012803","towards":"Stonebridge Or Willesden"},{"icsId":"1007804","id":"490007804N","lat":51.54109,"lon":-0.2544,"name":"Harlesden Police Station","parentId":"490G00007804","stationId":"490G00007804","stopLetter":"F","topMostParentId":"490G00007804","towards":"Willesden"},{"icsId":"1005255","id":"490005255N","lat":51.54291,"lon":-0.25443,"name":"Dixon Way","parentId":"490G00005255","stationId":"490G00005255","stopLetter":"G","topMostParentId":"490G00005255","towards":"Cricklewood"},{"icsId":"1005302","id":"490005257N","lat":51.54546,"lon":-0.25231,"name":"Curzon Crescent","parentId":"490G00005302","stationId":"490G00005302","stopLetter":"H","topMostParentId":"490G00005302","towards":"Cricklewood"},{"icsId":"1005256","id":"490005256N","lat":51.54667,"lon":-0.25134,"name":"Mayo Road","parentId":"490G00005256","stationId":"490G00005256","stopLetter":"J","topMostParentId":"490G00005256","towards":"Cricklewood"},{"icsId":"1006613","id":"490006613N","lat":51.5482,"lon":-0.24834,"name":"Eric Road","parentId":"490G00006613","stationId":"490G00006613","stopLetter":"->N","topMostParentId":"490G00006613","towards":"Cricklewood"},{"icsId":"1014694","id":"490014694E","lat":51.54929,"lon":-0.24648,"name":"Willesden Magistrates Court","parentId":"490G00014694","stationId":"490G00014694","stopLetter":"->E","topMostParentId":"490G00014694","towards":"Cricklewood"},{"icsId":"1003711","id":"490003711E","lat":51.54923,"lon":-0.2431,"name":"Beaconsfield Road","parentId":"490G00003711","stationId":"490G00003711","stopLetter":"WR","topMostParentId":"490G00003711","towards":"Cricklewood"},{"icsId":"1009844","id":"490009844S","lat":51.5488,"lon":-0.24145,"name":"Meyrick Road","parentId":"490G00009844","stationId":"490G00009844","stopLetter":"WT","topMostParentId":"490G00009844","towards":"Cricklewood"},{"icsId":"1014687","id":"490014687E","lat":51.54856,"lon":-0.2382,"name":"Willesden Bus Garage","parentId":"490G00014687","stationId":"490G00014687","stopLetter":"WN","topMostParentId":"490G00014687","towards":"Cricklewood, Kensal Rise Or Kilburn"},{"icsId":"1014088","id":"490014088N","lat":51.54731,"lon":-0.23292,"name":"Villiers Road","parentId":"490G00014088","stationId":"490G00014088","stopLetter":"S","topMostParentId":"490G00014088","towards":"Cricklewood, Kensal Rise Or Kilburn"},{"icsId":"1014691","id":"490014691M","lat":51.54709,"lon":-0.2301,"name":"Willesden Green Library","parentId":"490G00014691","stationId":"490G00014691","stopLetter":"Q","topMostParentId":"490G00014691","towards":"Cricklewood Or Kilburn"},{"icsId":"1014706","id":"490014693C","lat":51.54804,"lon":-0.22335,"name":"Willesden Lane","parentId":"490G00014706","stationId":"490G00014706","stopLetter":"D","topMostParentId":"490G00014706","towards":"Cricklewood"},{"icsId":"1000270","id":"490000270B","lat":51.54888,"lon":-0.22152,"name":"Willesden Green Station","stopLetter":"B","topMostParentId":"490000270B","towards":"Cricklewood","zone":"2+3"},{"icsId":"1009799","id":"490009799N","lat":51.55313,"lon":-0.21809,"name":"Melrose Avenue","parentId":"490G00009799","stationId":"490G00009799","stopLetter":"CA","topMostParentId":"490G00009799","towards":"Brent Cross Or Golders Green"},{"icsId":"1005771","id":"490005771F","lat":51.55594,"lon":-0.21598,"name":"Sheldon Road","parentId":"490G000472","stationId":"490G000472","stopLetter":"CD","topMostParentId":"490G000472","towards":"Brent Cross Or Golders Green"},{"icsId":"1005776","id":"490005776A","lat":51.55739,"lon":-0.21634,"name":"Cricklewood Lane","parentId":"490G000474","stationId":"490G000474","stopLetter":"BP","topMostParentId":"490G000474","towards":"Brent Cross, Neasden Or West Hendon"},{"icsId":"1010015","id":"490010015N","lat":51.55936,"lon":-0.21864,"name":"Mora Road","parentId":"490G00010015","stationId":"490G00010015","stopLetter":"BQ","topMostParentId":"490G00010015","towards":"Brent Cross, Neasden Or West Hendon"},{"icsId":"1015045","id":"490015045BS","lat":51.56153,"lon":-0.22064,"name":"Longley Way","parentId":"490G00015045","stationId":"490G00015045","stopLetter":"BR","topMostParentId":"490G00015045","towards":"Brent Cross, Neasden Or West Hendon"},{"icsId":"1015033","id":"490005772N","lat":51.56298,"lon":-0.22221,"name":"Cricklewood Bus Garage","parentId":"490G00015033","stationId":"490G00015033","stopLetter":"BS","topMostParentId":"490G00015033","towards":"Brent Cross, Neasden Or West Hendon"},{"icsId":"1006096","id":"490006096N","lat":51.56488,"lon":-0.22441,"name":"Dollis Hill Lane","parentId":"490G00006096","stationId":"490G00006096","stopLetter":"SE","topMostParentId":"490G00006096","towards":"Brent Cross Or West Hendon"},{"icsId":"1000442","id":"490008421N","lat":51.56667,"lon":-0.22673,"name":"Brent Cross West Stn  / Edgware Road","parentId":"490G00000442","stationId":"490G00000442","stopLetter":"SF","topMostParentId":"490G00000442","towards":"Brent Cross Or West Hendon"},{"icsId":"1010691","id":"490010691N","lat":51.56787,"lon":-0.22881,"name":"Oxgate Lane","parentId":"490G00010691","stationId":"490G00010691","stopLetter":"SH","topMostParentId":"490G00010691","towards":"Brent Cross Or West Hendon"},{"icsId":"1012589","id":"490012589N","lat":51.57043,"lon":-0.23163,"name":"Staples Corner","parentId":"490G00012589","stationId":"490G00012589","stopLetter":"SJ","topMostParentId":"490G00012589","towards":"Brent Cross Or West Hendon"},{"icsId":"1006651","id":"490006651M","lat":51.57347,"lon":-0.22473,"name":"Etheridge Road","parentId":"490G00006651","stationId":"490G00006651","stopLetter":"M","topMostParentId":"490G00006651","towards":"Finchley Or Brent Cross Shopping Centre"},{"icsId":"1004282","id":"490004282A","lat":51.57565,"lon":-0.22352,"name":"Brent Cross Shopping Centre","parentId":"490G00004282","stationId":"490G00004282","stopLetter":"A","topMostParentId":"490G00004282"}]}]}