{"direction":"outbound","lineId":"n31","lineName":"N31","mode":"bus","stopPointSequences":[{"stopPoint":[{"icsId":"1003698","id":"490003698W","lat":51.53826,"lon":-0.14043,"name":"Bayham Street","parentId":"490G000399","stationId":"490G000399","stopLetter":"U","topMostParentId":"490G000399","towards":"Swiss Cottage"},{"icsId":"1019169","id":"490011057L","lat":51.53567,"lon":-0.13816,"name":"Plender Street","parentId":"490G00019169","stationId":"490G00019169","stopLetter":"L","topMostParentId":"490G00019169"},{"icsId":"1004714","id":"490004714J","lat":51.53651,"lon":-0.14057,"name":"Camden High Street","parentId":"490G000437","stationId":"490G000437","stopLetter":"J","topMostParentId":"490G000437","towards":"Hampstead Heath Or Finsbury Park"},{"icsId":"1000036","id":"490015041X","lat":51.53843,"lon":-0.14234,"name":"Camden Town Station","stopLetter":"X","topMostParentId":"490015041X","towards":"Chalk Farm Or Hampstead Heath","zone":"2"},{"icsId":"1007876","id":"490007876O","lat":51.54229,"lon":-0.14693,"name":"Hartland Road / Camden Market","parentId":"490G00007876","stationId":"490G00007876","stopLetter":"CQ","topMostParentId":"490G00007876","towards":"Swiss Cottage Or Hampstead Heath"},{"icsId":"1013538","id":"490013538CF","lat":51.54333,"lon":-0.15123,"name":"The Roundhouse","parentId":"490G00013538","stationId":"490G00013538","stopLetter":"CF","topMostParentId":"490G00013538","towards":"Hampstead Heath Or Swiss Cottage"},{"icsId":"1000043","id":"490000043CB","lat":51.54388,"lon":-0.15422,"name":"Chalk Farm Station","stopLetter":"CB","topMostParentId":"490000043CB","towards":"Swiss Cottage","zone":"2"},{"icsId":"1011186","id":"490015529W","lat":51.54347,"lon":-0.16313,"name":"Primrose Hill Road","parentId":"490G00011186","stationId":"490G00011186","stopLetter":"U","topMostParentId":"490G00011186","towards":"Swiss Cottage"},{"icsId":"1013582","id":"490013582W","lat":51.54321,"lon":-0.16531,"name":"Elsworthy Rise","parentId":"490G00013582","stationId":"490G00013582","stopLetter":"V","topMostParentId":"490G00013582","towards":"Swiss Cottage"},{"icsId":"1009423","id":"490009423W","lat":51.54277,"lon":-0.16879,"name":"Lower Merton Rise","parentId":"490G00009423","stationId":"490G00009423","stopLetter":"W","topMostParentId":"490G00009423","towards":"Kilburn Or West Hampstead"},{"icsId":"1003495","id":"490003495H","lat":51.54188,"lon":-0.17223,"name":"Avenue Road / Swiss Cottage Library","parentId":"490G000395","stationId":"490G000395","stopLetter":"H","topMostParentId":"490G000395","towards":"Kilburn Or West Hampstead"},{"icsId":"1000230","id":"490015162L","lat":51.54315,"lon":-0.17525,"name":"Swiss Cottage Stn  /  Finchley Road","stopLetter":"L","topMostParentId":"490015162L","towards":"Golders Green, Kilburn High Road Or Brent Cross","zone":"2"},{"icsId":"1006703","id":"490006703P","lat":51.54487,"lon":-0.17802,"name":"Fairfax Road","parentId":"490G00006703","stationId":"490G00006703","stopLetter":"P","topMostParentId":"490G00006703","towards":"Kilburn"},{"icsId":"1009372","id":"490009371W","lat":51.54127,"lon":-0.18123,"name":"South Hampstead Station  / Loudoun Road","parentId":"490G00009372","stationId":"490G00009372","stopLetter":"L","topMostParentId":"490G00009372","towards":"Kilburn"},{"icsId":"1003027","id":"490003027W","lat":51.53997,"lon":-0.18668,"name":"Abbey Road","parentId":"490G00003027","stationId":"490G00003027","stopLetter":"M","topMostParentId":"490G00003027","towards":"Notting Hill Gate"},{"icsId":"1002265","id":"490003027SW","lat":51.53911,"lon":-0.18902,"name":"Priory Terrace","parentId":"490G00002265","stationId":"490G00002265","stopLetter":"N","topMostParentId":"490G00002265","towards":"Notting Hill Gate"},{"icsId":"1001170","id":"490001170U","lat":51.5377,"lon":-0.19177,"name":"Kilburn High Road Station","stopLetter":"U","topMostParentId":"490001170U","towards":"Notting Hill Gate"},{"icsId":"1015243","id":"490015243Y","lat":51.53653,"lon":-0.19237,"name":"Kilburn High Rd Stn  / Cambridge Avenue","parentId":"490G000885","stationId":"490G000885","stopLetter":"Y","topMostParentId":"490G000885","towards":"Notting Hill Gate Or Queens Park Station"},{"icsId":"1000127","id":"490000127KB","lat":51.53469,"lon":-0.1937,"name":"Kilburn Park Station","stopLetter":"KB","topMostParentId":"490000127KB","towards":"Notting Hill Gate Or Queens Park Station","zone":"2"},{"icsId":"1012630","id":"490012626S","lat":51.53271,"lon":-0.19248,"name":"Carlton Vale","stopLetter":"MB","topMostParentId":"490012626S","towards":"Ladbroke Grove Or Notting Hill Gate"},{"icsId":"1004444","id":"490004444S","lat":51.53022,"lon":-0.19439,"name":"Cambridge Road","parentId":"490G00004444","stationId":"490G00004444","stopLetter":"MC","topMostParentId":"490G00004444","towards":"Notting Hill Gate"},{"icsId":"1005189","id":"490005186S1","lat":51.52798,"lon":-0.19624,"name":"Shirland Road","parentId":"490G00005189","stationId":"490G00005189","stopLetter":"MD","topMostParentId":"490G00005189","towards":"Westbourne Park"},{"icsId":"1013297","id":"490013297S2","lat":51.52744,"lon":-0.19715,"name":"Chippenham Road / Shirland Road","parentId":"490G00013297","stationId":"490G00013297","stopLetter":"MM","topMostParentId":"490G00013297","towards":"Notting Hill Gate Or Paddington"},{"icsId":"1006473","id":"490006473W","lat":51.52505,"lon":-0.19806,"name":"Elgin Avenue / Chippenham Road","parentId":"490G00006473","stationId":"490G00006473","stopLetter":"MN","topMostParentId":"490G00006473","towards":"Notting Hill Gate Or Paddington"},{"icsId":"1019459","id":"490007861W2","lat":51.5245,"lon":-0.2004,"name":"Harrow Road","parentId":"490G00019459","stationId":"490G00019459","stopLetter":"F","topMostParentId":"490G00019459","towards":"Paddington Or Notting Hill Gate"},{"icsId":"1018986","id":"490007861K","lat":51.52312,"lon":-0.20159,"name":"Great Western Road / Harrow Road","parentId":"490G00018986","stationId":"490G00018986","stopLetter":"K","topMostParentId":"490G00018986","towards":"Notting Hill Gate"},{"icsId":"1000259","id":"490000259B","lat":51.52028,"lon":-0.19994,"name":"Westbourne Park Station","stopLetter":"B","topMostParentId":"490000259B","towards":"Notting Hill Gate","zone":"2"},{"icsId":"1007420","id":"490008697N","lat":51.51892,"lon":-0.19753,"name":"Shrewsbury Road / Brunel Estate","parentId":"490G00007420","stationId":"490G00007420","stopLetter":"N","topMostParentId":"490G00007420","towards":"Notting Hill Gate Or Paddington"},{"icsId":"1012948","id":"490012948S","lat":51.51798,"lon":-0.19594,"name":"St Stephens Gardens","parentId":"490G00012948","stationId":"490G00012948","stopLetter":"->S","topMostParentId":"490G00012948","towards":"Notting Hill Gate Or Paddington"},{"icsId":"1014402","id":"490014402Z","lat":51.5155,"lon":-0.19516,"name":"Westbourne Grove","parentId":"490G00014402","stationId":"490G00014402","stopLetter":"Z","topMostParentId":"490G00014402","towards":"Notting Hill Gate"},{"icsId":"1005089","id":"490005089D","lat":51.51458,"lon":-0.19551,"name":"Pembridge Villas","parentId":"490G00005089","stationId":"490G00005089","stopLetter":"PW","topMostParentId":"490G00005089","towards":"Holland Park Or Kensington High Street"},{"icsId":"1005085","id":"490005085S","lat":51.51283,"lon":-0.19743,"name":"Chepstow Crescent","parentId":"490G00005085","stationId":"490G00005085","stopLetter":"PX","topMostParentId":"490G00005085","towards":"Shepherd's Bush Or Kensington High Street"},{"icsId":"1000167","id":"490015039C","lat":51.50926,"lon":-0.19708,"name":"Notting Hill Gate Station","stopLetter":"C","topMostParentId":"490015039C","towards":"Kensington High Street","zone":"1+2"},{"icsId":"1019161","id":"490000167K","lat":51.50909,"lon":-0.19397,"name":"Palace Gardens Terr / Notting Hill Gte","parentId":"490G00019161","stationId":"490G00019161","stopLetter":"K","topMostParentId":"490G00019161","towards":"Kensington High Street"},{"icsId":"1012055","id":"490012055S","lat":51.50687,"lon":-0.19452,"name":"Sheffield Terrace","parentId":"490G00012055","stationId":"490G00012055","stopLetter":"P","topMostParentId":"490G00012055","towards":"Knightsbridge, Earls Court Or Olympia"},{"icsId":"1010536","id":"490010536K","lat":51.50367,"lon":-0.19187,"name":"York House Place / Kensington High St","parentId":"490G00010536","stationId":"490G00010536","stopLetter":"K","topMostParentId":"490G00010536","towards":"Knightsbridge, Earls Court Or Olympia"},{"icsId":"1000110","id":"490000110E","lat":51.50132,"lon":-0.19223,"name":"High Street Kensington Station","stopLetter":"E","topMostParentId":"490000110E","towards":"Chelsea, Fulham Or Shepherd's Bush","zone":"1"},{"icsId":"1010984","id":"490010984T","lat":51.49981,"lon":-0.19649,"name":"Phillimore Gardens","parentId":"490G00010984","stationId":"490G00010984","stopLetter":"T","topMostParentId":"490G00010984","towards":"Hammersmith, Earls Court Or Fulham"},{"icsId":"1005529","id":"490005528V","lat":51.49861,"lon":-0.19828,"name":"Earls Court Road / Pembroke Place","parentId":"490G00005529","stationId":"490G00005529","stopLetter":"V","topMostParentId":"490G00005529","towards":"Chelsea Or South Kensington"},{"icsId":"1010898","id":"490011943S","lat":51.49648,"lon":-0.19694,"name":"Pembroke Road","parentId":"490G00010898","stationId":"490G00010898","stopLetter":"L","topMostParentId":"490G00010898","towards":"Chelsea Or South Kensington"},{"icsId":"1019786","id":"490006305H","lat":51.49515,"lon":-0.19584,"name":"Cromwell Road","parentId":"490G00019786","stationId":"490G00019786","stopLetter":"H","topMostParentId":"490G00019786","towards":"Chelsea Or South Kensington"},{"icsId":"1010187","id":"490010187K","lat":51.49331,"lon":-0.19445,"name":"Nevern Place","parentId":"490G000671","stationId":"490G000671","stopLetter":"K","topMostParentId":"490G000671","towards":"Chelsea, Putney Or Victoria"},{"icsId":"1000064","id":"490000064A","lat":51.49179,"lon":-0.19228,"name":"Earls Court Station","stopLetter":"A","topMostParentId":"490000064A","towards":"Chelsea, South Kensington Or Putney","zone":"1+2"},{"icsId":"1015228","id":"490015228L","lat":51.4902,"lon":-0.19074,"name":"Earls Court Road / Old Brompton Road","parentId":"490G00015228","stationId":"490G00015228","stopLetter":"L","topMostParentId":"490G00015228","towards":"Chelsea, Putney Or South Kensington"},{"icsId":"1011479","id":"490011479S","lat":51.48732,"lon":-0.18811,"name":"Redcliffe Square","parentId":"490G00011479","stationId":"490G00011479","stopLetter":"HU","topMostParentId":"490G00011479","towards":"Chelsea Or Sands End"},{"icsId":"1019758","id":"490007055HK","lat":51.48445,"lon":-0.18466,"name":"Fulham Road / Chelsea & Westminster Hosp","parentId":"490G00019758","stationId":"490G00019758","stopLetter":"HK","topMostParentId":"490G00019758","towards":"Chelsea Or Sands End"},{"icsId":"1015066","id":"490015066S","lat":51.48236,"lon":-0.18217,"name":"Edith Grove / King's Road","parentId":"490G00015066","stationId":"490G00015066","stopLetter":"HN","topMostParentId":"490G00015066","towards":"Chelsea Harbour Or Worlds End"},{"icsId":"1005086","id":"490005076E","lat":51.48244,"lon":-0.17915,"name":"Hobury Street / Worlds End","parentId":"490G00005086","stationId":"490G00005086","stopLetter":"QH","topMostParentId":"490G00005086","towards":"Sloane Square"},{"icsId":"1019014","id":"490015145S","lat":51.48387,"lon":-0.17508,"name":"Beaufort Street / King's Road","parentId":"490G00019014","stationId":"490G00019014","stopLetter":"QL","topMostParentId":"490G00019014","towards":"Clapham Junction"},{"icsId":"1005152","id":"490005152S","lat":51.48274,"lon":-0.17394,"name":"Cheyne Walk","parentId":"490G00005152","stationId":"490G00005152","stopLetter":"BA","topMostParentId":"490G00005152","towards":"Clapham Junction"},{"icsId":"1010771","id":"490010771S","lat":51.47861,"lon":-0.17015,"name":"Parkgate Road","parentId":"490G00010771","stationId":"490G00010771","stopLetter":"BE","topMostParentId":"490G00010771","towards":"Clapham Junction"},{"icsId":"1010979","id":"490010979S","lat":51.47592,"lon":-0.16759,"name":"Petworth Street","parentId":"490G00010979","stationId":"490G00010979","stopLetter":"BF","topMostParentId":"490G00010979","towards":"Clapham Junction"},{"icsId":"1013443","id":"490013443W1","lat":51.47241,"lon":-0.16416,"name":"The Latchmere","parentId":"490G00013443","stationId":"490G00013443","stopLetter":"LB","topMostParentId":"490G00013443","towards":"Clapham Junction Or Wandsworth"},{"icsId":"1004568","id":"490004568W","lat":51.4715,"lon":-0.16784,"name":"Bullen Street","parentId":"490G00004568","stationId":"490G00004568","stopLetter":"LD","topMostParentId":"490G00004568","towards":"Clapham Junction Or Wandsworth"},{"icsId":"1003687","id":"490003687W2","lat":51.47043,"lon":-0.17059,"name":"Battersea High Street","parentId":"490G00003687","stationId":"490G00003687","stopLetter":"LE","topMostParentId":"490G00003687","towards":"Clapham Junction Or Wandsworth"},{"icsId":"1006722","id":"490006722S","lat":51.46805,"lon":-0.17061,"name":"Falcon Grove","parentId":"490G00006722","stationId":"490G00006722","stopLetter":"->S","topMostParentId":"490G00006722","towards":"Clapham Common Or Wandsworth Common"},{"icsId":"1009849","id":"490009843G","lat":51.46581,"lon":-0.1689,"name":"Clapham Junction Station  / Falcon Road","parentId":"490G00009849","stationId":"490G00009849","stopLetter":"G","topMostParentId":"490G00009849","towards":"Clapham Common, Tooting Bec Or Wandsworth"},{"icsId":"1001069","id":"490015060L","lat":51.4631,"lon":-0.1698,"name":"Clapham Junction Station","stopLetter":"L","topMostParentId":"490015060L","towards":"Wandsworth Bridge"}]}]}