{"direction":"outbound","lineId":"n32","lineName":"N32","mode":"bus","stopPointSequences":[{"stopPoint":[{"icsId":"1000070","id":"490000070D","lat":51.61295,"lon":-0.27464,"name":"Edgware Station","stopLetter":"D","topMostParentId":"490000070D","towards":"Burnt Oak","zone":"5"},{"icsId":"1014573","id":"490014573N","lat":51.61018,"lon":-0.27848,"name":"Whitchurch Lane","parentId":"490G00014573","stationId":"490G00014573","stopLetter":"N","topMostParentId":"490G00014573","towards":"Burnt Oak"},{"icsId":"1006004","id":"490006004HD","lat":51.60772,"lon":-0.2756,"name":"Deansbrook Road","parentId":"490G00006004","stationId":"490G00006004","stopLetter":"HD","topMostParentId":"490G00006004","towards":"Colindale, Mill Hill Or Queensbury"},{"icsId":"1006425","id":"490006425HA","lat":51.60517,"lon":-0.27311,"name":"Edgware Community Hospital","parentId":"490G00006425","stationId":"490G00006425","stopLetter":"HA","topMostParentId":"490G00006425","towards":"Colindale Or Mill Hill"},{"icsId":"1004617","id":"490004617A","lat":51.60367,"lon":-0.27118,"name":"North Road","parentId":"490G000433","stationId":"490G000433","stopLetter":"A","topMostParentId":"490G000433","towards":"Colindale Or Mill Hill"},{"icsId":"1004618","id":"490013255D","lat":51.60118,"lon":-0.26791,"name":"Burnt Oak Broadway","parentId":"490G000434","stationId":"490G000434","stopLetter":"D","topMostParentId":"490G000434","towards":"Colindale"},{"icsId":"1013255","id":"490013255H","lat":51.59928,"lon":-0.2658,"name":"Watling Avenue","parentId":"490G00013255","stationId":"490G00013255","stopLetter":"H","topMostParentId":"490G00013255","towards":"Colindale"},{"icsId":"1010006","id":"490010006S","lat":51.59799,"lon":-0.2644,"name":"Montrose Avenue / Unitas Youth Zone","parentId":"490G00010006","stationId":"490G00010006","stopLetter":"J","topMostParentId":"490G00010006","towards":"Brent Cross Or Cricklewood"},{"icsId":"1004791","id":"490004791S","lat":51.59589,"lon":-0.2617,"name":"Carlisle Road","parentId":"490G00004791","stationId":"490G00004791","stopLetter":"CX","topMostParentId":"490G00004791","towards":"Brent Cross Or Cricklewood"},{"icsId":"1015016","id":"490014985S","lat":51.59362,"lon":-0.25907,"name":"Annesley Avenue","parentId":"490G00015016","stationId":"490G00015016","stopLetter":"CS","topMostParentId":"490G00015016","towards":"Brent Cross, Cricklewood Or Grahame Park"},{"icsId":"1005481","id":"490005481CE","lat":51.59162,"lon":-0.25669,"name":"Colindale Avenue","parentId":"490G00005481","stationId":"490G00005481","stopLetter":"CE","topMostParentId":"490G00005481","towards":"Brent Cross, Cricklewood Or Kingsbury"},{"icsId":"1005483","id":"490005483CF","lat":51.59019,"lon":-0.25477,"name":"Colindeep Lane","parentId":"490G00005483","stationId":"490G00005483","stopLetter":"CF","topMostParentId":"490G00005483","towards":"Brent Cross, Cricklewood Or Kingsbury"},{"icsId":"1012043","id":"490012043CG","lat":51.58781,"lon":-0.25171,"name":"Sheaveshill Avenue","parentId":"490G00012043","stationId":"490G00012043","stopLetter":"CG","topMostParentId":"490G00012043","towards":"Brent Cross Or Cricklewood"},{"icsId":"1008762","id":"490008762S","lat":51.58473,"lon":-0.24851,"name":"Kingsbury Road","parentId":"490G00008762","stationId":"490G00008762","stopLetter":"HA","topMostParentId":"490G00008762","towards":"Brent Cross Or Cricklewood"},{"icsId":"1014471","id":"490014471S","lat":51.58148,"lon":-0.24439,"name":"Hendon Magistrates Court","parentId":"490G00014471","stationId":"490G00014471","stopLetter":"HB","topMostParentId":"490G00014471","towards":"Brent Cross, Cricklewood Or Golders Green"},{"icsId":"1014561","id":"490014561S","lat":51.57919,"lon":-0.24133,"name":"West Hendon Broadway / Herbert Road","parentId":"490G00014561","stationId":"490G00014561","stopLetter":"HC","topMostParentId":"490G00014561","towards":"Brent Cross, Cricklewood Or Golders Green"},{"icsId":"1010800","id":"490010800S","lat":51.57677,"lon":-0.23872,"name":"Park Road","parentId":"490G00010800","stationId":"490G00010800","stopLetter":"HH","topMostParentId":"490G00010800","towards":"Brent Cross Or Cricklewood"},{"icsId":"1013059","id":"490013059S","lat":51.57499,"lon":-0.23649,"name":"Sutherland House","parentId":"490G00013059","stationId":"490G00013059","stopLetter":"HJ","topMostParentId":"490G00013059","towards":"Brent Cross Or Cricklewood"},{"icsId":"1012589","id":"490012589S","lat":51.5717,"lon":-0.23276,"name":"Staples Corner","parentId":"490G00012589","stationId":"490G00012589","stopLetter":"SA","topMostParentId":"490G00012589","towards":"Brent Cross Or Cricklewood"},{"icsId":"1012590","id":"490012590S","lat":51.5691,"lon":-0.22963,"name":"Staples Corner Retail Park","parentId":"490G00012590","stationId":"490G00012590","stopLetter":"SB","topMostParentId":"490G00012590","towards":"Kilburn Or Willesden"},{"icsId":"1008421","id":"490008421S","lat":51.56638,"lon":-0.22604,"name":"Humber Road","parentId":"490G00008421","stationId":"490G00008421","stopLetter":"SC","topMostParentId":"490G00008421","towards":"Kilburn Or Willesden"},{"icsId":"1000945","id":"490006096S","lat":51.56361,"lon":-0.22262,"name":"Gladstone Park Gardens","parentId":"490G000254","stationId":"490G000254","stopLetter":"SD","topMostParentId":"490G000254","towards":"Golders Green, Kilburn Or Willesden"},{"icsId":"1015033","id":"490015033S","lat":51.56217,"lon":-0.22101,"name":"Cricklewood Bus Garage","parentId":"490G00015033","stationId":"490G00015033","stopLetter":"BA","topMostParentId":"490G00015033","towards":"Golders Green, Kilburn Or Willesden"},{"icsId":"1010015","id":"490010015S1","lat":51.55961,"lon":-0.21865,"name":"Mora Road","parentId":"490G00010015","stationId":"490G00010015","stopLetter":"BC","topMostParentId":"490G00010015","towards":"Kilburn"},{"icsId":"1005776","id":"490005776B","lat":51.55729,"lon":-0.21587,"name":"Cricklewood Lane","parentId":"490G000474","stationId":"490G000474","stopLetter":"BD","topMostParentId":"490G000474","towards":"Golders Green, Kilburn Or Willesden"},{"icsId":"1005770","id":"490005770H","lat":51.55602,"lon":-0.21437,"name":"Cricklewood Broadway / the Crown","parentId":"490G000471","stationId":"490G000471","stopLetter":"BE","topMostParentId":"490G000471","towards":"Kilburn"},{"icsId":"1014140","id":"490014140S1","lat":51.55396,"lon":-0.21213,"name":"Skardu Road","parentId":"490G00014140","stationId":"490G00014140","stopLetter":"BF","topMostParentId":"490G00014140","towards":"Ladbroke Grove, Maida Vale Or Baker Street"},{"icsId":"1009940","id":"490014140S","lat":51.55174,"lon":-0.20925,"name":"Minster Road","parentId":"490G00009940","stationId":"490G00009940","stopLetter":"BH","topMostParentId":"490G00009940","towards":"Ladbroke Grove, Maida Vale Or Baker Street"},{"icsId":"1009909","id":"490015795S","lat":51.55084,"lon":-0.208,"name":"Mill Lane","parentId":"490G00009909","stationId":"490G00009909","stopLetter":"BJ","topMostParentId":"490G00009909","towards":"Ladbroke Grove, Maida Vale Or Baker Street"},{"icsId":"1008768","id":"490009909S","lat":51.54886,"lon":-0.20564,"name":"St Cuthbert's Road","parentId":"490G00008768","stationId":"490G00008768","stopLetter":"BG","topMostParentId":"490G00008768","towards":"Ladbroke Grove, Maida Vale Or Baker Street"},{"icsId":"1000126","id":"490000126B","lat":51.54742,"lon":-0.20412,"name":"Kilburn Station","stopLetter":"B","topMostParentId":"490000126B","towards":"Ladbroke Grove, Maida Vale Or Baker Street","zone":"2"},{"icsId":"1001038","id":"490001038D","lat":51.54535,"lon":-0.20191,"name":"Brondesbury Station","stopLetter":"D","topMostParentId":"490001038D","towards":"Ladbroke Grove, Maida Vale Or Baker Street"},{"icsId":"1004565","id":"490004565F","lat":51.5436,"lon":-0.19995,"name":"Buckley Road","parentId":"490G00004565","stationId":"490G00004565","stopLetter":"E","topMostParentId":"490G00004565","towards":"Ladbroke Grove, Maida Vale Or Baker Street"},{"icsId":"1008713","id":"490008713H","lat":51.541,"lon":-0.19652,"name":"Kingsgate Place","parentId":"490G00008713","stationId":"490G00008713","stopLetter":"H","topMostParentId":"490G00008713","towards":"Ladbroke Grove, Maida Vale Or Baker Street"},{"icsId":"1011375","id":"490011375N","lat":51.53935,"lon":-0.19492,"name":"Quex Road","parentId":"490G00011375","stationId":"490G00011375","stopLetter":"N","topMostParentId":"490G00011375","towards":"Maida Vale Or Ladbroke Grove"},{"icsId":"1001170","id":"490015243W","lat":51.53645,"lon":-0.19151,"name":"Kilburn High Road Station","stopLetter":"W","topMostParentId":"490015243W","towards":"Edgware Road"},{"icsId":"1008712","id":"490004798S","lat":51.5343,"lon":-0.18836,"name":"Kilburn Park Road","parentId":"490G00008712","stationId":"490G00008712","stopLetter":"KD","topMostParentId":"490G00008712","towards":"Marble Arch Or Paddington Station"},{"icsId":"1004805","id":"490004805S2","lat":51.53309,"lon":-0.18697,"name":"Carlton Vale","parentId":"490G00004805","stationId":"490G00004805","stopLetter":"KE","topMostParentId":"490G00004805","towards":"Marble Arch Or Paddington Station"},{"icsId":"1006475","id":"490006475B","lat":51.53166,"lon":-0.18527,"name":"Elgin Avenue / Maida Vale Station","parentId":"490G000500","stationId":"490G000500","stopLetter":"B","topMostParentId":"490G000500","towards":"Marble Arch Or Paddington Station"},{"icsId":"1015334","id":"4900015334S","lat":51.52884,"lon":-0.18223,"name":"Hall Road","parentId":"490G00015334","stationId":"490G00015334","stopLetter":"J","topMostParentId":"490G00015334","towards":"Marble Arch Or Paddington Station"},{"icsId":"1008926","id":"490007679R","lat":51.52797,"lon":-0.18076,"name":"Sutherland Avenue","parentId":"490G00008926","stationId":"490G00008926","stopLetter":"R","topMostParentId":"490G00008926","towards":"Marble Arch, Maida Hill Or Paddington"},{"icsId":"1012747","id":"490012747E","lat":51.52644,"lon":-0.17886,"name":"St John's Wood Road","parentId":"490G00012747","stationId":"490G00012747","stopLetter":"E","topMostParentId":"490G00012747","towards":"Marble Arch Or Paddington Station"},{"icsId":"1010621","id":"490010621S","lat":51.52342,"lon":-0.17493,"name":"Orchardson Street","parentId":"490G00010621","stationId":"490G00010621","stopLetter":"EA","topMostParentId":"490G00010621","towards":"Marble Arch Or Paddington Station"},{"icsId":"1015285","id":"490015285S","lat":51.5224,"lon":-0.17338,"name":"Church Street Market","parentId":"490G00015285","stationId":"490G00015285","stopLetter":"EB","topMostParentId":"490G00015285","towards":"Marble Arch Or Paddington"},{"icsId":"1000071","id":"490006428D","lat":51.52062,"lon":-0.17087,"name":"Edgware Road Station","stopLetter":"EC","topMostParentId":"490006428D","towards":"Hyde Park Corner Or Oxford Circus","zone":"1"},{"icsId":"1013046","id":"490013046M","lat":51.51889,"lon":-0.16842,"name":"Edgware Road / Praed Street","parentId":"490G000776","stationId":"490G000776","stopLetter":"ED","topMostParentId":"490G000776","towards":"Hyde Park Corner"},{"icsId":"1007167","id":"490007167V","lat":51.51631,"lon":-0.16466,"name":"George Street","parentId":"490G00007167","stationId":"490G00007167","stopLetter":"EH","topMostParentId":"490G00007167","towards":"Knightsbridge, Oxford Circus Or Victoria"},{"icsId":"1008450","id":"490000144H","lat":51.51352,"lon":-0.16029,"name":"Marble Arch Station  / Edgware Road","parentId":"490G00008450","stationId":"490G00008450","stopLetter":"H","topMostParentId":"490G00008450","towards":"Hyde Park Corner Or Oxford Circus"},{"icsId":"1000399","id":"490000144R","lat":51.51231,"lon":-0.15774,"name":"Marble Arch Station  / Park Lane","parentId":"490G00000399","stationId":"490G00000399","stopLetter":"R","topMostParentId":"490G00000399","towards":"Knightsbridge, Piccadilly Or Victoria"},{"icsId":"1006111","id":"490006111S1","lat":51.50842,"lon":-0.1541,"name":"Dorchester Hotel","parentId":"490G00006111","stationId":"490G00006111","stopLetter":"S","topMostParentId":"490G00006111","towards":"Knightsbridge, Piccadilly Or Victoria"},{"icsId":"1009277","id":"490009277B","lat":51.50537,"lon":-0.15089,"name":"London Hilton Hotel","parentId":"490G00009277","stationId":"490G00009277","stopLetter":"B","topMostParentId":"490G00009277","towards":"Piccadilly Circus Or Victoria"},{"icsId":"1000119","id":"490000119F","lat":51.50209,"lon":-0.15068,"name":"Hyde Park Corner","stopLetter":"F","topMostParentId":"490000119F","towards":"Victoria","zone":"1"},{"icsId":"1014728","id":"490014728S","lat":51.49928,"lon":-0.14787,"name":"Wilton Street","parentId":"490G00014728","stationId":"490G00014728","stopLetter":"S","topMostParentId":"490G00014728","towards":"Vauxhall Or Parliament Square"},{"icsId":"1000720","id":"490004555P","lat":51.49733,"lon":-0.14439,"name":"Buckingham Palace Rd / Bressenden Place","parentId":"490G000130","stationId":"490G000130","stopLetter":"P","topMostParentId":"490G000130","towards":"Victoria Bus Station"},{"icsId":"1000248","id":"490002139ZZ","lat":51.49628,"lon":-0.14413,"name":"Victoria Station","stopLetter":"E","topMostParentId":"490002139ZZ","towards":"Vauxhall","zone":"1"}]}]}