{"direction":"outbound","lineId":"n5","lineName":"N5","mode":"bus","stopPointSequences":[{"stopPoint":[{"icsId":"1000070","id":"490000070D","lat":51.61295,"lon":-0.27464,"name":"Edgware Station","stopLetter":"D","topMostParentId":"490000070D","towards":"Burnt Oak","zone":"5"},{"icsId":"1012773","id":"490012773L","lat":51.61148,"lon":-0.27812,"name":"St Margarets Church","parentId":"490G00012773","stationId":"490G00012773","stopLetter":"L","topMostParentId":"490G00012773","towards":"Canons Park Or Stanmore"},{"icsId":"1014573","id":"490014573N","lat":51.61018,"lon":-0.27848,"name":"Whitchurch Lane","parentId":"490G00014573","stationId":"490G00014573","stopLetter":"N","topMostParentId":"490G00014573","towards":"Burnt Oak"},{"icsId":"1006004","id":"490006004HD","lat":51.60772,"lon":-0.2756,"name":"Deansbrook Road","parentId":"490G00006004","stationId":"490G00006004","stopLetter":"HD","topMostParentId":"490G00006004","towards":"Colindale, Mill Hill Or Queensbury"},{"icsId":"1006425","id":"490006425HA","lat":51.60517,"lon":-0.27311,"name":"Edgware Community Hospital","parentId":"490G00006425","stationId":"490G00006425","stopLetter":"HA","topMostParentId":"490G00006425","towards":"Colindale Or Mill Hill"},{"icsId":"1004617","id":"490004617A","lat":51.60367,"lon":-0.27118,"name":"North Road","parentId":"490G000433","stationId":"490G000433","stopLetter":"A","topMostParentId":"490G000433","towards":"Colindale Or Mill Hill"},{"icsId":"1013255","id":"490014307L","lat":51.60128,"lon":-0.26636,"name":"Watling Avenue","parentId":"490G00013255","stationId":"490G00013255","stopLetter":"L","topMostParentId":"490G00013255","towards":"Grahame Park Or Deansbrook Road"},{"icsId":"1000034","id":"490000034N","lat":51.60257,"lon":-0.26404,"name":"Burnt Oak Station","stopLetter":"N","topMostParentId":"490000034N","towards":"Grahame Park , Colindale Or Mill Hill Broadway #","zone":"4"},{"icsId":"1006942","id":"490007607E","lat":51.60434,"lon":-0.25993,"name":"Gunter Grove","parentId":"490G00006942","stationId":"490G00006942","stopLetter":"U","topMostParentId":"490G00006942","towards":"Grahame Park Or Mill Hill"},{"icsId":"1005759","id":"490005753S","lat":51.60508,"lon":-0.25648,"name":"Cressingham Road","parentId":"490G00005759","stationId":"490G00005759","stopLetter":"QX","topMostParentId":"490G00005759","towards":"Brent Cross Or Colindale"},{"icsId":"1010719","id":"490010719E","lat":51.60211,"lon":-0.25438,"name":"Pageant Avenue","parentId":"490G00010719","stationId":"490G00010719","stopLetter":"QB","topMostParentId":"490G00010719","towards":"Brent Cross Or Colindale"},{"icsId":"1010315","id":"490010315E","lat":51.60121,"lon":-0.25144,"name":"North Acre","parentId":"490G00010315","stationId":"490G00010315","stopLetter":"QC","topMostParentId":"490G00010315","towards":"Brent Cross Or Colindale"},{"icsId":"1011298","id":"490011298W2","lat":51.60161,"lon":-0.24574,"name":"Quakers Course","parentId":"490G00011298","stationId":"490G00011298","stopLetter":"QD","topMostParentId":"490G00011298","towards":"Edgware Or Mill Hill"},{"icsId":"1007070","id":"490007070S","lat":51.59731,"lon":-0.24533,"name":"Colindale Library","parentId":"490G00007070","stationId":"490G00007070","stopLetter":"QH","topMostParentId":"490G00007070","towards":"Brent Cross, Colindale Or Mill Hill"},{"icsId":"1000054","id":"490000054CA","lat":51.59565,"lon":-0.24883,"name":"Colindale Station","stopLetter":"CA","topMostParentId":"490000054CA","towards":"Kingsbury Or Colindale Asda","zone":"4"},{"icsId":"1003132","id":"490003132CC","lat":51.5938,"lon":-0.25291,"name":"Ajax Avenue","parentId":"490G00003132","stationId":"490G00003132","stopLetter":"CC","topMostParentId":"490G00003132","towards":"Kingbury Or Colindale Asda"},{"icsId":"1005481","id":"490005481CE","lat":51.59162,"lon":-0.25669,"name":"Colindale Avenue","parentId":"490G00005481","stationId":"490G00005481","stopLetter":"CE","topMostParentId":"490G00005481","towards":"Brent Cross, Cricklewood Or Kingsbury"},{"icsId":"1005483","id":"490005483CF","lat":51.59019,"lon":-0.25477,"name":"Colindeep Lane","parentId":"490G00005483","stationId":"490G00005483","stopLetter":"CF","topMostParentId":"490G00005483","towards":"Brent Cross, Cricklewood Or Kingsbury"},{"icsId":"1012043","id":"490012043CG","lat":51.58781,"lon":-0.25171,"name":"Sheaveshill Avenue","parentId":"490G00012043","stationId":"490G00012043","stopLetter":"CG","topMostParentId":"490G00012043","towards":"Brent Cross Or Cricklewood"},{"icsId":"1008762","id":"490008762S","lat":51.58473,"lon":-0.24851,"name":"Kingsbury Road","parentId":"490G00008762","stationId":"490G00008762","stopLetter":"HA","topMostParentId":"490G00008762","towards":"Brent Cross Or Cricklewood"},{"icsId":"1014471","id":"490014471S","lat":51.58148,"lon":-0.24439,"name":"Hendon Magistrates Court","parentId":"490G00014471","stationId":"490G00014471","stopLetter":"HB","topMostParentId":"490G00014471","towards":"Brent Cross, Cricklewood Or Golders Green"},{"icsId":"1014561","id":"490014561S","lat":51.57919,"lon":-0.24133,"name":"West Hendon Broadway / Herbert Road","parentId":"490G00014561","stationId":"490G00014561","stopLetter":"HC","topMostParentId":"490G00014561","towards":"Brent Cross, Cricklewood Or Golders Green"},{"icsId":"1001148","id":"490001148A","lat":51.57932,"lon":-0.23895,"name":"Hendon Station","stopLetter":"HD","topMostParentId":"490001148A","towards":"Golders Green"},{"icsId":"1003476","id":"490003476E1","lat":51.58234,"lon":-0.2332,"name":"Audley Road","parentId":"490G00003476","stationId":"490G00003476","topMostParentId":"490G00003476","towards":"Golders Green"},{"icsId":"1008060","id":"490008060D","lat":51.58274,"lon":-0.22808,"name":"Hendon Way","parentId":"490G000591","stationId":"490G000591","stopLetter":"D","topMostParentId":"490G000591","towards":"Golders Green"},{"icsId":"1000106","id":"490000106A","lat":51.58283,"lon":-0.22591,"name":"Hendon Central Station","stopLetter":"A","topMostParentId":"490000106A","towards":"Golders Green Or Finchley","zone":"3+4"},{"icsId":"1004295","id":"490004295Y","lat":51.58433,"lon":-0.21967,"name":"Brent Green","parentId":"490G00004295","stationId":"490G00004295","stopLetter":"Y","topMostParentId":"490G00004295","towards":"Golders Green"},{"icsId":"1007464","id":"490007464S","lat":51.58316,"lon":-0.21556,"name":"Brent Street / Green Lane","parentId":"490G00007464","stationId":"490G00007464","stopLetter":"L","topMostParentId":"490G00007464","towards":"Golders Green"},{"icsId":"1010331","id":"490010331E","lat":51.58147,"lon":-0.21281,"name":"North Circular Road","parentId":"490G00010331","stationId":"490G00010331","stopLetter":"M","topMostParentId":"490G00010331","towards":"Golders Green"},{"icsId":"1007270","id":"490007270E","lat":51.58052,"lon":-0.21058,"name":"Golders Manor Drive","parentId":"490G00007270","stationId":"490G00007270","stopLetter":"N","topMostParentId":"490G00007270","towards":"Golders Green"},{"icsId":"1008152","id":"490008152S","lat":51.57851,"lon":-0.20781,"name":"Highfield Avenue","parentId":"490G00008152","stationId":"490G00008152","stopLetter":"P","topMostParentId":"490G00008152","towards":"Golders Green"},{"icsId":"1014904","id":"490014904E","lat":51.57599,"lon":-0.20441,"name":"Woodstock Avenue","parentId":"490G00014904","stationId":"490G00014904","stopLetter":"R","topMostParentId":"490G00014904","towards":"Hampstead Heath"},{"icsId":"1015322","id":"490015322GR","lat":51.57365,"lon":-0.20035,"name":"Hoop Lane","parentId":"490G00015322","stationId":"490G00015322","stopLetter":"S","topMostParentId":"490G00015322","towards":"Hampstead Heath"},{"icsId":"1006838","id":"490006838GT","lat":51.57219,"lon":-0.19706,"name":"Finchley Road","parentId":"490G00006838","stationId":"490G00006838","stopLetter":"GT","topMostParentId":"490G00006838","towards":"Hampstead Heath"},{"icsId":"1000087","id":"490000087GJ","lat":51.57149,"lon":-0.19356,"name":"Golders Green Station","stopLetter":"GJ","topMostParentId":"490000087GJ","towards":"Hampstead Or Archway","zone":"3"},{"icsId":"1014346","id":"490014346E","lat":51.56986,"lon":-0.18659,"name":"Wellgarth Road","parentId":"490G00014346","stationId":"490G00014346","stopLetter":"->E","topMostParentId":"490G00014346","towards":"Hampstead Or Highgate"},{"icsId":"1009562","id":"490009562E","lat":51.56826,"lon":-0.18402,"name":"Hampstead Way","parentId":"490G00009562","stationId":"490G00009562","stopLetter":"->E","topMostParentId":"490G00009562","towards":"Hampstead Or Highgate"},{"icsId":"1008490","id":"490008490E","lat":51.56384,"lon":-0.18007,"name":"Inverforth House","parentId":"490G00008490","stationId":"490G00008490","stopLetter":"L","topMostParentId":"490G00008490","towards":"Hampstead Station Or Highgate Village"},{"icsId":"1008547","id":"490008531S1","lat":51.56202,"lon":-0.17963,"name":"Whitestone Pond / Jack Straw's Castle","parentId":"490G00008547","stationId":"490G00008547","stopLetter":"P","topMostParentId":"490G00008547","towards":"Swiss Cottage"},{"icsId":"1000098","id":"490000098S","lat":51.55692,"lon":-0.17836,"name":"Hampstead Station","stopLetter":"Q","topMostParentId":"490000098S","towards":"Swiss Cottage","zone":"2+3"},{"icsId":"1010970","id":"490000098A","lat":51.55592,"lon":-0.17694,"name":"Hampstead Station / Hampstead High St","parentId":"490G00010970","stationId":"490G00010970","stopLetter":"R","topMostParentId":"490G00010970","towards":"Belsize Park Or Kentish Town"},{"icsId":"1011000","id":"490011000S","lat":51.55494,"lon":-0.17294,"name":"Pilgrim's Lane","parentId":"490G00011000","stationId":"490G00011000","stopLetter":"S","topMostParentId":"490G00011000","towards":"Belsize Park Or Kentish Town"},{"icsId":"1015255","id":"490015255F","lat":51.55227,"lon":-0.1673,"name":"Haverstock Hill / Pond Street","parentId":"490G00015255","stationId":"490G00015255","stopLetter":"F","topMostParentId":"490G00015255","towards":"Camden Town Or Swiss Cottage"},{"icsId":"1000020","id":"490000020L","lat":51.55075,"lon":-0.16519,"name":"Belsize Park Station","stopLetter":"L","topMostParentId":"490000020L","towards":"Camden Town Or Swiss Cottage","zone":"2"},{"icsId":"1006180","id":"490006180S","lat":51.55003,"lon":-0.16387,"name":"Downside Crescent","parentId":"490G00006180","stationId":"490G00006180","stopLetter":"M","topMostParentId":"490G00006180","towards":"Camden Town Or Swiss Cottage"},{"icsId":"1013939","id":"490013939S","lat":51.54875,"lon":-0.16172,"name":"Upper Park Road","parentId":"490G00013939","stationId":"490G00013939","stopLetter":"N","topMostParentId":"490G00013939","towards":"Camden Town Or Swiss Cottage"},{"icsId":"1012668","id":"490012664S","lat":51.54644,"lon":-0.1572,"name":"Haverstock Hill / Steele's Village","parentId":"490G00012668","stationId":"490G00012668","stopLetter":"P","topMostParentId":"490G00012668","towards":"Camden Town"},{"id":"490000043ZZ","lat":51.54375,"lon":-0.15209,"name":"Chalk Farm Station","stopLetter":"CD","topMostParentId":"490000043ZZ","towards":"Euston"},{"icsId":"1004964","id":"490004963CE","lat":51.54311,"lon":-0.14974,"name":"Chalk Farm Road / Morrisons","stopLetter":"CE","topMostParentId":"490004963CE","towards":"Euston Or Warren Street"},{"icsId":"1002364","id":"490002364ZH","lat":51.54264,"lon":-0.14761,"name":"Stables Market","stopLetter":"CP","topMostParentId":"490002364ZH","towards":"Euston"},{"icsId":"1007927","id":"490007927M","lat":51.54288,"lon":-0.14355,"name":"Hawley Road","parentId":"490G00007927","stationId":"490G00007927","stopLetter":"M","topMostParentId":"490G00007927","towards":"Mornington Crescent"},{"icsId":"1004713","id":"490004713D","lat":51.54197,"lon":-0.14103,"name":"Camden Gardens","parentId":"490G00004713","stationId":"490G00004713","stopLetter":"D","topMostParentId":"490G00004713","towards":"Kings Cross, Warren Street Or Oxford Circus"},{"icsId":"1000036","id":"490000036S","lat":51.5398,"lon":-0.14135,"name":"Camden Town Station","stopLetter":"S","topMostParentId":"490000036S","towards":"Great Portland St Or Tottenham Court Road","zone":"2"},{"icsId":"1011168","id":"490011168S1","lat":51.53696,"lon":-0.13933,"name":"Pratt Street","parentId":"490G00011168","stationId":"490G00011168","stopLetter":"W","topMostParentId":"490G00011168","towards":"Euston Or Kings Cross"},{"icsId":"1000152","id":"490000152G","lat":51.53414,"lon":-0.1381,"name":"Mornington Cres Stn / Camden Tn Library","stopLetter":"G","topMostParentId":"490000152G","towards":"Euston","zone":"2"},{"icsId":"1003174","id":"490003174S","lat":51.53199,"lon":-0.13576,"name":"Aldenham Street","parentId":"490G00003174","stationId":"490G00003174","stopLetter":"S","topMostParentId":"490G00003174","towards":"Euston Or Aldwych"},{"icsId":"1000077","id":"490000077B","lat":51.52861,"lon":-0.13213,"name":"Euston Station","stopLetter":"B","topMostParentId":"490000077B","towards":"Aldwych","zone":"1"},{"icsId":"1009504","id":"490000077F","lat":51.52707,"lon":-0.13218,"name":"Euston Bus Station","parentId":"490G000652","stationId":"490G000652","stopLetter":"F","topMostParentId":"HUBEUS"},{"icsId":"1000078","id":"490000078P","lat":51.52569,"lon":-0.13534,"name":"Euston Square Station","stopLetter":"P","topMostParentId":"490000078P","towards":"Baker Street Or Oxford Circus","zone":"1"},{"icsId":"1020147","id":"4900020147W","lat":51.52522,"lon":-0.13671,"name":"University Coll Hosp / Warren St Stn","parentId":"490G00020147","stationId":"490G00020147","stopLetter":"W","topMostParentId":"490G00020147","towards":"Baker Street"},{"icsId":"1002121","id":"490002121ZT","lat":51.52257,"lon":-0.13608,"name":"Capper Street","parentId":"490G000343","stationId":"490G000343","stopLetter":"N","topMostParentId":"490G000343","towards":"Leicester Square Or Oxford Circus"},{"icsId":"1000089","id":"490005084Z","lat":51.52059,"lon":-0.13423,"name":"Goodge Street Station","stopLetter":"D","topMostParentId":"490005084Z","towards":"Leicester Square Or Oxford Circus","zone":"1"},{"icsId":"1002124","id":"490002124ZZ","lat":51.51807,"lon":-0.13158,"name":"Stephen Street","parentId":"490G000346","stationId":"490G000346","stopLetter":"B","topMostParentId":"490G000346","towards":"Leicester Square Or Oxford Circus"},{"icsId":"1004695","id":"490004695D","lat":51.51341,"lon":-0.12921,"name":"Cambridge Circus","parentId":"490G00004695","stationId":"490G00004695","stopLetter":"D","topMostParentId":"490G00004695","towards":"Piccadilly Circus, Parliament Sq. Or Waterloo"},{"icsId":"1000135","id":"490000135B","lat":51.51159,"lon":-0.12833,"name":"Leicester Square Station","stopLetter":"J","topMostParentId":"490000135B","towards":"Waterloo Or Westminster","zone":"1"},{"icsId":"1016161","id":"490016161S","lat":51.50985,"lon":-0.12787,"name":"St Martin's Place","parentId":"490G00016161","stationId":"490G00016161","stopLetter":"K","topMostParentId":"490G00016161","towards":"Waterloo Or Westminster"},{"icsId":"1013767","id":"490013767D","lat":51.50819,"lon":-0.12706,"name":"Trafalgar Square / Charing Cross Stn","parentId":"490G000804","stationId":"490G000804","stopLetter":"D","topMostParentId":"490G000804","towards":"Westminster"},{"icsId":"1014585","id":"490014585N","lat":51.50627,"lon":-0.12699,"name":"Whitehall / Trafalgar Square","parentId":"490G000832","stationId":"490G000832","stopLetter":"N","topMostParentId":"490G000832","towards":"Victoria Or Vauxhall"}]}]}