{"direction":"outbound","lineId":"n65","lineName":"N65","mode":"bus","stopPointSequences":[{"stopPoint":[{"icsId":"1005121","id":"490005121Z","lat":51.35014,"lon":-0.31392,"name":"Chessington World of Adventures","parentId":"490G00005121","stationId":"490G00005121","stopLetter":"Z","topMostParentId":"490G00005121","towards":"Hook"},{"icsId":"1003663","id":"490003663X","lat":51.35358,"lon":-0.31236,"name":"Barwell Business Park","parentId":"490G00003663","stationId":"490G00003663","stopLetter":"U","topMostParentId":"490G00003663","towards":"Hook"},{"icsId":"1009048","id":"490009048C","lat":51.35575,"lon":-0.31186,"name":"Garrison Lane","parentId":"490G00009048","stationId":"490G00009048","stopLetter":"C","topMostParentId":"490G00009048","towards":"Hook"},{"icsId":"1005116","id":"490005116E","lat":51.35618,"lon":-0.30956,"name":"Chessington School","parentId":"490G00005116","stationId":"490G00005116","stopLetter":"E","topMostParentId":"490G00005116","towards":"Hook Or West Ewell"},{"icsId":"1001062","id":"490001062E","lat":51.35647,"lon":-0.30777,"name":"Chessington South Station","stopLetter":"A","topMostParentId":"490001062E","towards":"Hook Or West Ewell"},{"icsId":"1011540","id":"490011540F","lat":51.35798,"lon":-0.30308,"name":"Reynolds Avenue","parentId":"490G00011540","stationId":"490G00011540","stopLetter":"F","topMostParentId":"490G00011540","towards":"Hook Or West Ewell"},{"icsId":"1005115","id":"490005115E","lat":51.3588,"lon":-0.29934,"name":"Church Lane","parentId":"490G00005115","stationId":"490G00005115","stopLetter":"P","topMostParentId":"490G00005115","towards":"Hook Or West Ewell"},{"icsId":"1005593","id":"490005593N","lat":51.35929,"lon":-0.29543,"name":"Copt Gilders","parentId":"490G00005593","stationId":"490G00005593","stopLetter":"R","topMostParentId":"490G00005593","towards":"Hook Or West Ewell"},{"icsId":"1003562","id":"490003562E","lat":51.36239,"lon":-0.2917,"name":"Moor Lane","parentId":"490G00003562","stationId":"490G00003562","stopLetter":"E","topMostParentId":"490G00003562","towards":"Hook Or West Ewell"},{"icsId":"1013267","id":"490013267W","lat":51.36351,"lon":-0.29601,"name":"Church Rise","parentId":"490G00013267","stationId":"490G00013267","stopLetter":"F","topMostParentId":"490G00013267","towards":"Surbiton"},{"icsId":"1001061","id":"490001061T","lat":51.36343,"lon":-0.30029,"name":"Chessington North Station","stopLetter":"T","topMostParentId":"490001061T","towards":"Surbiton"},{"icsId":"1005117","id":"490005117V","lat":51.36316,"lon":-0.30416,"name":"Parbury Rise","parentId":"490G00005117","stationId":"490G00005117","stopLetter":"V","topMostParentId":"490G00005117","towards":"Surbiton"},{"icsId":"1009615","id":"490009615P","lat":51.36392,"lon":-0.30836,"name":"Mansfield Road","parentId":"490G00009615","stationId":"490G00009615","stopLetter":"P","topMostParentId":"490G00009615","towards":"Surbiton"},{"icsId":"1013597","id":"490013597N","lat":51.36608,"lon":-0.30735,"name":"Holmwood Road","parentId":"490G00013597","stationId":"490G00013597","stopLetter":"W","topMostParentId":"490G00013597","towards":"Surbiton"},{"icsId":"1008338","id":"490008338N","lat":51.36803,"lon":-0.30663,"name":"Hook Parade","parentId":"490G00008338","stationId":"490G00008338","stopLetter":"HL","topMostParentId":"490G00008338","towards":"Surbiton"},{"icsId":"1013474","id":"490013474N","lat":51.37102,"lon":-0.3059,"name":"The North Star","parentId":"490G00013474","stationId":"490G00013474","stopLetter":"HM","topMostParentId":"490G00013474","towards":"Surbiton"},{"icsId":"1006501","id":"490006501N","lat":51.37365,"lon":-0.30471,"name":"Elmcroft Drive","parentId":"490G00006501","stationId":"490G00006501","stopLetter":"HN","topMostParentId":"490G00006501","towards":"Surbiton"},{"icsId":"1007205","id":"490007205N","lat":51.37605,"lon":-0.30383,"name":"Southborough High School","parentId":"490G00007205","stationId":"490G00007205","stopLetter":"HP","topMostParentId":"490G00007205","towards":"Surbiton"},{"icsId":"1013628","id":"490013628N","lat":51.3793,"lon":-0.30222,"name":"Thornhill Road","parentId":"490G00013628","stationId":"490G00013628","stopLetter":"HQ","topMostParentId":"490G00013628","towards":"Surbiton"},{"icsId":"1019714","id":"490013457N","lat":51.38243,"lon":-0.30087,"name":"The Maypole","parentId":"490G00019714","stationId":"490G00019714","stopLetter":"HR","topMostParentId":"490G00019714","towards":"Surbiton"},{"icsId":"1008949","id":"490008949N","lat":51.3861,"lon":-0.30077,"name":"Langley Avenue","parentId":"490G00008949","stationId":"490G00008949","stopLetter":"SA","topMostParentId":"490G00008949","towards":"Kingston"},{"icsId":"1010075","id":"490010075N","lat":51.38809,"lon":-0.30319,"name":"Mountcombe Close","parentId":"490G00010075","stationId":"490G00010075","stopLetter":"SB","topMostParentId":"490G00010075","towards":"Kingston"},{"icsId":"1009395","id":"490009395N","lat":51.39042,"lon":-0.30763,"name":"Lovelace Gardens","parentId":"490G00009395","stationId":"490G00009395","stopLetter":"SC","topMostParentId":"490G00009395","towards":"Kingston"},{"icsId":"1013036","id":"490013036H","lat":51.3916,"lon":-0.30865,"name":"Surbiton Sainsbury's","parentId":"490G00013036","stationId":"490G00013036","stopLetter":"NA","topMostParentId":"490G00013036","towards":"Kingston"},{"icsId":"1001285","id":"490001285C","lat":51.39291,"lon":-0.30542,"name":"Surbiton Station","stopLetter":"NB","topMostParentId":"490001285C","towards":"Kingston"},{"icsId":"1019769","id":"490015165A","lat":51.39391,"lon":-0.30462,"name":"Claremont Road / Surbiton Station","parentId":"490G000949","stationId":"490G000949","stopLetter":"NC","topMostParentId":"490G000949","towards":"Kingston"},{"icsId":"1013315","id":"490013315N","lat":51.39626,"lon":-0.30415,"name":"The Crescent","parentId":"490G00013315","stationId":"490G00013315","stopLetter":"ND","topMostParentId":"490G00013315","towards":"Kingston Or Hampton Wick"},{"icsId":"1009627","id":"490009627N","lat":51.39861,"lon":-0.30458,"name":"Maple Road","parentId":"490G00009627","stationId":"490G00009627","stopLetter":"D","topMostParentId":"490G00009627","towards":"Kingston Or Hampton Wick"},{"icsId":"1013035","id":"490013035N","lat":51.40124,"lon":-0.30402,"name":"Surbiton Road / Penrhyn Road","parentId":"490G00013035","stationId":"490G00013035","stopLetter":"UE","topMostParentId":"490G00013035","towards":"Kingston Or Hampton Wick"},{"icsId":"1008830","id":"490008830N","lat":51.40327,"lon":-0.30451,"name":"Kingston University / County Hall","parentId":"490G00008830","stationId":"490G00008830","stopLetter":"UF","topMostParentId":"490G00008830","towards":"Kingston Or Teddington"},{"icsId":"1005498","id":"490005498N","lat":51.40621,"lon":-0.30417,"name":"Kingston Crown Court / Kingston College","parentId":"490G00005498","stationId":"490G00005498","stopLetter":"UJ","topMostParentId":"490G00005498","towards":"Kingston Or Teddington"},{"icsId":"1004478","id":"490004478G","lat":51.40851,"lon":-0.30374,"name":"Brook Street","parentId":"490G00004478","stationId":"490G00004478","stopLetter":"G","topMostParentId":"490G00004478","towards":"Teddington, Kingston Hospital Or Ham"},{"icsId":"1006412","id":"490006412E3","lat":51.41046,"lon":-0.30236,"name":"Eden Street","parentId":"490G00006412","stationId":"490G00006412","stopLetter":"E3","topMostParentId":"490G00006412","towards":"Ham Or Richmond"},{"icsId":"1001173","id":"490001173T","lat":51.41182,"lon":-0.3006,"name":"Kingston Station","stopLetter":"T","topMostParentId":"490001173T","towards":"Ham Or Teddington"},{"icsId":"1008819","id":"490008819U","lat":51.41421,"lon":-0.3014,"name":"Kingsgate Road","parentId":"490G00008819","stationId":"490G00008819","stopLetter":"U","topMostParentId":"490G00008819","towards":"Ham"},{"icsId":"1008813","id":"490008813N","lat":51.41611,"lon":-0.30149,"name":"Kings Road","parentId":"490G00008813","stationId":"490G00008813","stopLetter":"->N","topMostParentId":"490G00008813","towards":"Ham"},{"icsId":"1014895","id":"490014895N","lat":51.41954,"lon":-0.30199,"name":"Latchmere Road","parentId":"490G00014895","stationId":"490G00014895","stopLetter":"->N","topMostParentId":"490G00014895","towards":"Ham"},{"icsId":"1006276","id":"490006276N","lat":51.42174,"lon":-0.30277,"name":"Durlston Road","parentId":"490G00006276","stationId":"490G00006276","stopLetter":"F","topMostParentId":"490G00006276","towards":"Petersham"},{"icsId":"1013663","id":"490013663N","lat":51.42605,"lon":-0.30538,"name":"Tiffin Girls School","parentId":"490G00013663","stationId":"490G00013663","stopLetter":"G","topMostParentId":"490G00013663","towards":"Petersham"},{"icsId":"1006227","id":"490006227N","lat":51.42893,"lon":-0.30704,"name":"Tudor Drive","parentId":"490G00006227","stationId":"490G00006227","stopLetter":"H","topMostParentId":"490G00006227","towards":"Richmond"},{"icsId":"1006225","id":"490006225N","lat":51.43125,"lon":-0.30717,"name":"Ham Parade","parentId":"490G00006225","stationId":"490G00006225","stopLetter":"J","topMostParentId":"490G00006225","towards":"Richmond"},{"icsId":"1007691","id":"490007691N","lat":51.43291,"lon":-0.30669,"name":"Ham Common","parentId":"490G00007691","stationId":"490G00007691","stopLetter":"K","topMostParentId":"490G00007691","towards":"Richmond"},{"icsId":"1007692","id":"490007692N","lat":51.43587,"lon":-0.30524,"name":"Ham Gate Avenue","parentId":"490G00007692","stationId":"490G00007692","stopLetter":"L","topMostParentId":"490G00007692","towards":"Richmond"},{"icsId":"1011927","id":"490011927N","lat":51.44032,"lon":-0.30386,"name":"Sandy Lane","parentId":"490G00011927","stationId":"490G00011927","stopLetter":"->N","topMostParentId":"490G00011927","towards":"Richmond"},{"icsId":"1011911","id":"490010969N","lat":51.44463,"lon":-0.30289,"name":"Sudbrook Lane","parentId":"490G00011911","stationId":"490G00011911","stopLetter":"->N","topMostParentId":"490G00011911","towards":"Richmond"},{"icsId":"1013340","id":"490013340E","lat":51.44637,"lon":-0.29969,"name":"The Dysart","parentId":"490G00013340","stationId":"490G00013340","stopLetter":"->E","topMostParentId":"490G00013340","towards":"Richmond"},{"icsId":"1010271","id":"490010271N","lat":51.45237,"lon":-0.302,"name":"Nightingale Lane","parentId":"490G00010271","stationId":"490G00010271","stopLetter":"S","topMostParentId":"490G00010271","towards":"Richmond"},{"icsId":"1013571","id":"490013571N","lat":51.45407,"lon":-0.30274,"name":"Robins Court","parentId":"490G00013571","stationId":"490G00013571","stopLetter":"T","topMostParentId":"490G00013571","towards":"Richmond"},{"icsId":"1005531","id":"490005531N","lat":51.45575,"lon":-0.30348,"name":"Compass Hill","parentId":"490G00005531","stationId":"490G00005531","stopLetter":"U","topMostParentId":"490G00005531","towards":"Richmond"},{"icsId":"1008234","id":"490008234N","lat":51.45733,"lon":-0.30458,"name":"Hill Rise","parentId":"490G00008234","stationId":"490G00008234","stopLetter":"V","topMostParentId":"490G00008234","towards":"Kew"},{"icsId":"1007166","id":"490007166B","lat":51.46071,"lon":-0.30474,"name":"George Street","parentId":"490G00007166","stationId":"490G00007166","stopLetter":"B","topMostParentId":"490G00007166","towards":"Hammersmith Or Kew"},{"icsId":"1000192","id":"490013511C","lat":51.46274,"lon":-0.30268,"name":"Richmond Station","stopLetter":"C","topMostParentId":"490013511C","towards":"Chiswick, Kew Or Mortlake","zone":"4"},{"icsId":"1006660","id":"490006660N","lat":51.46612,"lon":-0.29838,"name":"Evelyn Road","parentId":"490G00006660","stationId":"490G00006660","stopLetter":"RA","topMostParentId":"490G00006660","towards":"Brentford"},{"icsId":"1010725","id":"490010725N","lat":51.46836,"lon":-0.29523,"name":"Pagoda Avenue","parentId":"490G00010725","stationId":"490G00010725","stopLetter":"RB","topMostParentId":"490G00010725","towards":"Brentford"},{"icsId":"1008692","id":"490008692N","lat":51.47104,"lon":-0.29352,"name":"Kew Gardens / Lion Gate","parentId":"490G00008692","stationId":"490G00008692","stopLetter":"P","topMostParentId":"490G00008692","towards":"Brentford"},{"icsId":"1013238","id":"490013238N","lat":51.47461,"lon":-0.29217,"name":"The Avenue","parentId":"490G00013238","stationId":"490G00013238","stopLetter":"Q","topMostParentId":"490G00013238","towards":"Brentford"},{"icsId":"1008693","id":"490008693F","lat":51.47825,"lon":-0.2905,"name":"Kew Road / Victoria Gate","parentId":"490G000618","stationId":"490G000618","stopLetter":"R","topMostParentId":"490G000618","towards":"Brentford"},{"icsId":"1008695","id":"490008695J","lat":51.48062,"lon":-0.28884,"name":"Kew Gardens Road","parentId":"490G00008695","stationId":"490G00008695","stopLetter":"S","topMostParentId":"490G00008695","towards":"Brentford Or Chiswick"},{"icsId":"1010048","id":"490010048L","lat":51.48223,"lon":-0.28739,"name":"Mortlake Road","parentId":"490G00010048","stationId":"490G00010048","stopLetter":"T","topMostParentId":"490G00010048","towards":"Brentford Or Chiswick"},{"icsId":"1008688","id":"490008696N","lat":51.48536,"lon":-0.28745,"name":"Kew Bridge","parentId":"490G000617","stationId":"490G000617","stopLetter":"Z","topMostParentId":"490G000617","towards":"Brentford Or Chiswick"},{"icsId":"1001167","id":"490001167YZ","lat":51.48867,"lon":-0.28884,"name":"Kew Bridge Station","stopLetter":"->W","topMostParentId":"490001167YZ","towards":"Ealing, Isleworth Or Twickenham"},{"icsId":"1004293","id":"490008690W","lat":51.48758,"lon":-0.29291,"name":"The Musical Museum","parentId":"490G00004293","stationId":"490G00004293","stopLetter":"U","topMostParentId":"490G00004293","towards":"Ealing, Isleworth Or Twickenham"},{"icsId":"1006297","id":"490006297B","lat":51.48626,"lon":-0.29756,"name":"Watermans Centre","parentId":"490G00006297","stationId":"490G00006297","stopLetter":"BH","topMostParentId":"490G00006297","towards":"Ealing, Isleworth Or Twickenham"},{"icsId":"1003137","id":"490003137X","lat":51.48618,"lon":-0.29979,"name":"Albany Road","parentId":"490G00003137","stationId":"490G00003137","stopLetter":"BR","topMostParentId":"490G00003137","towards":"Ealing"},{"icsId":"1010259","id":"490010259Y","lat":51.48868,"lon":-0.30134,"name":"New Road","parentId":"490G00010259","stationId":"490G00010259","stopLetter":"BS","topMostParentId":"490G00010259","towards":"Ealing"},{"icsId":"1019193","id":"4900063001","lat":51.4907,"lon":-0.30374,"name":"Great West Road","parentId":"490G00019193","stationId":"490G00019193","stopLetter":"BT","topMostParentId":"490G00019193","towards":"Ealing"},{"icsId":"1004966","id":"490004966S","lat":51.49231,"lon":-0.30446,"name":"Challis Road","parentId":"490G00004966","stationId":"490G00004966","stopLetter":"BX","topMostParentId":"490G00004966","towards":"Ealing"},{"icsId":"1005986","id":"490005978N","lat":51.49534,"lon":-0.30579,"name":"Carlyle Road","parentId":"490G00005986","stationId":"490G00005986","stopLetter":"G","topMostParentId":"490G00005986","towards":"Ealing Broadway"},{"icsId":"1011106","id":"490011106N","lat":51.49871,"lon":-0.30605,"name":"Popes Lane","parentId":"490G00011106","stationId":"490G00011106","stopLetter":"H","topMostParentId":"490G00011106","towards":"Ealing Broadway"},{"icsId":"1000208","id":"490000208A","lat":51.50088,"lon":-0.30674,"name":"South Ealing Station","stopLetter":"J","topMostParentId":"490000208A","towards":"Ealing Broadway","zone":"3"},{"icsId":"1019963","id":"490012789N","lat":51.5032,"lon":-0.307,"name":"Lothair Road","parentId":"490G00019963","stationId":"490G00019963","stopLetter":"K","topMostParentId":"490G00019963","towards":"Ealing Broadway"},{"icsId":"1014254","id":"490014254N","lat":51.50566,"lon":-0.30532,"name":"Warwick Road / University of West London","parentId":"490G00014254","stationId":"490G00014254","stopLetter":"L","topMostParentId":"490G00014254","towards":"Ealing Broadway"},{"icsId":"1007353","id":"490007353N","lat":51.50928,"lon":-0.30547,"name":"Grange Road","parentId":"490G00007353","stationId":"490G00007353","stopLetter":"M","topMostParentId":"490G00007353","towards":"Ealing Broadway"},{"icsId":"1004143","id":"490004143N","lat":51.51232,"lon":-0.30628,"name":"Bond Street","parentId":"490G00004143","stationId":"490G00004143","stopLetter":"N","topMostParentId":"490G00004143","towards":"Ealing Broadway"},{"icsId":"1005227","id":"490005227X","lat":51.51313,"lon":-0.30588,"name":"Christchurch","parentId":"490G000455","stationId":"490G000455","stopLetter":"X","topMostParentId":"490G000455","towards":"Acton"},{"icsId":"1000062","id":"490000062C","lat":51.51519,"lon":-0.30227,"name":"Ealing Broadway Station","stopLetter":"C","topMostParentId":"490000062C","towards":"South Ealing","zone":"3"}]}]}