{"direction":"outbound","lineId":"n68","lineName":"N68","mode":"bus","stopPointSequences":[{"stopPoint":[{"icsId":"1010535","id":"490010535W","lat":51.30664,"lon":-0.11991,"name":"Old Coulsdon / Tudor Rose","parentId":"490G00010535","stationId":"490G00010535","stopLetter":"L","topMostParentId":"490G00010535","towards":"Coulsdon"},{"icsId":"1013688","id":"490013688W","lat":51.30586,"lon":-0.12465,"name":"Mead Way / Tollers Lane","parentId":"490G00013688","stationId":"490G00013688","stopLetter":"->W","topMostParentId":"490G00013688","towards":"Purley"},{"icsId":"1009770","id":"490009770W","lat":51.30772,"lon":-0.12837,"name":"New Hill","parentId":"490G00009770","stationId":"490G00009770","stopLetter":"->W","topMostParentId":"490G00009770","towards":"Purley"},{"icsId":"1009776","id":"490009776W","lat":51.30931,"lon":-0.13268,"name":"Mead Way / Chaldon Way","parentId":"490G00009776","stationId":"490G00009776","stopLetter":"->W","topMostParentId":"490G00009776","towards":"Purley"},{"icsId":"1004231","id":"490004231N","lat":51.31142,"lon":-0.13413,"name":"Bradmore Way","parentId":"490G00004231","stationId":"490G00004231","stopLetter":"->N","topMostParentId":"490G00004231","towards":"Purley"},{"icsId":"1004958","id":"490004958N","lat":51.31348,"lon":-0.13491,"name":"Chaldon Way Gardens","parentId":"490G00004958","stationId":"490G00004958","stopLetter":"->N","topMostParentId":"490G00004958","towards":"Purley"},{"icsId":"1001072","id":"490001072P","lat":51.31658,"lon":-0.13746,"name":"Coulsdon South Station","stopLetter":"P","topMostParentId":"490001072P","towards":"Purley"},{"icsId":"1005640","id":"490005640G","lat":51.31962,"lon":-0.13915,"name":"Coulsdon Library","parentId":"490G00005640","stationId":"490G00005640","stopLetter":"G","topMostParentId":"490G00005640","towards":"Purley Or The Mount"},{"icsId":"1001253","id":"490005637N1","lat":51.32145,"lon":-0.13757,"name":"Coulsdon Town Station","stopLetter":"J","topMostParentId":"490005637N1","towards":"Purley Or the Mount"},{"icsId":"1005657","id":"490001253A","lat":51.32279,"lon":-0.13584,"name":"The Avenue","parentId":"490G00005657","stationId":"490G00005657","stopLetter":"A","topMostParentId":"490G00005657","towards":"Purley"},{"icsId":"1014704","id":"490014704N","lat":51.32374,"lon":-0.13447,"name":"Willow Court","parentId":"490G00014704","stationId":"490G00014704","stopLetter":"RA","topMostParentId":"490G00014704","towards":"Purley"},{"icsId":"1015438","id":"490012207N","lat":51.32706,"lon":-0.12961,"name":"Smitham Downs Road","parentId":"490G00015438","stationId":"490G00015438","stopLetter":"RB","topMostParentId":"490G00015438","towards":"South Croydon"},{"icsId":"1010565","id":"490010565C","lat":51.33085,"lon":-0.12549,"name":"Brighton Road / Old Lodge Lane","parentId":"490G000687","stationId":"490G000687","stopLetter":"RC","topMostParentId":"490G000687","towards":"South Croydon"},{"icsId":"1007560","id":"490007560N","lat":51.33315,"lon":-0.1231,"name":"Grovelands Road","parentId":"490G00007560","stationId":"490G00007560","stopLetter":"RD","topMostParentId":"490G00007560","towards":"Croydon"},{"icsId":"1011274","id":"490011274W","lat":51.33709,"lon":-0.11882,"name":"Purley Tesco","parentId":"490G000716","stationId":"490G000716","stopLetter":"W","topMostParentId":"490G000716","towards":"South Croydon"},{"icsId":"1011259","id":"490011259D","lat":51.33917,"lon":-0.11611,"name":"Purley / Downlands Precinct","parentId":"490G00011259","stationId":"490G00011259","stopLetter":"D","topMostParentId":"490G00011259","towards":"Croydon"},{"icsId":"1005236","id":"490005236N","lat":51.34067,"lon":-0.11336,"name":"Christchurch Road / Purley Hospital","parentId":"490G00005236","stationId":"490G00005236","stopLetter":"E","topMostParentId":"490G00005236","towards":"Croydon Or Sanderstead"},{"icsId":"1010002","id":"490010002N","lat":51.34298,"lon":-0.10903,"name":"Montpelier Road","parentId":"490G00010002","stationId":"490G00010002","stopLetter":"F","topMostParentId":"490G00010002","towards":"Croydon Or Sanderstead"},{"icsId":"1013543","id":"490013543N","lat":51.34443,"lon":-0.10632,"name":"Brighton Road / Purley Downs Road","parentId":"490G00013543","stationId":"490G00013543","stopLetter":"J","topMostParentId":"490G00013543","towards":"Croydon Or Sanderstead"},{"icsId":"1003117","id":"490003117A","lat":51.34712,"lon":-0.10273,"name":"Biddulph Road","parentId":"490G00003117","stationId":"490G00003117","stopLetter":"GA","topMostParentId":"490G00003117","towards":"Croydon Town Centre"},{"icsId":"1013603","id":"490013603N","lat":51.34871,"lon":-0.10136,"name":"Purley Oaks Station","parentId":"490G00013603","stationId":"490G00013603","stopLetter":"GB","topMostParentId":"490G00013603","towards":"Croydon Town Centre"},{"icsId":"1011481","id":"490011481N","lat":51.35253,"lon":-0.0984,"name":"Sanderstead Road","parentId":"490G00011481","stationId":"490G00011481","stopLetter":"GC","topMostParentId":"490G00011481","towards":"Croydon Town Centre"},{"icsId":"1012272","id":"490012272N","lat":51.35522,"lon":-0.09786,"name":"South Croydon Bus Garage","parentId":"490G00012272","stationId":"490G00012272","stopLetter":"GD","topMostParentId":"490G00012272","towards":"Croydon Town Centre"},{"icsId":"1007670","id":"490007670N","lat":51.3585,"lon":-0.09786,"name":"Haling Park Road","parentId":"490G00007670","stationId":"490G00007670","stopLetter":"GE","topMostParentId":"490G00007670","towards":"Croydon Town Centre"},{"icsId":"1013920","id":"490013920N","lat":51.36057,"lon":-0.0981,"name":"Upland Road","parentId":"490G00013920","stationId":"490G00013920","stopLetter":"GF","topMostParentId":"490G00013920","towards":"Croydon Town Centre"},{"icsId":"1013100","id":"490013100G","lat":51.36323,"lon":-0.09854,"name":"Swan & Sugar Loaf","parentId":"490G00013100","stationId":"490G00013100","stopLetter":"G","topMostParentId":"490G00013100","towards":"West Croydon"},{"icsId":"1005574","id":"490005574V","lat":51.36725,"lon":-0.09908,"name":"Coombe Road","parentId":"490G00005574","stationId":"490G00005574","stopLetter":"V","topMostParentId":"490G00005574","towards":"West Croydon"},{"icsId":"1005855","id":"490005855C1","lat":51.37002,"lon":-0.10002,"name":"Croydon Flyover","parentId":"490G00005855","stationId":"490G00005855","stopLetter":"KS","topMostParentId":"490G00005855","towards":"West Croydon"},{"icsId":"1006706","id":"490006706C9","lat":51.37322,"lon":-0.09682,"name":"Fairfield Halls","parentId":"490G00006706","stationId":"490G00006706","stopLetter":"KD","topMostParentId":"490G00006706","towards":"West Croydon"},{"icsId":"1001089","id":"490001089E6","lat":51.37465,"lon":-0.09291,"name":"East Croydon Station","stopLetter":"E6","topMostParentId":"490001089E6","towards":"West Croydon"},{"icsId":"1014614","id":"490014614E15","lat":51.3761,"lon":-0.0984,"name":"Whitgift Centre","parentId":"490G00014614","stationId":"490G00014614","stopLetter":"WL","topMostParentId":"490G00014614","towards":"Thornton Heath"},{"icsId":"1006027","id":"490006027W9","lat":51.37884,"lon":-0.10015,"name":"Delta Point","parentId":"490G00006027","stationId":"490G00006027","stopLetter":"WP","topMostParentId":"490G00006027","towards":"Norbury Or Upper Norwood"},{"icsId":"1003793","id":"490003793N","lat":51.38137,"lon":-0.09939,"name":"Bedford Hall","parentId":"490G00003793","stationId":"490G00003793","stopLetter":"K","topMostParentId":"490G00003793","towards":"Addiscombe, Selhurst Or Thornton Heath"},{"icsId":"1008271","id":"490008271E","lat":51.38367,"lon":-0.09961,"name":"Hogarth Crescent","parentId":"490G00008271","stationId":"490G00008271","stopLetter":"L","topMostParentId":"490G00008271","towards":"Selhurst Or Thornton Heath"},{"icsId":"1013376","id":"490013376N","lat":51.38636,"lon":-0.09694,"name":"Devonshire Road","parentId":"490G00013376","stationId":"490G00013376","stopLetter":"J","topMostParentId":"490G00013376","towards":"Selhurst Or Thornton Heath"},{"icsId":"1013314","id":"490013314N","lat":51.39077,"lon":-0.09473,"name":"The Crescent","parentId":"490G00013314","stationId":"490G00013314","stopLetter":"S","topMostParentId":"490G00013314","towards":"Thornton Heath High Street"},{"icsId":"1010868","id":"490010868N","lat":51.39355,"lon":-0.09382,"name":"Pawsons Road","parentId":"490G00010868","stationId":"490G00010868","stopLetter":"T","topMostParentId":"490G00010868","towards":"Norbury Or Upper Norwood"},{"icsId":"1015026","id":"490015026M","lat":51.39684,"lon":-0.09268,"name":"Talbot Road","parentId":"490G00015026","stationId":"490G00015026","stopLetter":"M","topMostParentId":"490G00015026","towards":"Norbury Or Upper Norwood"},{"icsId":"1005424","id":"490005424E","lat":51.39874,"lon":-0.08909,"name":"Clifton Road","parentId":"490G00005424","stationId":"490G00005424","stopLetter":"->E","topMostParentId":"490G00005424","towards":"Norwood Junction Or Upper Norwood"},{"icsId":"1010818","id":"490010818N","lat":51.40041,"lon":-0.08526,"name":"Selhurst Park Stadium","parentId":"490G00010818","stationId":"490G00010818","stopLetter":"->N","topMostParentId":"490G00010818","towards":"Upper Norwood"},{"icsId":"1014621","id":"490014621N","lat":51.40231,"lon":-0.0835,"name":"Whitworth Road","parentId":"490G00014621","stationId":"490G00014621","stopLetter":"->N","topMostParentId":"490G00014621","towards":"Upper Norwood"},{"icsId":"1008410","id":"490008410N","lat":51.40471,"lon":-0.08209,"name":"Howden Road","parentId":"490G00008410","stationId":"490G00008410","stopLetter":"NA","topMostParentId":"490G00008410","towards":"Crown Point"},{"icsId":"1014227","id":"490014227N","lat":51.40646,"lon":-0.08473,"name":"Wharncliffe Gardens","parentId":"490G00014227","stationId":"490G00014227","stopLetter":"NB","topMostParentId":"490G00014227","towards":"Crown Point"},{"icsId":"1007344","id":"490007344N","lat":51.40778,"lon":-0.08606,"name":"Grange Avenue","parentId":"490G00007344","stationId":"490G00007344","stopLetter":"NC","topMostParentId":"490G00007344","towards":"Crown Point"},{"icsId":"1018970","id":"490003242N","lat":51.40906,"lon":-0.08674,"name":"South Norwood Hill / All Saints Church","parentId":"490G00018970","stationId":"490G00018970","stopLetter":"ND","topMostParentId":"490G00018970","towards":"Crown Point"},{"icsId":"1013929","id":"490013929N","lat":51.4119,"lon":-0.08809,"name":"Upper Beulah Hill","parentId":"490G00013929","stationId":"490G00013929","stopLetter":"NE","topMostParentId":"490G00013929","towards":"Streatham Or West Norwood"},{"icsId":"1003959","id":"490003959N","lat":51.41453,"lon":-0.09291,"name":"Beulah Spa","parentId":"490G00003959","stationId":"490G00003959","stopLetter":"NH","topMostParentId":"490G00003959","towards":"Streatham Or West Norwood"},{"icsId":"1015337","id":"490015337N","lat":51.4171,"lon":-0.09835,"name":"Hermitage Road","parentId":"490G00015337","stationId":"490G00015337","stopLetter":"NJ","topMostParentId":"490G00015337","towards":"Streatham Or West Norwood"},{"icsId":"1005559","id":"490005559N","lat":51.4184,"lon":-0.10151,"name":"Convent Hill","parentId":"490G00005559","stationId":"490G00005559","stopLetter":"NK","topMostParentId":"490G00005559","towards":"Streatham Or West Norwood"},{"icsId":"1003992","id":"490003992N","lat":51.41891,"lon":-0.10502,"name":"Biggin Hill","parentId":"490G00003992","stationId":"490G00003992","stopLetter":"NL","topMostParentId":"490G00003992","towards":"Streatham Or West Norwood"},{"icsId":"1005839","id":"490005839N","lat":51.42172,"lon":-0.10629,"name":"Crown Point / Beulah Hill","parentId":"490G00005839","stationId":"490G00005839","stopLetter":"CS","topMostParentId":"490G00005839","towards":"Streatham Or West Norwood"},{"icsId":"1005840","id":"490005840N","lat":51.42304,"lon":-0.10574,"name":"Crown Point / Knights Hill","parentId":"490G00005840","stationId":"490G00005840","stopLetter":"CL","topMostParentId":"490G00005840","towards":"Tulse Hill"},{"icsId":"1020110","id":"490020110N","lat":51.42477,"lon":-0.10536,"name":"Lakeview Road","parentId":"490G00020110","stationId":"490G00020110","stopLetter":"->N","topMostParentId":"490G00020110","towards":"Upper Norwood"},{"icsId":"1012969","id":"490012969N","lat":51.4271,"lon":-0.10487,"name":"West Norwood Fire Station","parentId":"490G00012969","stationId":"490G00012969","stopLetter":"CM","topMostParentId":"490G00012969","towards":"Tulse Hill"},{"icsId":"1012754","id":"490012754N","lat":51.43015,"lon":-0.10441,"name":"St Julian's Farm Road","parentId":"490G00012754","stationId":"490G00012754","stopLetter":"Y","topMostParentId":"490G00012754","towards":"Brixton, Herne Hill Or Streatham"},{"icsId":"1001331","id":"490001331W","lat":51.43236,"lon":-0.10398,"name":"West Norwood Station","stopLetter":"W","topMostParentId":"490001331W","towards":"Brixton, Herne Hill Or Streatham"},{"icsId":"1013670","id":"490013655M","lat":51.4349,"lon":-0.10404,"name":"Norwood Road / Robson Road","parentId":"490G00013670","stationId":"490G00013670","stopLetter":"M","topMostParentId":"490G00013670","towards":"Herne Hill"},{"icsId":"1008927","id":"490008927J","lat":51.43719,"lon":-0.1054,"name":"Lancaster Avenue","parentId":"490G00008927","stationId":"490G00008927","stopLetter":"J","topMostParentId":"490G00008927","towards":"Herne Hill"},{"icsId":"1001298","id":"490001298F1","lat":51.44072,"lon":-0.10632,"name":"Tulse Hill Station","stopLetter":"F","topMostParentId":"490001298F1","towards":"Herne Hill"},{"icsId":"1013656","id":"490013656B","lat":51.44212,"lon":-0.10579,"name":"Thurlow Park Road","parentId":"490G00013656","stationId":"490G00013656","stopLetter":"B","topMostParentId":"490G00013656","towards":"Brixton Or Denmark Hill"},{"icsId":"1006058","id":"490006058N","lat":51.44448,"lon":-0.10503,"name":"Deronda Road","parentId":"490G00006058","stationId":"490G00006058","stopLetter":"->N","topMostParentId":"490G00006058","towards":"Brixton Or Denmark Hill"},{"icsId":"1004404","id":"490004404N","lat":51.44657,"lon":-0.1049,"name":"Brockwell Park Gardens","parentId":"490G00004404","stationId":"490G00004404","stopLetter":"Q","topMostParentId":"490G00004404","towards":"Brixton Or Camberwell"},{"icsId":"1011701","id":"490011701N","lat":51.44909,"lon":-0.10177,"name":"Rosendale Road","parentId":"490G00011701","stationId":"490G00011701","stopLetter":"A","topMostParentId":"490G00011701","towards":"Brixton Or Denmark Hill"},{"icsId":"1004403","id":"490004403N","lat":51.45154,"lon":-0.10124,"name":"Brockwell Park","parentId":"490G000428","stationId":"490G000428","stopLetter":"H","topMostParentId":"490G000428","towards":"Brixton Or Camberwell"},{"icsId":"1001149","id":"490001149B","lat":51.45348,"lon":-0.10117,"name":"Herne Hill Station","stopLetter":"B","topMostParentId":"490001149B","towards":"Camberwell Green"},{"icsId":"1008294","id":"490008294N","lat":51.45572,"lon":-0.09871,"name":"Hollingbourne Road","parentId":"490G00008294","stationId":"490G00008294","stopLetter":"S","topMostParentId":"490G00008294","towards":"Camberwell Green"},{"icsId":"1006992","id":"490006992N","lat":51.4572,"lon":-0.09625,"name":"Frankfurt Road","parentId":"490G00006992","stationId":"490G00006992","stopLetter":"T","topMostParentId":"490G00006992","towards":"Camberwell Green"},{"icsId":"1011491","id":"490011491N","lat":51.4601,"lon":-0.09366,"name":"Herne Hill Road","parentId":"490G00011491","stationId":"490G00011491","stopLetter":"->N","topMostParentId":"490G00011491","towards":"Camberwell Green"},{"icsId":"1013027","id":"490013027N","lat":51.46192,"lon":-0.09165,"name":"Deepdene Road","parentId":"490G00013027","stationId":"490G00013027","stopLetter":"N","topMostParentId":"490G00013027","towards":"Elephant & Castle Or Bricklayers Arms"},{"icsId":"1004092","id":"490004092N","lat":51.46415,"lon":-0.0906,"name":"Blanchedowne","parentId":"490G00004092","stationId":"490G00004092","stopLetter":"P","topMostParentId":"490G00004092","towards":"Elephant & Castle"},{"icsId":"1004973","id":"490004973H1","lat":51.46703,"lon":-0.09078,"name":"Champion Hill","parentId":"490G00004973","stationId":"490G00004973","stopLetter":"Q","topMostParentId":"490G00004973","towards":"Elephant & Castle Or Bricklayers Arms"},{"icsId":"1008764","id":"490008764H5","lat":51.46954,"lon":-0.0927,"name":"King's College Hospital","parentId":"490G00008764","stationId":"490G00008764","stopLetter":"R","topMostParentId":"490G00008764","towards":"Oval, Elephant & Castle Or Bricklayers Arms"},{"icsId":"1005464","id":"490005464W","lat":51.47148,"lon":-0.09308,"name":"Coldharbour Lane","parentId":"490G00005464","stationId":"490G00005464","stopLetter":"W","topMostParentId":"490G00005464","towards":"Oval, Elephant & Castle Or Bricklayers Arms"},{"icsId":"1004687","id":"490004687S","lat":51.47306,"lon":-0.09329,"name":"Denmark Hill / Camberwell Green","parentId":"490G00004687","stationId":"490G00004687","stopLetter":"S","topMostParentId":"490G00004687","towards":"Oval Or Elephant & Castle"},{"icsId":"1015298","id":"490015298F","lat":51.47529,"lon":-0.09328,"name":"Camberwell Green","parentId":"490G00015298","stationId":"490G00015298","stopLetter":"F","topMostParentId":"490G00015298","towards":"Elephant & Castle"},{"icsId":"1009784","id":"490009784D","lat":51.47682,"lon":-0.09408,"name":"Medlar Street","parentId":"490G00009784","stationId":"490G00009784","stopLetter":"D","topMostParentId":"490G00009784","towards":"Elephant & Castle"},{"icsId":"1014979","id":"490014979N2","lat":51.4785,"lon":-0.09423,"name":"Wyndham Road","parentId":"490G00014979","stationId":"490G00014979","stopLetter":"U","topMostParentId":"490G00014979","towards":"Tower Bridge Or Elephant & Castle"},{"icsId":"1004221","id":"490004221N","lat":51.48058,"lon":-0.09446,"name":"Bowyer Place","parentId":"490G00004221","stationId":"490G00004221","stopLetter":"Z","topMostParentId":"490G00004221","towards":"Tower Bridge Or Elephant & Castle"},{"icsId":"1003138","id":"490003138N2","lat":51.48168,"lon":-0.09454,"name":"Camberwell Road / Albany Road","parentId":"490G00003138","stationId":"490G00003138","stopLetter":"X","topMostParentId":"490G00003138","towards":"Tower Bridge Or Elephant & Castle"},{"icsId":"1014501","id":"490014501M","lat":51.4841,"lon":-0.09407,"name":"Westmoreland Road","parentId":"490G00014501","stationId":"490G00014501","stopLetter":"M","topMostParentId":"490G00014501","towards":"Waterloo Or Westminster"},{"icsId":"1006380","id":"490006380H","lat":51.48694,"lon":-0.09523,"name":"East Street","parentId":"490G00006380","stationId":"490G00006380","stopLetter":"H","topMostParentId":"490G00006380","towards":"Waterloo Or Westminster"},{"icsId":"1008975","id":"490008975C","lat":51.48997,"lon":-0.09689,"name":"Larcom Street","parentId":"490G00008975","stationId":"490G00008975","stopLetter":"C","topMostParentId":"490G00008975","towards":"Waterloo Or Westminster"},{"icsId":"1008122","id":"490008122N","lat":51.4914,"lon":-0.09784,"name":"Heygate Street","parentId":"490G00008122","stationId":"490G00008122","stopLetter":"Z","topMostParentId":"490G00008122","towards":"Waterloo Or Westminster"},{"icsId":"1000073","id":"490000073V","lat":51.49447,"lon":-0.10085,"name":"Elephant & Castle Station","stopLetter":"V","topMostParentId":"490000073V","towards":"Waterloo Or Westminster","zone":"1+2"},{"icsId":"1009281","id":"490009281A","lat":51.49613,"lon":-0.10171,"name":"Elephant & Castle / London Road","parentId":"490G000642","stationId":"490G000642","stopLetter":"A","topMostParentId":"490G000642","towards":"Blackfriars Or Waterloo"},{"icsId":"1012693","id":"490012693N1","lat":51.49967,"lon":-0.10724,"name":"St George's Circus","parentId":"490G00012693","stationId":"490G00012693","stopLetter":"P","topMostParentId":"490G00012693","towards":"Aldwych"},{"icsId":"1013485","id":"490013485N","lat":51.50129,"lon":-0.10909,"name":"The Old Vic","parentId":"490G00013485","stationId":"490G00013485","stopLetter":"Q","topMostParentId":"490G00013485","towards":"Aldwych"},{"icsId":"1003713","id":"490000254K","lat":51.50436,"lon":-0.11374,"name":"Waterloo Station / Tenison Way","parentId":"490G000402","stationId":"490G000402","stopLetter":"K","topMostParentId":"HUBWAT","towards":"Holborn, Russell Square Or Euston"},{"icsId":"1014271","id":"490014270P","lat":51.50626,"lon":-0.115,"name":"Waterloo Bridge / South Bank","parentId":"490G000819","stationId":"490G000819","stopLetter":"P","topMostParentId":"490G000819","towards":"Trafalgar Square, Fleet Street Or Holborn"},{"icsId":"1008932","id":"490008932T","lat":51.51045,"lon":-0.11872,"name":"Lancaster Place","parentId":"490G00008932","stationId":"490G00008932","stopLetter":"T","topMostParentId":"490G00008932","towards":"Trafalgar Square, Fleet Street Or Holborn"},{"icsId":"1003195","id":"490003191F","lat":51.51314,"lon":-0.11795,"name":"Aldwych / Kingsway","parentId":"490G00003195","stationId":"490G00003195","stopLetter":"F","topMostParentId":"490G00003195","towards":"Russell Square Or Tottenham Court Road"},{"icsId":"1000112","id":"490000112P","lat":51.51693,"lon":-0.12021,"name":"Holborn Station","stopLetter":"P","topMostParentId":"490000112P","towards":"Holborn Circus Or Old Street","zone":"1"},{"icsId":"1006203","id":"490006203RA","lat":51.51636,"lon":-0.12384,"name":"Drury Lane","parentId":"490G00006203","stationId":"490G00006203","stopLetter":"S","topMostParentId":"490G00006203","towards":"Tottenham Court Road"},{"icsId":"1023076","id":"490023076W","lat":51.5156,"lon":-0.12734,"name":"St Giles High Street","parentId":"490G00023076","stationId":"490G00023076","stopLetter":"->W","topMostParentId":"490G00023076"}]}]}