{"direction":"outbound","lineId":"n7","lineName":"N7","mode":"bus","stopPointSequences":[{"stopPoint":[{"icsId":"1000162","id":"490000162B","lat":51.54848,"lon":-0.36741,"name":"Northolt Station","stopLetter":"B","topMostParentId":"490000162B","towards":"Greenford, Southall Or Hayes","zone":"5"},{"icsId":"1009959","id":"490009959D","lat":51.54647,"lon":-0.37023,"name":"Moat Farm Road","parentId":"490G00009959","stationId":"490G00009959","stopLetter":"D","topMostParentId":"490G00009959","towards":"Greenford, Southall Or Hayes"},{"icsId":"1006638","id":"490003178S","lat":51.54404,"lon":-0.37446,"name":"Kingston Close","parentId":"490G00006638","stationId":"490G00006638","stopLetter":"TA","topMostParentId":"490G00006638","towards":"Greenford, Southall Or Hayes"},{"icsId":"1013120","id":"490013155S","lat":51.54066,"lon":-0.38215,"name":"Sycamore Close","parentId":"490G00013120","stationId":"490G00013120","stopLetter":"TB","topMostParentId":"490G00013120","towards":"Greenford, Southall Or Hayes"},{"icsId":"1003891","id":"490003891S","lat":51.53961,"lon":-0.38434,"name":"Bengarth Road / Northolt Library","parentId":"490G00003891","stationId":"490G00003891","stopLetter":"TC","topMostParentId":"490G00003891","towards":"Greenford, Southall Or Hayes"},{"icsId":"1014992","id":"490014992S","lat":51.53682,"lon":-0.38947,"name":"Yeading / White Hart Roundabout","parentId":"490G00014992","stationId":"490G00014992","stopLetter":"X","topMostParentId":"490G00014992","towards":"Greenford, Southall Or Hayes"},{"icsId":"1015479","id":"490015479E","lat":51.53502,"lon":-0.38904,"name":"Church Road","parentId":"490G00015479","stationId":"490G00015479","stopLetter":"Y","topMostParentId":"490G00015479","towards":"Ealing Or Southall"},{"icsId":"1008596","id":"490008596E","lat":51.53324,"lon":-0.38484,"name":"Wayfarer Road","parentId":"490G00008596","stationId":"490G00008596","stopLetter":"->E","topMostParentId":"490G00008596","towards":"Greenford, Ealing Or Southall"},{"icsId":"1004373","id":"490004373E","lat":51.53293,"lon":-0.37827,"name":"Broadmead Road","parentId":"490G00004373","stationId":"490G00004373","stopLetter":"WE","topMostParentId":"490G00004373","towards":"Ealing, Ealing Hospital Or Southall"},{"icsId":"1003116","id":"490003116E","lat":51.53275,"lon":-0.37287,"name":"Adrienne Avenue","parentId":"490G00003116","stationId":"490G00003116","stopLetter":"WF","topMostParentId":"490G00003116","towards":"Ealing, Ealing Hospital Or Southall"},{"icsId":"1007782","id":"490007782E","lat":51.53237,"lon":-0.36829,"name":"Greenford High School","parentId":"490G00007782","stationId":"490G00007782","stopLetter":"EG","topMostParentId":"490G00007782","towards":"Ealing, Ealing Hospital Or Greenford Roundabout"},{"icsId":"1006369","id":"490006369E","lat":51.52994,"lon":-0.36362,"name":"Eastmead Avenue","parentId":"490G00006369","stationId":"490G00006369","stopLetter":"EH","topMostParentId":"490G00006369","towards":"Ealing, Ealing Hospital Or Greenford Roundabout"},{"icsId":"1010897","id":"490010897E1","lat":51.52868,"lon":-0.35928,"name":"Pembroke Road","parentId":"490G00010897","stationId":"490G00010897","stopLetter":"H","topMostParentId":"490G00010897","towards":"Ealing, Ealing Hospital Or Greenford Roundabout"},{"icsId":"1007446","id":"490007446C","lat":51.52803,"lon":-0.35407,"name":"Greenford Broadway","parentId":"490G00007446","stationId":"490G00007446","stopLetter":"J","topMostParentId":"490G00007446","towards":"Ealing, Ealing Hospital Or Greenford Roundabout"},{"icsId":"1007441","id":"490007441J","lat":51.5274,"lon":-0.35076,"name":"Clifton Road","parentId":"490G00007441","stationId":"490G00007441","stopLetter":"L","topMostParentId":"490G00007441","towards":"Perivale, Ealing Or West Ealing"},{"icsId":"1007443","id":"490007443E","lat":51.52738,"lon":-0.34185,"name":"Greenford Avenue","parentId":"490G00007443","stationId":"490G00007443","stopLetter":"RS","topMostParentId":"490G00007443","towards":"Perivale, Ealing Or West Ealing"},{"icsId":"1005880","id":"490005880E","lat":51.52772,"lon":-0.3386,"name":"Cuckoo Avenue","parentId":"490G00005880","stationId":"490G00005880","stopLetter":"RT","topMostParentId":"490G00005880","towards":"Perivale, Ealing Or West Ealing"},{"icsId":"1007609","id":"490007609E","lat":51.52865,"lon":-0.33154,"name":"Gurnell Leisure Centre","parentId":"490G00007609","stationId":"490G00007609","stopLetter":"RW","topMostParentId":"490G00007609","towards":"Perivale, Ealing Or West Ealing"},{"icsId":"1011787","id":"490011787S","lat":51.528,"lon":-0.32638,"name":"Ruislip Road East","parentId":"490G00011787","stationId":"490G00011787","stopLetter":"AA","topMostParentId":"490G00011787","towards":"Ealing Broadway"},{"icsId":"1011949","id":"490011949S","lat":51.52504,"lon":-0.32412,"name":"Scotch Common","parentId":"490G00011949","stationId":"490G00011949","stopLetter":"AB","topMostParentId":"490G00011949","towards":"Ealing Broadway"},{"icsId":"1008654","id":"490008654E","lat":51.52509,"lon":-0.31916,"name":"Kent Gardens","parentId":"490G00008654","stationId":"490G00008654","stopLetter":"SC","topMostParentId":"490G00008654","towards":"Ealing Broadway"},{"icsId":"1011029","id":"490011029E","lat":51.52613,"lon":-0.31386,"name":"Pitshanger Library","parentId":"490G00011029","stationId":"490G00011029","stopLetter":"SM","topMostParentId":"490G00011029","towards":"Ealing Broadway"},{"icsId":"1012634","id":"490012634E","lat":51.52692,"lon":-0.30946,"name":"St Barnabas Church","parentId":"490G00012634","stationId":"490G00012634","stopLetter":"SN","topMostParentId":"490G00012634","towards":"Ealing Broadway"},{"icsId":"1005149","id":"490005149S","lat":51.5236,"lon":-0.30827,"name":"Fairlea Place","parentId":"490G00005149","stationId":"490G00005149","stopLetter":"SP","topMostParentId":"490G00005149","towards":"Ealing Broadway"},{"icsId":"1010001","id":"490010001S","lat":51.52155,"lon":-0.3066,"name":"Montpelier Road","parentId":"490G00010001","stationId":"490G00010001","stopLetter":"SQ","topMostParentId":"490G00010001","towards":"Ealing Broadway"},{"icsId":"1009636","id":"490009637S","lat":51.52025,"lon":-0.30611,"name":"Marchwood Crescent","parentId":"490G00009636","stationId":"490G00009636","stopLetter":"SR","topMostParentId":"490G00009636","towards":"Northfields"},{"icsId":"1006279","id":"490006279S","lat":51.51677,"lon":-0.30635,"name":"Castlebar Road","parentId":"490G00006279","stationId":"490G00006279","stopLetter":"ST","topMostParentId":"490G00006279","towards":"West Ealing and Northfields"},{"icsId":"1007939","id":"490000062A","lat":51.51565,"lon":-0.30225,"name":"Ealing Broadway Station   / Haven Green","stopLetter":"A","topMostParentId":"490000062A"},{"icsId":"1000062","id":"490000062F","lat":51.51496,"lon":-0.30227,"name":"Ealing Broadway Station","stopLetter":"F","topMostParentId":"490000062F","towards":"Boston Manor Or Northfields","zone":"3"},{"icsId":"1010339","id":"490010339E","lat":51.51316,"lon":-0.29694,"name":"North Common Road","parentId":"490G00010339","stationId":"490G00010339","stopLetter":"EM","topMostParentId":"490G00010339","towards":"Acton Or Hanger Lane"},{"icsId":"1007749","id":"490007749E","lat":51.512,"lon":-0.29354,"name":"Hanger Lane","parentId":"490G00007749","stationId":"490G00007749","stopLetter":"EN","topMostParentId":"490G00007749","towards":"Acton"},{"icsId":"1000063","id":"490000063S","lat":51.5107,"lon":-0.28837,"name":"Ealing Common Station","stopLetter":"ET","topMostParentId":"490000063S","towards":"Shepherds Bush","zone":"3"},{"icsId":"1004009","id":"490004009E","lat":51.50929,"lon":-0.28406,"name":"Birch Grove","parentId":"490G00004009","stationId":"490G00004009","stopLetter":"EU","topMostParentId":"490G00004009","towards":"Shepherd's Bush"},{"icsId":"1013879","id":"490013879R","lat":51.50865,"lon":-0.2815,"name":"Twyford Avenue","parentId":"490G00013879","stationId":"490G00013879","stopLetter":"EV","topMostParentId":"490G00013879","towards":"Shepherd's Bush"},{"icsId":"1003089","id":"490003089B","lat":51.50843,"lon":-0.27735,"name":"Denehurst Gardens","parentId":"490G00003089","stationId":"490G00003089","stopLetter":"B","topMostParentId":"490G00003089","towards":"Hammersmith Or Shepherd's Bush"},{"icsId":"1008835","id":"490008835D","lat":51.50789,"lon":-0.2731,"name":"King Street","parentId":"490G00008835","stationId":"490G00008835","stopLetter":"D","topMostParentId":"490G00008835","towards":"Shepherd's Bush, Hammersmith, Chiswick Or E Acton"},{"icsId":"1003083","id":"490003083F","lat":51.50675,"lon":-0.26725,"name":"Acton Old Town Hall","parentId":"490G00003083","stationId":"490G00003083","stopLetter":"F","topMostParentId":"490G00003083","towards":"Shepherd's Bush, Hammersmith, Chiswick Or E Acton"},{"icsId":"1001002","id":"490001002H","lat":51.50655,"lon":-0.26287,"name":"Acton Central Station","stopLetter":"H","topMostParentId":"490001002H","towards":"East Acton, Hammersmith Or Shepherd's Bush"},{"icsId":"1003084","id":"490003084E","lat":51.5066,"lon":-0.2603,"name":"Acton Park","parentId":"490G00003084","stationId":"490G00003084","stopLetter":"VP","topMostParentId":"490G00003084","towards":"East Acton, Hammersmith Or Shepherd's Bush"},{"icsId":"1015431","id":"490015431N","lat":51.50715,"lon":-0.25714,"name":"Acton Park / Greenview Close","parentId":"490G00015431","stationId":"490G00015431","stopLetter":"EW","topMostParentId":"490G00015431","towards":"Ladbroke Grove"},{"icsId":"1007275","id":"490007275N","lat":51.51003,"lon":-0.25793,"name":"Goldsmith Close","parentId":"490G00007275","stationId":"490G00007275","stopLetter":"EZ","topMostParentId":"490G00007275","towards":"East Acton"},{"icsId":"1012016","id":"490012016N","lat":51.51093,"lon":-0.25729,"name":"Shaa Road","parentId":"490G00012016","stationId":"490G00012016","stopLetter":"EU","topMostParentId":"490G00012016","towards":"Ladbroke Grove"},{"icsId":"1019722","id":"490012067E","lat":51.51243,"lon":-0.25365,"name":"Glendun Road","parentId":"490G00019722","stationId":"490G00019722","stopLetter":"S","topMostParentId":"490G00019722","towards":"Ladbroke Grove"},{"icsId":"1014446","id":"490014446K","lat":51.51333,"lon":-0.24931,"name":"Old Oak Common Lane / Savoy Circus","parentId":"490G00014446","stationId":"490G00014446","stopLetter":"K","topMostParentId":"490G00014446","towards":"Harlesden, White City Or Ladbroke Grove"},{"icsId":"1006221","id":"490000065C","lat":51.51535,"lon":-0.24782,"name":"East Acton Station / Fitzneal Street","parentId":"490G000491","stationId":"490G000491","stopLetter":"C","topMostParentId":"490G000491","towards":"Ladbroke Grove Or Shepherd's Bush"},{"icsId":"1014971","id":"490014971D","lat":51.51567,"lon":-0.24178,"name":"Wulfstan Street","parentId":"490G00014971","stationId":"490G00014971","stopLetter":"A","topMostParentId":"490G00014971","towards":"Ladbroke Grove Or Shepherd's Bush"},{"icsId":"1007707","id":"490007707E","lat":51.51626,"lon":-0.23474,"name":"Hammersmith Hospital","parentId":"490G00007707","stationId":"490G00007707","stopLetter":"B","topMostParentId":"490G00007707","towards":"Ladbroke Grove Or Shepherd's Bush"},{"icsId":"1014869","id":"490014869E","lat":51.51686,"lon":-0.22813,"name":"Latymer Upper School / Playing Fields","parentId":"490G00014869","stationId":"490G00014869","stopLetter":"C","topMostParentId":"490G00014869","towards":"Ladbroke Grove, Shepherd's Bush Or Hammersmith"},{"icsId":"1010398","id":"490010398N","lat":51.51808,"lon":-0.22786,"name":"North Pole Road","parentId":"490G00010398","stationId":"490G00010398","stopLetter":"Q","topMostParentId":"490G00010398","towards":"Harlesden Or Ladbroke Grove"},{"icsId":"1011962","id":"490011962E","lat":51.51923,"lon":-0.22757,"name":"North Pole Road / Scrubs Lane","parentId":"490G00011962","stationId":"490G00011962","stopLetter":"T","topMostParentId":"490G00011962","towards":"Ladbroke Grove"},{"icsId":"1008175","id":"490008175E","lat":51.5212,"lon":-0.22394,"name":"Highlever Road","parentId":"490G00008175","stationId":"490G00008175","stopLetter":"U","topMostParentId":"490G00008175","towards":"Ladbroke Grove"},{"icsId":"1005936","id":"490005936E","lat":51.52232,"lon":-0.22222,"name":"Dalgarno Gardens","parentId":"490G00005936","stationId":"490G00005936","stopLetter":"V","topMostParentId":"490G00005936","towards":"Ladbroke Grove"},{"icsId":"1012645","id":"490012645S","lat":51.52243,"lon":-0.21925,"name":"St Charles Health & Wellbeing Centre","parentId":"490G00012645","stationId":"490G00012645","stopLetter":"A","topMostParentId":"490G00012645","towards":"Paddington Or Shepherd's Bush"},{"icsId":"1012646","id":"490012646S","lat":51.51952,"lon":-0.21757,"name":"St Charles Square","parentId":"490G00012646","stationId":"490G00012646","stopLetter":"B","topMostParentId":"490G00012646","towards":"Paddington Or Shepherd's Bush"},{"icsId":"1019158","id":"490004699S","lat":51.51763,"lon":-0.215,"name":"Oxford Gardens","parentId":"490G00019158","stationId":"490G00019158","stopLetter":"C","topMostParentId":"490G00019158","towards":"Paddington Or Shepherd's Bush"},{"icsId":"1004702","id":"490004702K","lat":51.51813,"lon":-0.21134,"name":"Cambridge Gardens / Ladbroke Grove","parentId":"490G000436","stationId":"490G000436","stopLetter":"K","topMostParentId":"490G000436","towards":"Paddington Or Canal Way"},{"icsId":"1000131","id":"490000131B","lat":51.51731,"lon":-0.20978,"name":"Ladbroke Grove Station","stopLetter":"B","topMostParentId":"490000131B","towards":"Notting Hill Gate Or Paddington","zone":"2"},{"icsId":"1011137","id":"490011137E1","lat":51.51662,"lon":-0.20662,"name":"Portobello Road","parentId":"490G00011137","stationId":"490G00011137","stopLetter":"PA","topMostParentId":"490G00011137","towards":"Notting Hill Gate Or Paddington"},{"icsId":"1011158","id":"490011158E","lat":51.5175,"lon":-0.20289,"name":"Powis Gardens","parentId":"490G00011158","stationId":"490G00011158","stopLetter":"PB","topMostParentId":"490G00011158","towards":"Queensway Or Paddington"},{"icsId":"1007420","id":"490008697N","lat":51.51892,"lon":-0.19753,"name":"Shrewsbury Road / Brunel Estate","parentId":"490G00007420","stationId":"490G00007420","stopLetter":"N","topMostParentId":"490G00007420","towards":"Notting Hill Gate Or Paddington"},{"icsId":"1012948","id":"490012948S","lat":51.51798,"lon":-0.19594,"name":"St Stephens Gardens","parentId":"490G00012948","stationId":"490G00012948","stopLetter":"->S","topMostParentId":"490G00012948","towards":"Notting Hill Gate Or Paddington"},{"icsId":"1019760","id":"490014402E","lat":51.51515,"lon":-0.19451,"name":"Chepstow Road / Westbourne Grove","parentId":"490G00019760","stationId":"490G00019760","stopLetter":"PL","topMostParentId":"490G00019760","towards":"Paddington Or Queensway"},{"icsId":"1011366","id":"490011365F","lat":51.51563,"lon":-0.19014,"name":"Queensway","parentId":"490G00011366","stationId":"490G00011366","stopLetter":"F","topMostParentId":"490G00011366","towards":"Paddington"},{"icsId":"1011119","id":"490011119L","lat":51.51645,"lon":-0.1864,"name":"Porchester Terrace North","parentId":"490G00011119","stationId":"490G00011119","stopLetter":"L","topMostParentId":"490G00011119","towards":"Marble Arch"},{"icsId":"1000495","id":"490014406E1","lat":51.51775,"lon":-0.18136,"name":"Bishops Bridge Road / Westbourne Terrace","parentId":"490G000105","stationId":"490G000105","stopLetter":"M","topMostParentId":"490G000105","towards":"Baker Street Or Marble Arch"},{"icsId":"1005166","id":"490005166Z","lat":51.51648,"lon":-0.17822,"name":"Paddington Stn / Eastbourne Terrace","parentId":"490G000450","stationId":"490G000450","stopLetter":"E","topMostParentId":"HUBPAD","towards":"Baker Street Or Marble Arch"},{"icsId":"1001221","id":"490001221H","lat":51.51674,"lon":-0.17367,"name":"Paddington Station","stopLetter":"H","topMostParentId":"490001221H","towards":"Baker Street, Maida Vale Or Marble Arch"},{"icsId":"1012797","id":"490012797P","lat":51.5174,"lon":-0.17249,"name":"St Mary's Hospital","parentId":"490G00012797","stationId":"490G00012797","stopLetter":"P","topMostParentId":"490G00012797","towards":"Baker Street, Marble Arch Or Maida Vale"},{"icsId":"1015044","id":"490013046N","lat":51.51843,"lon":-0.16773,"name":"Sussex Gardens","parentId":"490G00015044","stationId":"490G00015044","stopLetter":"EE","topMostParentId":"490G00015044","towards":"Oxford Circus"},{"icsId":"1007167","id":"490007167V","lat":51.51631,"lon":-0.16466,"name":"George Street","parentId":"490G00007167","stationId":"490G00007167","stopLetter":"EH","topMostParentId":"490G00007167","towards":"Knightsbridge, Oxford Circus Or Victoria"},{"icsId":"1008450","id":"490000144H","lat":51.51352,"lon":-0.16029,"name":"Marble Arch Station  / Edgware Road","parentId":"490G00008450","stationId":"490G00008450","stopLetter":"H","topMostParentId":"490G00008450","towards":"Hyde Park Corner Or Oxford Circus"},{"icsId":"1000144","id":"490000144K","lat":51.51358,"lon":-0.15766,"name":"Marble Arch Station","stopLetter":"K","topMostParentId":"490000144K","towards":"Tottenham Court Road","zone":"1"},{"icsId":"1011985","id":"490011985BC","lat":51.51421,"lon":-0.15179,"name":"Selfridges","parentId":"490G000738","stationId":"490G000738","stopLetter":"BC","topMostParentId":"490G000738","towards":"Piccadilly Circus, Holborn Or Warren Street"},{"icsId":"1015204","id":"490015196OF","lat":51.51499,"lon":-0.14475,"name":"Oxford Circus Station  / John Lewis","parentId":"490G00015204","stationId":"490G00015204","stopLetter":"OF","topMostParentId":"490G00015204","towards":"Piccadilly Circus, Holborn Or Warren Street"}]}]}