{"direction":"outbound","lineId":"n8","lineName":"N8","mode":"bus","stopPointSequences":[{"stopPoint":[{"icsId":"1019878","id":"490006809E1","lat":51.60841,"lon":0.10887,"name":"The Lowe","parentId":"490G00019878","stationId":"490G00019878","stopLetter":"Z","topMostParentId":"490G00019878","towards":"Fairlop"},{"icsId":"1013462","id":"490013454W","lat":51.60758,"lon":0.10946,"name":"Tunstall Avenue","parentId":"490G00013462","stationId":"490G00013462","stopLetter":"P","topMostParentId":"490G00013462","towards":"Barkingside"},{"icsId":"1012469","id":"490012469W","lat":51.60706,"lon":0.10701,"name":"Staggart Green","parentId":"490G00012469","stationId":"490G00012469","stopLetter":"Q","topMostParentId":"490G00012469","towards":"Barkingside"},{"icsId":"1007648","id":"490007648W","lat":51.60605,"lon":0.10257,"name":"Hainault Fire Station","parentId":"490G00007648","stationId":"490G00007648","stopLetter":"R","topMostParentId":"490G00007648","towards":"Barkingside"},{"icsId":"1003813","id":"490003813W","lat":51.60533,"lon":0.09939,"name":"Beech Grove","parentId":"490G00003813","stationId":"490G00003813","stopLetter":"S","topMostParentId":"490G00003813","towards":"Barkingside"},{"icsId":"1000095","id":"490000095A","lat":51.60419,"lon":0.09447,"name":"Hainault Station","stopLetter":"U","topMostParentId":"490000095A","towards":"Barkingside","zone":"4"},{"icsId":"1013783","id":"490013783W","lat":51.60291,"lon":0.08893,"name":"Trelawney Road","parentId":"490G00013783","stationId":"490G00013783","stopLetter":"V","topMostParentId":"490G00013783","towards":"Barkingside"},{"icsId":"1013481","id":"490013481S","lat":51.60088,"lon":0.08453,"name":"New North Road","parentId":"490G00013481","stationId":"490G00013481","stopLetter":"W","topMostParentId":"490G00013481","towards":"Gants Hill"},{"icsId":"1010189","id":"490010189S","lat":51.59787,"lon":0.08484,"name":"Neville Road","parentId":"490G00010189","stationId":"490G00010189","stopLetter":"X","topMostParentId":"490G00010189","towards":"Gants Hill"},{"icsId":"1013704","id":"490013704S","lat":51.59578,"lon":0.08448,"name":"Tomswood Hill","parentId":"490G00013704","stationId":"490G00013704","stopLetter":"K","topMostParentId":"490G00013704","towards":"Gants Hill"},{"icsId":"1007059","id":"490007059D","lat":51.59256,"lon":0.08418,"name":"Fullwell Cross","parentId":"490G00007059","stationId":"490G00007059","stopLetter":"D","topMostParentId":"490G00007059","towards":"Gants Hill Or Newbury Park"},{"icsId":"1014316","id":"490014316G","lat":51.59094,"lon":0.08296,"name":"Waverley Gardens","parentId":"490G00014316","stationId":"490G00014316","stopLetter":"G","topMostParentId":"490G00014316","towards":"Gants Hill Or Newbury Park"},{"icsId":"1020073","id":"490007012N","lat":51.58886,"lon":0.08115,"name":"Barkingside Police Station","parentId":"490G00020073","stationId":"490G00020073","stopLetter":"N","topMostParentId":"490G00020073","towards":"Gants Hill Or Newbury Park"},{"icsId":"1000341","id":"490004258S","lat":51.58618,"lon":0.07969,"name":"Brandville Gardens","parentId":"490G00000341","stationId":"490G00000341","stopLetter":"Y","topMostParentId":"490G00000341","towards":"Gants Hill"},{"icsId":"1007060","id":"490007060S","lat":51.58469,"lon":0.07816,"name":"Fullwood Primary School","parentId":"490G00007060","stationId":"490G00007060","stopLetter":"CA","topMostParentId":"490G00007060","towards":"Ilford"},{"icsId":"1007695","id":"490007695S","lat":51.58219,"lon":0.07499,"name":"Hamilton Avenue","parentId":"490G00007695","stationId":"490G00007695","stopLetter":"CB","topMostParentId":"490G00007695","towards":"Ilford"},{"icsId":"1007114","id":"490007110S","lat":51.57981,"lon":0.07339,"name":"Icknield Drive","parentId":"490G00007114","stationId":"490G00007114","stopLetter":"CC","topMostParentId":"490G00007114","towards":"Ilford"},{"icsId":"1012090","id":"490012078S","lat":51.57816,"lon":0.07125,"name":"Martley Drive","parentId":"490G00012090","stationId":"490G00012090","stopLetter":"CD","topMostParentId":"490G00012090","towards":"Ilford"},{"icsId":"1000085","id":"490015200E","lat":51.57727,"lon":0.06848,"name":"Gants Hill Station","stopLetter":"CE","topMostParentId":"490015200E","towards":"Ilford","zone":"4"},{"icsId":"1015203","id":"490000085H","lat":51.57642,"lon":0.06484,"name":"Clarence Avenue","parentId":"490G000879","stationId":"490G000879","stopLetter":"EV","topMostParentId":"490G000879","towards":"Ilford Or Leytonstone"},{"icsId":"1003829","id":"490003829W","lat":51.57638,"lon":0.05906,"name":"Beehive Lane","parentId":"490G00003829","stationId":"490G00003829","stopLetter":"EW","topMostParentId":"490G00003829","towards":"Leytonstone"},{"icsId":"1013332","id":"490013332W","lat":51.5761,"lon":0.05185,"name":"The Drive","parentId":"490G00013332","stationId":"490G00013332","stopLetter":"RN","topMostParentId":"490G00013332","towards":"Falmouth Gardens Or Leytonstone"},{"icsId":"1000190","id":"490015554C","lat":51.57585,"lon":0.04566,"name":"Redbridge Station","stopLetter":"RC","topMostParentId":"490015554C","towards":"Falmouth Gardens, Leytonstone Or Snaresbrook","zone":"4"},{"icsId":"1011477","id":"490011477W","lat":51.57601,"lon":0.04036,"name":"Redbridge Lane West","parentId":"490G00011477","stationId":"490G00011477","stopLetter":"RD","topMostParentId":"490G00011477","towards":"Leytonstone"},{"icsId":"1014674","id":"490014674W","lat":51.57641,"lon":0.03226,"name":"Wigram Road","parentId":"490G00014674","stationId":"490G00014674","stopLetter":"S","topMostParentId":"490G00014674","towards":"Leytonstone"},{"icsId":"1000250","id":"490000250A","lat":51.57585,"lon":0.0288,"name":"Wanstead Station","stopLetter":"A","topMostParentId":"490000250A","towards":"Leytonstone","zone":"4"},{"icsId":"1000250","id":"490015125C","lat":51.57508,"lon":0.0267,"name":"Wanstead Station  / George Green","stopLetter":"C","topMostParentId":"490015125C","towards":"Leytonstone, Forest Gate Or Manor Park","zone":"4"},{"icsId":"1006778","id":"490006778S","lat":51.57242,"lon":0.02364,"name":"Felstead Road","parentId":"490G00006778","stationId":"490G00006778","stopLetter":"T","topMostParentId":"490G00006778","towards":"Forest Gate, Manor Park Or Leytonstone"},{"icsId":"1004653","id":"490004653S","lat":51.57041,"lon":0.02355,"name":"Bush Road","parentId":"490G00004653","stationId":"490G00004653","stopLetter":"U","topMostParentId":"490G00004653","towards":"Forest Gate, Manor Park Or Leytonstone"},{"icsId":"1007491","id":"490007491R","lat":51.57049,"lon":0.01768,"name":"Bush Road / Green Man Roundabout","parentId":"490G00007491","stationId":"490G00007491","stopLetter":"R","topMostParentId":"490G00007491","towards":"Leytonstone and Whipps Cross"},{"icsId":"1007490","id":"490007490P","lat":51.57076,"lon":0.01514,"name":"Green Man Roundabout","parentId":"490G00007490","stationId":"490G00007490","stopLetter":"P","topMostParentId":"490G00007490","towards":"Thatched House Or Leytonstone Station"},{"icsId":"1000137","id":"490000137W","lat":51.56907,"lon":0.00929,"name":"Leytonstone Station","stopLetter":"W","topMostParentId":"490000137W","towards":"Leyton Or Stratford","zone":"3+4"},{"icsId":"1007882","id":"490007882K","lat":51.56759,"lon":0.01077,"name":"Harvey Road","parentId":"490G00007882","stationId":"490G00007882","stopLetter":"K","topMostParentId":"490G00007882","towards":"Leyton Or Stratford"},{"icsId":"1009846","id":"490009846L","lat":51.56596,"lon":0.0103,"name":"Michael Road","parentId":"490G00009846","stationId":"490G00009846","stopLetter":"L","topMostParentId":"490G00009846","towards":"Leyton Or Stratford"},{"icsId":"1001179","id":"490001179S","lat":51.56366,"lon":0.00984,"name":"Leytonstone High Road Station","stopLetter":"J","topMostParentId":"490001179S","towards":"Stratford"},{"icsId":"1009141","id":"490009141S","lat":51.56034,"lon":0.00806,"name":"Leytonstone Fire Station","parentId":"490G00009141","stationId":"490G00009141","stopLetter":"D","topMostParentId":"490G00009141","towards":"Leyton Or Stratford"},{"icsId":"1016314","id":"490016314S","lat":51.55878,"lon":0.00718,"name":"Harrow Road","parentId":"490G00016314","stationId":"490G00016314","stopLetter":"N","topMostParentId":"490G00016314","towards":"Stratford Or Leyton"},{"icsId":"1007849","id":"490007849S","lat":51.55716,"lon":0.0064,"name":"Harrow Green","parentId":"490G00007849","stationId":"490G00007849","stopLetter":"P","topMostParentId":"490G00007849","towards":"Stratford Or Stratford City"},{"icsId":"1011421","id":"490011421S","lat":51.55433,"lon":0.00517,"name":"Ranelagh Road","parentId":"490G00011421","stationId":"490G00011421","stopLetter":"Q","topMostParentId":"490G00011421","towards":"Stratford Or Stratford City"},{"icsId":"1009140","id":"490009140S","lat":51.55325,"lon":0.00538,"name":"Leytonstone High Road / Thatched House","parentId":"490G00009140","stationId":"490G00009140","stopLetter":"R","topMostParentId":"490G00009140","towards":"Stratford Or Stratford City"},{"icsId":"1008540","id":"490008540S","lat":51.55084,"lon":0.00569,"name":"Janson Road","parentId":"490G00008540","stationId":"490G00008540","stopLetter":"MD","topMostParentId":"490G00008540","towards":"Stratford"},{"icsId":"1005214","id":"490005214S","lat":51.54921,"lon":0.00523,"name":"Chobham Road","parentId":"490G00005214","stationId":"490G00005214","stopLetter":"ME","topMostParentId":"490G00005214","towards":"Plaistow"},{"icsId":"1001190","id":"490001190S1","lat":51.54694,"lon":0.0063,"name":"Maryland Station","stopLetter":"MF","topMostParentId":"490001190S1","towards":"Plaistow"},{"icsId":"1009536","id":"490009536S","lat":51.54497,"lon":0.00457,"name":"Manbey Grove","parentId":"490G00009536","stationId":"490G00009536","stopLetter":"MH","topMostParentId":"490G00009536","towards":"Plaistow"},{"icsId":"1000983","id":"490000983Z","lat":51.54345,"lon":0.0023,"name":"Salway Place","parentId":"490G000263","stationId":"490G000263","stopLetter":"H","topMostParentId":"490G000263"},{"icsId":"1012904","id":"490012904Q","lat":51.54112,"lon":-0.00164,"name":"Stratford Bus Station","parentId":"490G000773","stationId":"490G000773","stopLetter":"P","topMostParentId":"HUBSRA","towards":"Plaistow"},{"icsId":"1012904","id":"490012904T","lat":51.54094,"lon":-0.00246,"name":"Stratford Bus Station","parentId":"490G000773","stationId":"490G000773","stopLetter":"E","topMostParentId":"HUBSRA","towards":"Bow"},{"icsId":"1004815","id":"490004815S","lat":51.53735,"lon":-0.00257,"name":"Stratford High St / Carpenters Road","parentId":"490G00004815","stationId":"490G00004815","stopLetter":"J","topMostParentId":"490G00004815","towards":"Mile End, Old Ford Or Poplar"},{"icsId":"1014249","id":"490014249S","lat":51.53584,"lon":-0.00458,"name":"Warton Road","parentId":"490G00014249","stationId":"490G00014249","stopLetter":"K","topMostParentId":"490G00014249","towards":"Mile End, Old Ford Or Poplar"},{"icsId":"1003025","id":"490003025W","lat":51.53378,"lon":-0.00718,"name":"Abbey Lane","parentId":"490G00003025","stationId":"490G00003025","stopLetter":"L","topMostParentId":"490G00003025","towards":"Mile End, Old Ford Or Poplar"},{"icsId":"1004215","id":"490004215P","lat":51.53031,"lon":-0.01208,"name":"Bow Flyover","parentId":"490G000422","stationId":"490G000422","stopLetter":"P","topMostParentId":"490G000422","towards":"Mile End, Old Ford Or Poplar"},{"icsId":"1011654","id":"490011654N","lat":51.53329,"lon":-0.02611,"name":"Roman Road Market","parentId":"490G00011654","stationId":"490G00011654","stopLetter":"OA","topMostParentId":"490G00011654","towards":"Bethnal Green Or Hackney Wick"},{"icsId":"1010552","id":"490010552N","lat":51.53543,"lon":-0.02786,"name":"Old Ford Road","parentId":"490G00010552","stationId":"490G00010552","stopLetter":"OB","topMostParentId":"490G00010552","towards":"Bethnal Green Or Hackney Wick"},{"icsId":"1010561","id":"490010561W","lat":51.53573,"lon":-0.02894,"name":"Parnell Road","parentId":"490G00010561","stationId":"490G00010561","stopLetter":"OC","topMostParentId":"490G00010561","towards":"Bethnal Green"},{"icsId":"1012461","id":"490012461S","lat":51.53462,"lon":-0.03376,"name":"Alice Lane","parentId":"490G00012461","stationId":"490G00012461","stopLetter":"A","topMostParentId":"490G00012461","towards":"Bethnal Green"},{"icsId":"1006904","id":"490006904W","lat":51.53224,"lon":-0.03293,"name":"Ford Road","parentId":"490G00006904","stationId":"490G00006904","stopLetter":"B","topMostParentId":"490G00006904","towards":"Bethnal Green Or Mile End"},{"icsId":"1009786","id":"490009786W","lat":51.53165,"lon":-0.03623,"name":"Medway Road","parentId":"490G00009786","stationId":"490G00009786","stopLetter":"C","topMostParentId":"490G00009786","towards":"Bethnal Green Or Mile End"},{"icsId":"1007914","id":"490007914W","lat":51.53053,"lon":-0.04129,"name":"Haverfield Green / Grove Road","parentId":"490G00007914","stationId":"490G00007914","stopLetter":"D","topMostParentId":"490G00007914","towards":"Bethnal Green"},{"icsId":"1004144","id":"490012204W","lat":51.52934,"lon":-0.04629,"name":"Bonner Street","parentId":"490G00004144","stationId":"490G00004144","stopLetter":"HD","topMostParentId":"490G00004144","towards":"Hackney Or Shoreditch"},{"icsId":"1019079","id":"490004144W","lat":51.52864,"lon":-0.04858,"name":"Morpeth Street","parentId":"490G00019079","stationId":"490G00019079","stopLetter":"HE","topMostParentId":"490G00019079","towards":"Hackney Or Shoreditch"},{"icsId":"1007242","id":"490007242W","lat":51.52812,"lon":-0.05012,"name":"Globe Road","parentId":"490G00007242","stationId":"490G00007242","stopLetter":"HF","topMostParentId":"490G00007242","towards":"Hackney Or Shoreditch"},{"icsId":"1000022","id":"490000022B","lat":51.5274,"lon":-0.05455,"name":"Bethnal Green Station","stopLetter":"B","topMostParentId":"490000022B","towards":"Hackney Or Shoreditch","zone":"2"},{"icsId":"1014721","id":"490014721E","lat":51.52705,"lon":-0.05864,"name":"Wilmot Street","parentId":"490G00014721","stationId":"490G00014721","stopLetter":"E","topMostParentId":"490G00014721","towards":"Liverpool Street Or Whitechapel"},{"icsId":"1003638","id":"490003638W","lat":51.52616,"lon":-0.0667,"name":"Barnet Grove","parentId":"490G00003638","stationId":"490G00003638","stopLetter":"SD","topMostParentId":"490G00003638","towards":"Liverpool Street"},{"icsId":"1004313","id":"490004313SB","lat":51.52515,"lon":-0.07092,"name":"Brick Lane","parentId":"490G00004313","stationId":"490G00004313","stopLetter":"SB","topMostParentId":"490G00004313","towards":"Liverpool Street"},{"icsId":"1001571","id":"490006398K","lat":51.52357,"lon":-0.076,"name":"Shoreditch High Street Station","stopLetter":"K","topMostParentId":"490006398K","towards":"Bank Or London Bridge"},{"icsId":"1005524","id":"490005524D","lat":51.52193,"lon":-0.07815,"name":"Commercial Street / Worship Street","parentId":"490G00005524","stationId":"490G00005524","stopLetter":"D","topMostParentId":"490G00005524","towards":"Aldgate, Bank Or Monument"},{"icsId":"1012391","id":"490011187S","lat":51.51978,"lon":-0.07897,"name":"Primrose Street","parentId":"490G00012391","stationId":"490G00012391","stopLetter":"J","topMostParentId":"490G00012391","towards":"Aldgate, Bank Or Monument"},{"icsId":"1000138","id":"490000138L","lat":51.51796,"lon":-0.07991,"name":"Liverpool Street Station","stopLetter":"L","topMostParentId":"490000138L","towards":"Aldgate Or Bank","zone":"1"},{"icsId":"1002303","id":"490004043S","lat":51.51573,"lon":-0.082,"name":"Camomile Street","parentId":"490G00002303","stationId":"490G00002303","stopLetter":"Y","topMostParentId":"490G00002303","towards":"London Bridge Or St Paul's"},{"icsId":"1007606","id":"490000013E","lat":51.51327,"lon":-0.08775,"name":"Bank Station  / Cornhill","parentId":"490G000556","stationId":"490G000556","stopLetter":"E","topMostParentId":"HUBBAN","towards":"St Paul's Cathedral"},{"icsId":"1007596","id":"490007596L","lat":51.51359,"lon":-0.0913,"name":"Poultry / Bank Station","parentId":"490G00007596","stationId":"490G00007596","stopLetter":"L","topMostParentId":"490G00007596","towards":"Holborn"},{"icsId":"1015124","id":"490015124Z","lat":51.51419,"lon":-0.09505,"name":"Bread Street","parentId":"490G000861","stationId":"490G000861","stopLetter":"SN","topMostParentId":"490G000861","towards":"Tottenham Court Road"},{"icsId":"1000225","id":"490000225T","lat":51.51525,"lon":-0.09851,"name":"St Paul's Station","stopLetter":"SQ","topMostParentId":"490000225T","towards":"Aldwych Or Tottenham Court Road","zone":"1"},{"icsId":"1001067","id":"490001067R","lat":51.51648,"lon":-0.10291,"name":"City Thameslink Station","stopLetter":"HK","topMostParentId":"490001067R","towards":"Tottenham Crt Rd, Aldwych Or King's Cross"},{"icsId":"1015096","id":"490015096L","lat":51.51753,"lon":-0.10651,"name":"Holborn Circus","parentId":"490G00015096","stationId":"490G00015096","stopLetter":"L","topMostParentId":"490G00015096","towards":"Tottenham Crt Rd, Aldwych Or King's Cross"},{"icsId":"1008275","id":"490008275G","lat":51.51777,"lon":-0.10875,"name":"Holborn Circus / Fetter Lane","parentId":"490G00008275","stationId":"490G00008275","stopLetter":"G","topMostParentId":"490G00008275","towards":"Aldwych Or Tottenham Court Road"},{"icsId":"1000044","id":"490000044F","lat":51.51816,"lon":-0.11218,"name":"Chancery Lane Station","stopLetter":"F","topMostParentId":"490000044F","towards":"Aldwych Or Tottenham Court Road","zone":"1"},{"icsId":"1004514","id":"490004514W","lat":51.51811,"lon":-0.11464,"name":"Brownlow Street","parentId":"490G00004514","stationId":"490G00004514","stopLetter":"R","topMostParentId":"490G00004514","towards":"Aldwych Or Tottenham Court Road"},{"icsId":"1000112","id":"490015239K","lat":51.51767,"lon":-0.11848,"name":"Holborn Station","stopLetter":"K","topMostParentId":"490015239K","towards":"Waterloo Or Tottenham Court Road","zone":"1"},{"icsId":"1008166","id":"490008166Q","lat":51.51741,"lon":-0.12148,"name":"High Holborn","parentId":"490G000595","stationId":"490G000595","stopLetter":"Q","topMostParentId":"490G000595","towards":"Oxford Circus"},{"icsId":"1008174","id":"4900008166W","lat":51.51721,"lon":-0.12362,"name":"New Oxford Street / High Holborn","parentId":"490G00008174","stationId":"490G00008174","stopLetter":"R","topMostParentId":"490G00008174","towards":"Oxford Circus"},{"icsId":"1000235","id":"490000235X","lat":51.51668,"lon":-0.12812,"name":"Tottenham Court Road Station","stopLetter":"X","topMostParentId":"490000235X","towards":"Oxford Circus Or Piccadilly Circus","zone":"1"},{"icsId":"1000235","id":"490000235YB","lat":51.5161,"lon":-0.13407,"name":"Tottenham Court Road Station","stopLetter":"YB","topMostParentId":"490000235YB","towards":"Marble Arch","zone":"1"},{"icsId":"1010689","id":"490010689KB","lat":51.51547,"lon":-0.13992,"name":"Great Titchfield St / Oxford Circus Stn","parentId":"490G000691","stationId":"490G000691","stopLetter":"OP","topMostParentId":"490G000691","towards":"Marble Arch"}]}]}