{"direction":"outbound","lineId":"n89","lineName":"N89","mode":"bus","stopPointSequences":[{"stopPoint":[{"icsId":"1013766","id":"490013766G","lat":51.50864,"lon":-0.12623,"name":"Trafalgar Square / Charing Cross Stn","parentId":"490G000803","stationId":"490G000803","stopLetter":"G","topMostParentId":"HUBCHX","towards":"Aldwych"},{"icsId":"1012247","id":"490012247A","lat":51.5104,"lon":-0.12182,"name":"Southampton Street / Covent Garden","parentId":"490G00012247","stationId":"490G00012247","stopLetter":"A","topMostParentId":"490G00012247","towards":"Fleet Street, Holborn Or Waterloo"},{"icsId":"1003191","id":"490003191D","lat":51.5127,"lon":-0.11859,"name":"Aldwych","parentId":"490G000385","stationId":"490G000385","stopLetter":"D","topMostParentId":"490G000385","towards":"Ludgate Circus"},{"icsId":"1011757","id":"490011757L","lat":51.51319,"lon":-0.1146,"name":"The Royal Courts of Justice","parentId":"490G000731","stationId":"490G000731","stopLetter":"L","topMostParentId":"490G000731","towards":"St Paul's"},{"icsId":"1006826","id":"490006826E","lat":51.51425,"lon":-0.10875,"name":"Fetter Lane","parentId":"490G00006826","stationId":"490G00006826","stopLetter":"->E","topMostParentId":"490G00006826","towards":"Bank, Clerkenwell Green Or Moorgate"},{"icsId":"1019205","id":"490012105HA","lat":51.51423,"lon":-0.10591,"name":"Ludgate Circus","parentId":"490G00019205","stationId":"490G00019205","stopLetter":"E","topMostParentId":"490G00019205","towards":"Bank, Clerkenwell Green Or Moorgate"},{"icsId":"1020084","id":"490000023T","lat":51.51035,"lon":-0.10424,"name":"Blackfriars Station  / North Entrance","parentId":"490G00020084","stationId":"490G00020084","stopLetter":"L","topMostParentId":"490G00020084","towards":"Elephant & Castle"},{"icsId":"1013934","id":"490013934S","lat":51.50821,"lon":-0.1043,"name":"Blackfriars Station / South Entrance","parentId":"490G00013934","stationId":"490G00013934","stopLetter":"D","topMostParentId":"HUBBFR","towards":"Elephant & Castle"},{"icsId":"1012526","id":"490012526SC","lat":51.50572,"lon":-0.10442,"name":"Stamford Street","parentId":"490G00012526","stationId":"490G00012526","stopLetter":"SC","topMostParentId":"490G00012526","towards":"Elephant & Castle"},{"icsId":"1000215","id":"490013323SB","lat":51.50326,"lon":-0.10445,"name":"Southwark Station","stopLetter":"SB","topMostParentId":"490013323SB","towards":"Elephant & Castle","zone":"1"},{"icsId":"1011082","id":"490011082S","lat":51.50235,"lon":-0.10447,"name":"Pocock Street","parentId":"490G00011082","stationId":"490G00011082","stopLetter":"W","topMostParentId":"490G00011082","towards":"Bricklayers Arms Or Camberwell Green"},{"icsId":"1012693","id":"490015140S","lat":51.49941,"lon":-0.10468,"name":"St George's Circus","parentId":"490G00012693","stationId":"490G00012693","stopLetter":"Y","topMostParentId":"490G00012693","towards":"Bricklayers Arms Or Camberwell Green"},{"icsId":"1009281","id":"490009281D","lat":51.49663,"lon":-0.102,"name":"Elephant & Castle / London Road","parentId":"490G000642","stationId":"490G000642","stopLetter":"D","topMostParentId":"490G000642","towards":"Camberwell Green"},{"icsId":"1000073","id":"490000073R","lat":51.49224,"lon":-0.09814,"name":"Elephant & Castle Station","stopLetter":"R","topMostParentId":"490000073R","towards":"Brixton, Peckham Or Camberwell Green","zone":"1+2"},{"icsId":"1008975","id":"490008975A","lat":51.4908,"lon":-0.0972,"name":"Larcom Street","parentId":"490G00008975","stationId":"490G00008975","stopLetter":"A","topMostParentId":"490G00008975","towards":"Brixton Or Camberwell Green"},{"icsId":"1006380","id":"490006380F","lat":51.48734,"lon":-0.09524,"name":"East Street","parentId":"490G00006380","stationId":"490G00006380","stopLetter":"F","topMostParentId":"490G00006380","towards":"Camberwell Green"},{"icsId":"1014501","id":"490014501J","lat":51.48571,"lon":-0.09402,"name":"Westmoreland Road","parentId":"490G00014501","stationId":"490G00014501","stopLetter":"J","topMostParentId":"490G00014501","towards":"Brixton Or Peckham"},{"icsId":"1003138","id":"490003138N","lat":51.48142,"lon":-0.09435,"name":"Camberwell Road / Albany Road","parentId":"490G00003138","stationId":"490G00003138","stopLetter":"N","topMostParentId":"490G00003138","towards":"Brixton, Dulwich Or Herne Hill"},{"icsId":"1004221","id":"490004221S","lat":51.47977,"lon":-0.09419,"name":"Bowyer Place","parentId":"490G00004221","stationId":"490G00004221","stopLetter":"N","topMostParentId":"490G00004221","towards":"Brixton, Dulwich Or Herne Hill"},{"icsId":"1009784","id":"490009784A","lat":51.47739,"lon":-0.09384,"name":"Medlar Street","parentId":"490G00009784","stationId":"490G00009784","stopLetter":"A","topMostParentId":"490G00009784","towards":"Dulwich Or Peckham"},{"icsId":"1015299","id":"490015299K","lat":51.47423,"lon":-0.09169,"name":"Camberwell Church St / Camberwell Grn","parentId":"490G00015299","stationId":"490G00015299","stopLetter":"K","topMostParentId":"490G00015299","towards":"Peckham"},{"icsId":"1012713","id":"490012713E","lat":51.47362,"lon":-0.08797,"name":"St Giles Church","parentId":"490G00012713","stationId":"490G00012713","stopLetter":"->E","topMostParentId":"490G00012713","towards":"Dulwich Or New Cross"},{"icsId":"1012357","id":"490012357E1","lat":51.47371,"lon":-0.08457,"name":"Vestry Road","parentId":"490G00012357","stationId":"490G00012357","stopLetter":"N","topMostParentId":"490G00012357","towards":"Dulwich Or New Cross"},{"icsId":"1012248","id":"490012248E","lat":51.47418,"lon":-0.07847,"name":"Peckham Road / Southampton Way","parentId":"490G00012248","stationId":"490G00012248","stopLetter":"P","topMostParentId":"490G00012248","towards":"Dulwich Or New Cross"},{"icsId":"1014252","id":"490014252E","lat":51.47399,"lon":-0.07365,"name":"Harris Academy","parentId":"490G00014252","stationId":"490G00014252","stopLetter":"Q","topMostParentId":"490G00014252","towards":"Brockley, Dulwich Or New Cross"},{"icsId":"1010878","id":"490011842B","lat":51.47342,"lon":-0.07038,"name":"Peckham Library","parentId":"490G00010878","stationId":"490G00010878","stopLetter":"B","topMostParentId":"490G00010878","towards":"Brockley, Dulwich Or New Cross"},{"icsId":"1010882","id":"490010882G","lat":51.47403,"lon":-0.0667,"name":"Peckham Post Office","parentId":"490G00010882","stationId":"490G00010882","stopLetter":"G","topMostParentId":"490G00010882","towards":"New Cross Or Surrey Quays"},{"icsId":"1004799","id":"490004799QD","lat":51.47416,"lon":-0.06231,"name":"Carlton Grove","parentId":"490G00004799","stationId":"490G00004799","stopLetter":"QD","topMostParentId":"490G00004799","towards":"New Cross Or Surrey Quays"},{"icsId":"1001233","id":"490001233QN","lat":51.47343,"lon":-0.05669,"name":"Queen's Road Peckham Station","stopLetter":"QH","topMostParentId":"490001233QN","towards":"Brockley, Deptford Or Lewisham"},{"icsId":"1011088","id":"490011088QJ","lat":51.47303,"lon":-0.05352,"name":"Pomeroy Street","parentId":"490G00011088","stationId":"490G00011088","stopLetter":"QJ","topMostParentId":"490G00011088","towards":"Brockley, Deptford Or Lewisham"},{"icsId":"1010205","id":"490010205E","lat":51.47406,"lon":-0.04848,"name":"New Cross Fire Station","parentId":"490G00010205","stationId":"490G00010205","stopLetter":"B","topMostParentId":"490G00010205","towards":"Brockley, Deptford Or Lewisham"},{"icsId":"1010204","id":"490010204G","lat":51.4744,"lon":-0.04489,"name":"New Cross Bus Garage","parentId":"490G00010204","stationId":"490G00010204","stopLetter":"G","topMostParentId":"490G00010204","towards":"Brockley Or Deptford"},{"icsId":"1000156","id":"490000156R","lat":51.47522,"lon":-0.03929,"name":"New Cross Gate Station","stopLetter":"R","topMostParentId":"490000156R","towards":"Brockley Rise Or Deptford"},{"icsId":"1009689","id":"490009689T","lat":51.47579,"lon":-0.03532,"name":"Marquis of Granby","parentId":"490G00009689","stationId":"490G00009689","stopLetter":"T","topMostParentId":"490G00009689","towards":"Lewisham Or Brockley Rise"},{"icsId":"1000155","id":"490000155V","lat":51.47586,"lon":-0.03135,"name":"New Cross Station","stopLetter":"V","topMostParentId":"490000155V","towards":"Blackheath, Greenwich Or Lewisham"},{"icsId":"1006051","id":"490006051E","lat":51.47517,"lon":-0.02736,"name":"Deptford High Street","parentId":"490G00006051","stationId":"490G00006051","stopLetter":"E","topMostParentId":"490G00006051","towards":"Blackheath, Greenwich Or Lewisham"},{"icsId":"1002029","id":"490002029W","lat":51.47445,"lon":-0.02231,"name":"Deptford Bridge","stopLetter":"Y","topMostParentId":"490002029W","towards":"Blackheath Or Greenwich","zone":"2+3"},{"icsId":"1006455","id":"490006455E","lat":51.47315,"lon":-0.01724,"name":"Egerton Drive","parentId":"490G00006455","stationId":"490G00006455","stopLetter":"->E","topMostParentId":"490G00006455","towards":"Charlton"},{"icsId":"1012371","id":"490012371S","lat":51.47152,"lon":-0.01485,"name":"Sparta Street","parentId":"490G00012371","stationId":"490G00012371","stopLetter":"C","topMostParentId":"490G00012371","towards":"Catford"},{"icsId":"1010022","id":"490010022D","lat":51.46917,"lon":-0.0132,"name":"Morden Hill","parentId":"490G00010022","stationId":"490G00010022","stopLetter":"EE","topMostParentId":"490G00010022","towards":"Catford"},{"icsId":"1004068","id":"490004068S","lat":51.4676,"lon":-0.01171,"name":"Blackheath Rise","parentId":"490G00004068","stationId":"490G00004068","stopLetter":"EF","topMostParentId":"490G00004068","towards":"Catford"},{"icsId":"1001177","id":"490001177Z","lat":51.46424,"lon":-0.01255,"name":"Lewisham Station","stopLetter":"B","topMostParentId":"490001177Z","towards":"Catford","zone":"2+3"},{"icsId":"1009239","id":"490009239K","lat":51.46282,"lon":-0.0084,"name":"Lockmead Road","parentId":"490G00009239","stationId":"490G00009239","stopLetter":"K","topMostParentId":"490G00009239","towards":"Blackheath"},{"icsId":"1013561","id":"490013561E","lat":51.46286,"lon":-0.00436,"name":"The Squirrels","parentId":"490G00013561","stationId":"490G00013561","stopLetter":"F","topMostParentId":"490G00013561","towards":"Blackheath"},{"icsId":"1012772","id":"490012772E","lat":51.46302,"lon":-5e-05,"name":"St Margaret's Church / Brandram Road","parentId":"490G00012772","stationId":"490G00012772","stopLetter":"D","topMostParentId":"490G00012772","towards":"North Greenwich, Shooters Hill Or Woolwich"},{"icsId":"1004066","id":"490004066B","lat":51.46396,"lon":0.00696,"name":"Blackheath Hospital","parentId":"490G00004066","stationId":"490G00004066","stopLetter":"B","topMostParentId":"490G00004066","towards":"North Greenwich, Shooters Hill Or Woolwich"},{"icsId":"1001029","id":"490001029B","lat":51.46539,"lon":0.00907,"name":"Blackheath Station","stopLetter":"D","topMostParentId":"490001029B","towards":"Shooters Hill"},{"icsId":"1011771","id":"490011771G","lat":51.46767,"lon":0.00759,"name":"Royal Parade","parentId":"490G00011771","stationId":"490G00011771","stopLetter":"G","topMostParentId":"490G00011771","towards":"Charlton, North Greenwich Or Shooters Hill"},{"icsId":"1010003","id":"490010003K","lat":51.46909,"lon":0.00969,"name":"Montpelier Row","parentId":"490G00010003","stationId":"490G00010003","stopLetter":"K","topMostParentId":"490G00010003","towards":"North Greenwich Or Welling"},{"icsId":"1012711","id":"490012711N","lat":51.4723,"lon":0.01369,"name":"St Germans Place","parentId":"490G00012711","stationId":"490G00012711","stopLetter":"M","topMostParentId":"490G00012711","towards":"North Greenwich Or Welling"},{"icsId":"1008705","id":"490008705E","lat":51.47386,"lon":0.01755,"name":"Shooters Hill Road / Stratheden Road","parentId":"490G00008705","stationId":"490G00008705","stopLetter":"P","topMostParentId":"490G00008705","towards":"Eltham Or Welling"},{"icsId":"1013014","id":"490013014E1","lat":51.47467,"lon":0.02304,"name":"Shooters Hill Road / Kidbrooke Park Road","parentId":"490G00013014","stationId":"490G00013014","stopLetter":"R","topMostParentId":"490G00013014","towards":"Welling Or Woolwich"},{"icsId":"1015427","id":"490015427E","lat":51.47512,"lon":0.02646,"name":"Shooters Hill Road / Eastbrook Road","parentId":"490G00015427","stationId":"490G00015427","stopLetter":"S","topMostParentId":"490G00015427","towards":"Welling Or Woolwich"},{"icsId":"1010537","id":"490010537E","lat":51.47534,"lon":0.03082,"name":"Hervey Road","parentId":"490G00010537","stationId":"490G00010537","stopLetter":"T","topMostParentId":"490G00010537","towards":"Welling Or Queen Elizabeth Hospital"},{"icsId":"1008478","id":"490008478E","lat":51.47474,"lon":0.03488,"name":"Weyman Road","parentId":"490G00008478","stationId":"490G00008478","stopLetter":"U","topMostParentId":"490G00008478","towards":"Welling Or Queen Elizabeth Hospital"},{"icsId":"1005011","id":"490005011E","lat":51.47422,"lon":0.03836,"name":"Charlton Park Lane","parentId":"490G00005011","stationId":"490G00005011","stopLetter":"->E","topMostParentId":"490G00005011","towards":"Welling Or Woolwich"},{"icsId":"1010733","id":"490010733E","lat":51.47343,"lon":0.04367,"name":"Pallet Way","parentId":"490G00010733","stationId":"490G00010733","stopLetter":"SA","topMostParentId":"490G00010733","towards":"Welling Or Woolwich"},{"icsId":"1004460","id":"490004460E","lat":51.47231,"lon":0.04906,"name":"Shooters Hill Road / Baker Road","parentId":"490G00004460","stationId":"490G00004460","stopLetter":"SB","topMostParentId":"490G00004460","towards":"Eltham Or Welling"},{"icsId":"1012108","id":"490012108E","lat":51.47141,"lon":0.05351,"name":"Shooters Hill Road / Academy Road","parentId":"490G00012108","stationId":"490G00012108","stopLetter":"SC","topMostParentId":"490G00012108","towards":"Eltham Or Welling"},{"icsId":"1011486","id":"490011486E","lat":51.4707,"lon":0.05781,"name":"Red Lion Lane","parentId":"490G00011486","stationId":"490G00011486","stopLetter":"SD","topMostParentId":"490G00011486","towards":"Welling Or Woolwich"},{"icsId":"1009805","id":"490009803E","lat":51.46939,"lon":0.06563,"name":"Memorial Hospital","parentId":"490G00009805","stationId":"490G00009805","stopLetter":"SE","topMostParentId":"490G00009805","towards":"Welling Or Woolwich"},{"icsId":"1006288","id":"490006288E","lat":51.46866,"lon":0.07008,"name":"Eaglesfield Road","parentId":"490G00006288","stationId":"490G00006288","stopLetter":"SF","topMostParentId":"490G00006288","towards":"Bexleyheath"},{"icsId":"1010701","id":"490010701E","lat":51.46728,"lon":0.07864,"name":"Oxleas Wood / Woodlands Farm","parentId":"490G00010701","stationId":"490G00010701","stopLetter":"SG","topMostParentId":"490G00010701","towards":"Bexleyheath"},{"icsId":"1014349","id":"490014349E","lat":51.46642,"lon":0.08384,"name":"Eastcote Road","parentId":"490G00014349","stationId":"490G00014349","stopLetter":"SH","topMostParentId":"490G00014349","towards":"Bexleyheath"},{"icsId":"1012086","id":"490012086E","lat":51.46545,"lon":0.08953,"name":"Bellegrove Road / Sherwood Road","parentId":"490G00012086","stationId":"490G00012086","stopLetter":"W","topMostParentId":"490G00012086","towards":"Bexleyheath"},{"icsId":"1014364","id":"490014364E","lat":51.46481,"lon":0.09351,"name":"Bellegrove Road / Welling Way","parentId":"490G00014364","stationId":"490G00014364","stopLetter":"E","topMostParentId":"490G00014364","towards":"Bexleyheath"},{"icsId":"1004922","id":"490004922C","lat":51.46389,"lon":0.09911,"name":"Central Avenue / Welling Station","parentId":"490G000446","stationId":"490G000446","stopLetter":"C","topMostParentId":"490G000446","towards":"Bexleyheath"},{"icsId":"1006018","id":"490006018H","lat":51.46301,"lon":0.10479,"name":"Deepdene Road","parentId":"490G00006018","stationId":"490G00006018","stopLetter":"H","topMostParentId":"490G00006018","towards":"Bexleyheath Or Blackfen"},{"icsId":"1014353","id":"490014353S","lat":51.46242,"lon":0.10859,"name":"Welling High Street","parentId":"490G00014353","stationId":"490G00014353","stopLetter":"S","topMostParentId":"490G00014353","towards":"Bexleyheath"},{"icsId":"1007611","id":"490007611E","lat":51.46137,"lon":0.1154,"name":"Guy, Earl of Warwick","parentId":"490G00007611","stationId":"490G00007611","stopLetter":"BA","topMostParentId":"490G00007611","towards":"Bexleyheath"},{"icsId":"1003948","id":"490003948E","lat":51.46029,"lon":0.12125,"name":"Bethel Road","parentId":"490G00003948","stationId":"490G00003948","stopLetter":"BB","topMostParentId":"490G00003948","towards":"Bexleyheath"},{"icsId":"1019788","id":"490016645E","lat":51.45959,"lon":0.1249,"name":"Crook Log Leisure Centre","parentId":"490G00019788","stationId":"490G00019788","stopLetter":"BC","topMostParentId":"490G00019788","towards":"Bexleyheath"},{"icsId":"1005805","id":"490005805E","lat":51.4589,"lon":0.12946,"name":"Crook Log / Dallin Road","parentId":"490G00005805","stationId":"490G00005805","stopLetter":"BD","topMostParentId":"490G00005805","towards":"Crayford Or Slade Green"},{"icsId":"1013960","id":"490013960E","lat":51.45838,"lon":0.13259,"name":"Upton Road","parentId":"490G00013960","stationId":"490G00013960","stopLetter":"BK","topMostParentId":"490G00013960","towards":"Bexley, Crayford Or Slade Green"},{"icsId":"1009203","id":"490009203E","lat":51.45771,"lon":0.13734,"name":"Bexleyheath / Lion Road","parentId":"490G00009203","stationId":"490G00009203","stopLetter":"BL","topMostParentId":"490G00009203","towards":"Bexley, Crayford Or Slade Green"},{"icsId":"1003973","id":"490003973B","lat":51.45711,"lon":0.1417,"name":"Trinity Place","parentId":"490G00003973","stationId":"490G00003973","stopLetter":"B","topMostParentId":"490G00003973","towards":"Bexley Village, Crayford Or Slade Green"},{"icsId":"1019056","id":"490003975S","lat":51.45688,"lon":0.14798,"name":"Mayplace Rd West / Bexleyheath Clock Twr","parentId":"490G00019056","stationId":"490G00019056","stopLetter":"S","topMostParentId":"490G00019056","towards":"Crayford, Erith Or Slade Green"},{"icsId":"1006620","id":"490006620E","lat":51.45855,"lon":0.15196,"name":"Foresters Crescent","parentId":"490G00006620","stationId":"490G00006620","stopLetter":"NG","topMostParentId":"490G00006620","towards":"Crayford, Erith Or Slade Green"},{"icsId":"1003974","id":"490003974N2","lat":51.46015,"lon":0.15273,"name":"Bexleyheath Bus Garage","parentId":"490G00003974","stationId":"490G00003974","stopLetter":"NS","topMostParentId":"490G00003974","towards":"Erith Or Slade Green"},{"icsId":"1015358","id":"490015358N","lat":51.462,"lon":0.15333,"name":"Long Lane","parentId":"490G00015358","stationId":"490G00015358","stopLetter":"->N","topMostParentId":"490G00015358","towards":"Erith Or Slade Green"},{"icsId":"1009470","id":"490009470N","lat":51.46363,"lon":0.15453,"name":"Lyndhurst Road","parentId":"490G00009470","stationId":"490G00009470","stopLetter":"NT","topMostParentId":"490G00009470","towards":"Erith Or Slade Green"},{"icsId":"1001013","id":"490001013A","lat":51.46581,"lon":0.15725,"name":"Barnehurst Station","parentId":"910GBRNHRST","stationId":"910GBRNHRST","stopLetter":"B","topMostParentId":"910GBRNHRST","towards":"Erith Or Slade Green"},{"icsId":"1011833","id":"490011832N","lat":51.46846,"lon":0.15843,"name":"Rydal Drive","parentId":"490G00011833","stationId":"490G00011833","stopLetter":"E","topMostParentId":"490G00011833","towards":"Erith Or Slade Green"},{"icsId":"1019145","id":"490004477N1","lat":51.47024,"lon":0.16015,"name":"Brook Street","parentId":"490G00019145","stationId":"490G00019145","stopLetter":"F","topMostParentId":"490G00019145","towards":"Erith Or Slade Green"},{"icsId":"1000348","id":"490004477E","lat":51.47118,"lon":0.16134,"name":"Barnehurst Avenue","parentId":"490G00000348","stationId":"490G00000348","stopLetter":"J","topMostParentId":"490G00000348","towards":"Slade Green"},{"icsId":"1008440","id":"490008440E","lat":51.47151,"lon":0.16615,"name":"Hurst Road","parentId":"490G00008440","stationId":"490G00008440","stopLetter":"W","topMostParentId":"490G00008440","towards":"Slade Green"},{"icsId":"1010416","id":"490010416E","lat":51.47158,"lon":0.16892,"name":"Northumberland Way","parentId":"490G00010416","stationId":"490G00010416","stopLetter":"Y","topMostParentId":"490G00010416","towards":"Slade Green"},{"icsId":"1005518","id":"490005518E","lat":51.47082,"lon":0.17418,"name":"Colyers Walk","parentId":"490G00005518","stationId":"490G00005518","stopLetter":"->E","topMostParentId":"490G00005518","towards":"Slade Green"},{"icsId":"1004036","id":"490004036E","lat":51.47047,"lon":0.17962,"name":"Myrtle Close","parentId":"490G00004036","stationId":"490G00004036","stopLetter":"->E","topMostParentId":"490G00004036","towards":"Slade Green"},{"icsId":"1005516","id":"490005516S","lat":51.4698,"lon":0.18103,"name":"Northend Road / Colyers Lane","parentId":"490G00005516","stationId":"490G00005516","stopLetter":"->S","topMostParentId":"490G00005516","towards":"Crayford Or Slade Green"},{"icsId":"1010356","id":"490010356E2","lat":51.46705,"lon":0.18182,"name":"Bridge Road / Northend Road","parentId":"490G00010356","stationId":"490G00010356","stopLetter":"->E","topMostParentId":"490G00010356","towards":"Crayford Or Slade Green"},{"icsId":"1009713","id":"490009713E","lat":51.4688,"lon":0.18641,"name":"Masefield Close","parentId":"490G00009713","stationId":"490G00009713","stopLetter":"->E","topMostParentId":"490G00009713","towards":"Erith"},{"icsId":"1012191","id":"490012191E","lat":51.47106,"lon":0.19026,"name":"Bridge Road / Slade Green Road","parentId":"490G00012191","stationId":"490G00012191","stopLetter":"E","topMostParentId":"490G00012191","towards":"Slade Green"},{"icsId":"1007973","id":"490007973S","lat":51.47056,"lon":0.19329,"name":"Hazel Road","parentId":"490G00007973","stationId":"490G00007973","stopLetter":"L","topMostParentId":"490G00007973","towards":"Bexleyheath"},{"icsId":"1019839","id":"490001252A","lat":51.46766,"lon":0.19076,"name":"Forest Road / Slade Green Station","parentId":"490G000955","stationId":"490G000955","stopLetter":"A","topMostParentId":"490G000955","towards":"Bexleyheath Or Erith"},{"icsId":"1007973","id":"490007973N","lat":51.47097,"lon":0.19321,"name":"Hazel Road","parentId":"490G00007973","stationId":"490G00007973","stopLetter":"K","topMostParentId":"490G00007973","towards":"Erith"},{"icsId":"1007367","id":"490007367N","lat":51.47336,"lon":0.19519,"name":"Grange Way","parentId":"490G00007367","stationId":"490G00007367","stopLetter":"->N","topMostParentId":"490G00007367","towards":"Erith"},{"icsId":"1012192","id":"490012192N","lat":51.47654,"lon":0.19514,"name":"Slade Green Road / Manor Road","parentId":"490G00012192","stationId":"490G00012192","stopLetter":"->N","topMostParentId":"490G00012192","towards":"Erith"},{"icsId":"1004006","id":"490004006W","lat":51.4773,"lon":0.19325,"name":"Bilton Road","parentId":"490G00004006","stationId":"490G00004006","stopLetter":"->W","topMostParentId":"490G00004006","towards":"Erith"},{"icsId":"1020011","id":"490013540W","lat":51.47818,"lon":0.18699,"name":"Manor Road / Frobisher Road","parentId":"490G00020011","stationId":"490G00020011","stopLetter":"->W","topMostParentId":"490G00020011","towards":"Erith"},{"icsId":"1005533","id":"490005533N","lat":51.47842,"lon":0.18207,"name":"Compton Place","parentId":"490G00005533","stationId":"490G00005533","stopLetter":"N","topMostParentId":"490G00005533","towards":"Erith"},{"icsId":"1006617","id":"490006617M","lat":51.47948,"lon":0.18104,"name":"Erith Health Centre","parentId":"490G00006617","stationId":"490G00006617","stopLetter":"M","topMostParentId":"490G00006617","towards":"Belvedere Or Upper Belvedere"},{"icsId":"1016787","id":"490016787N","lat":51.48061,"lon":0.18177,"name":"Colebrooke Street","parentId":"490G00016787","stationId":"490G00016787","stopLetter":"P","topMostParentId":"490G00016787","towards":"Belvedere Or Upper Belvedere"},{"icsId":"1005817","id":"490005817W","lat":51.48076,"lon":0.18025,"name":"Erith Town Centre / Riverside","parentId":"490G00005817","stationId":"490G00005817","stopLetter":"->W","topMostParentId":"490G00005817"}]}]}