{"direction":"outbound","lineId":"n9","lineName":"N9","mode":"bus","stopPointSequences":[{"stopPoint":[{"icsId":"1000372","id":"490000372Z","lat":51.51319,"lon":-0.11701,"name":"Aldwych / Bush House","parentId":"490G00000372","stationId":"490G00000372","stopLetter":"H","topMostParentId":"490G00000372","towards":"Trafalgar Square"},{"icsId":"1011938","id":"490011938U","lat":51.51077,"lon":-0.12048,"name":"Savoy Street","parentId":"490G000737","stationId":"490G000737","stopLetter":"U","topMostParentId":"490G000737","towards":"Parliament Square Or Piccadilly"},{"icsId":"1003112","id":"490003112J","lat":51.50967,"lon":-0.12319,"name":"Bedford Street","parentId":"490G00003112","stationId":"490G00003112","stopLetter":"J","topMostParentId":"490G00003112","towards":"Oxford Circus, Green Park Or Westminster"},{"icsId":"1000045","id":"490013766H","lat":51.50843,"lon":-0.12552,"name":"Charing Cross Station","stopLetter":"H","topMostParentId":"490013766H","towards":"Hyde Park Corner Or Oxford Circus","zone":"1"},{"icsId":"1013767","id":"490013767S","lat":51.50745,"lon":-0.12945,"name":"Trafalgar Square","parentId":"490G000804","stationId":"490G000804","stopLetter":"S","topMostParentId":"490G000804","towards":"Hyde Park Corner"},{"icsId":"1011516","id":"490011515Z","lat":51.50873,"lon":-0.13407,"name":"Regent Street / St James's","parentId":"490G00011516","stationId":"490G00011516","stopLetter":"Z","topMostParentId":"490G00011516","towards":"Oxford Circus Or Green Park"},{"icsId":"1000179","id":"490000179S","lat":51.50915,"lon":-0.13627,"name":"Piccadilly Circus","stopLetter":"S","topMostParentId":"490000179S","towards":"Marble Arch, Knightsbridge Or Victoria","zone":"1"},{"icsId":"1010526","id":"490010526G","lat":51.50823,"lon":-0.1392,"name":"Old Bond Street / Royal Academy","parentId":"490G00010526","stationId":"490G00010526","stopLetter":"G","topMostParentId":"490G00010526","towards":"Marble Arch, Knightsbridge Or Victoria"},{"icsId":"1000093","id":"490000093PE","lat":51.50668,"lon":-0.14284,"name":"Green Park Station","stopLetter":"H","topMostParentId":"490000093PE","towards":"Marble Arch, Knightsbridge Or Victoria","zone":"1"},{"icsId":"1007492","id":"490007492E","lat":51.50399,"lon":-0.14779,"name":"Green Park / Constitution Hill","parentId":"490G00007492","stationId":"490G00007492","stopLetter":"E","topMostParentId":"490G00007492","towards":"Marble Arch, Knightsbridge Or Victoria"},{"icsId":"1000119","id":"490000119M","lat":51.50275,"lon":-0.15327,"name":"Hyde Park Corner Station","stopLetter":"M","topMostParentId":"490000119M","towards":"Kensington High Street","zone":"1"},{"icsId":"1007853","id":"490000130KE","lat":51.50163,"lon":-0.16191,"name":"Knightsbridge Station  / Harrods","stopLetter":"KE","topMostParentId":"490000130KE","towards":"Notting Hill Gate Or Olympia"},{"icsId":"1008875","id":"490011822W","lat":51.5017,"lon":-0.16604,"name":"Knightsbridge Barracks","parentId":"490G00008875","stationId":"490G00008875","stopLetter":"KF","topMostParentId":"490G00008875","towards":"Notting Hill Gate Or Olympia"},{"icsId":"1011198","id":"490011198W","lat":51.50184,"lon":-0.1693,"name":"Prince of Wales Gate","parentId":"490G00011198","stationId":"490G00011198","stopLetter":"RA","topMostParentId":"490G00011198","towards":"Notting Hill Gate Or Olympia"},{"icsId":"1006691","id":"490006691W","lat":51.50176,"lon":-0.17331,"name":"Exhibition Road","parentId":"490G00006691","stationId":"490G00006691","stopLetter":"RB","topMostParentId":"490G00006691","towards":"Notting Hill Gate Or Olympia"},{"icsId":"1011750","id":"490011750W","lat":51.50146,"lon":-0.17884,"name":"Royal Albert Hall","parentId":"490G00011750","stationId":"490G00011750","stopLetter":"RC","topMostParentId":"490G00011750","towards":"Hammersmith Or Notting Hill Gate"},{"icsId":"1010728","id":"490010728W","lat":51.50147,"lon":-0.18295,"name":"Palace Gate","parentId":"490G00010728","stationId":"490G00010728","stopLetter":"RE","topMostParentId":"490G00010728","towards":"Hammersmith Or Notting Hill Gate"},{"icsId":"1011761","id":"490011761N","lat":51.50224,"lon":-0.18776,"name":"Kensington Palace","parentId":"490G00011761","stationId":"490G00011761","stopLetter":"N","topMostParentId":"490G00011761","towards":"Hammersmith Or Notting Hill Gate"},{"icsId":"1000110","id":"490000110F","lat":51.50135,"lon":-0.192,"name":"High Street Kensington Station","stopLetter":"F","topMostParentId":"490000110F","towards":"Hammersmith","zone":"1"},{"icsId":"1010984","id":"490010984T","lat":51.49981,"lon":-0.19649,"name":"Phillimore Gardens","parentId":"490G00010984","stationId":"490G00010984","stopLetter":"T","topMostParentId":"490G00010984","towards":"Hammersmith, Earls Court Or Fulham"},{"icsId":"1005528","id":"490005528X","lat":51.49877,"lon":-0.19928,"name":"The Design Museum","parentId":"490G00005528","stationId":"490G00005528","stopLetter":"X","topMostParentId":"490G00005528","towards":"Fulham Broadway Or Hammersmith"},{"icsId":"1003106","id":"490003106W","lat":51.49753,"lon":-0.20318,"name":"Warwick Gardens","parentId":"490G00003106","stationId":"490G00003106","stopLetter":"Z","topMostParentId":"490G00003106","towards":"Fulham Broadway Or Hammersmith"},{"icsId":"1000170","id":"490008652C","lat":51.49624,"lon":-0.20641,"name":"Kensington Olympia Station","stopLetter":"C","topMostParentId":"490008652C","towards":"Fulham Broadway Or Hammersmith","zone":"2"},{"icsId":"1010357","id":"490010357B","lat":51.49523,"lon":-0.2109,"name":"North End Road","parentId":"490G00010357","stationId":"490G00010357","stopLetter":"E","topMostParentId":"490G00010357","towards":"Hammersmith"},{"icsId":"1004455","id":"490004455BA","lat":51.49351,"lon":-0.21595,"name":"Brook Green","parentId":"490G00004455","stationId":"490G00004455","stopLetter":"F","topMostParentId":"490G00004455","towards":"Acton"},{"icsId":"1008997","id":"490008990Q","lat":51.49321,"lon":-0.21838,"name":"Latymer Court","parentId":"490G00008997","stationId":"490G00008997","stopLetter":"X","topMostParentId":"490G00008997","towards":"Acton"},{"icsId":"1007702","id":"490007704QA","lat":51.49298,"lon":-0.22179,"name":"Hammersmith Broadway","parentId":"490G000563","stationId":"490G000563","stopLetter":"Z4","topMostParentId":"490G000563","towards":"Acton"},{"icsId":"1007705","id":"490007705C","lat":51.49228,"lon":-0.22388,"name":"Hammersmith Bus Station","parentId":"490G000565","stationId":"490G000565","stopLetter":"B","topMostParentId":"HUBHMS","towards":"Chiswick"},{"icsId":"1008801","id":"490008801P","lat":51.49266,"lon":-0.22728,"name":"Livat Hammersmith Shopping Centre","parentId":"490G000625","stationId":"490G000625","stopLetter":"U","topMostParentId":"490G000625","towards":"Acton Or Chiswick"},{"icsId":"1007711","id":"490007711WA","lat":51.49251,"lon":-0.23286,"name":"Hammersmith Town Hall","parentId":"490G00007711","stationId":"490G00007711","stopLetter":"WA","topMostParentId":"490G00007711","towards":"Chiswick Or Acton"},{"icsId":"1000188","id":"490011594W","lat":51.4929,"lon":-0.23583,"name":"Ravenscourt Park Station","stopLetter":"D","topMostParentId":"490011594W","towards":"Chiswick Bridge Or Gunnersbury","zone":"2"},{"icsId":"1012533","id":"490012533W","lat":51.49346,"lon":-0.24042,"name":"Ravenscourt Park","parentId":"490G00012533","stationId":"490G00012533","stopLetter":"G","topMostParentId":"490G00012533","towards":"Gunnersbury Or Chiswick Bridge"},{"icsId":"1007272","id":"490007272H","lat":51.49337,"lon":-0.24409,"name":"Goldhawk Road","parentId":"490G00007272","stationId":"490G00007272","stopLetter":"H","topMostParentId":"490G00007272","towards":"Gunnersbury Or Chiswick Bridge"},{"icsId":"1012521","id":"490012521PP","lat":51.49335,"lon":-0.24778,"name":"Stamford Brook Bus Garage","parentId":"490G00012521","stationId":"490G00012521","stopLetter":"PP","topMostParentId":"490G00012521","towards":"Kew Bridge, Osterley Or Richmond"},{"icsId":"1013850","id":"490013850RR","lat":51.49274,"lon":-0.25348,"name":"Chiswick Lane","parentId":"490G00013850","stationId":"490G00013850","stopLetter":"RR","topMostParentId":"490G00013850","towards":"Brentford, Kew Or Osterley"},{"icsId":"1005210","id":"490005210SS","lat":51.49244,"lon":-0.25976,"name":"Duke Road","parentId":"490G00005210","stationId":"490G00005210","stopLetter":"SS","topMostParentId":"490G00005210","towards":"Brentford, Kew, Osterley Or Grove Park"},{"icsId":"1013848","id":"490000048CV","lat":51.49258,"lon":-0.26622,"name":"Turnham Green Church","parentId":"490G000807","stationId":"490G000807","stopLetter":"CV","topMostParentId":"490G000807","towards":"Brentford, Kew Or Osterley"},{"icsId":"1005211","id":"490005211W","lat":51.49288,"lon":-0.27063,"name":"Chiswick Road","parentId":"490G00005211","stationId":"490G00005211","stopLetter":"T","topMostParentId":"490G00005211","towards":"Brentford, Kew Or Osterley"},{"icsId":"1000094","id":"490000094A","lat":51.49227,"lon":-0.27518,"name":"Gunnersbury Station","stopLetter":"A","topMostParentId":"490000094A","towards":"Brentford Kew Or Osterley","zone":"3"},{"icsId":"1018897","id":"490010687J","lat":51.49199,"lon":-0.27967,"name":"Power Road","parentId":"490G00018897","stationId":"490G00018897","stopLetter":"J","topMostParentId":"490G00018897","towards":"Brentford, Kew Or Osterley"},{"icsId":"1004290","id":"490004290L","lat":51.49047,"lon":-0.28458,"name":"Brentford Fountain Leisure Centre","parentId":"490G00004290","stationId":"490G00004290","stopLetter":"K","topMostParentId":"490G00004290","towards":"Brentford Or Kew"},{"icsId":"1001167","id":"490001167YZ","lat":51.48867,"lon":-0.28884,"name":"Kew Bridge Station","stopLetter":"->W","topMostParentId":"490001167YZ","towards":"Ealing, Isleworth Or Twickenham"},{"icsId":"1004293","id":"490008690W","lat":51.48758,"lon":-0.29291,"name":"The Musical Museum","parentId":"490G00004293","stationId":"490G00004293","stopLetter":"U","topMostParentId":"490G00004293","towards":"Ealing, Isleworth Or Twickenham"},{"icsId":"1006297","id":"490006297B","lat":51.48626,"lon":-0.29756,"name":"Watermans Centre","parentId":"490G00006297","stationId":"490G00006297","stopLetter":"BH","topMostParentId":"490G00006297","towards":"Ealing, Isleworth Or Twickenham"},{"icsId":"1007259","id":"490007259W","lat":51.48533,"lon":-0.30039,"name":"Goat Wharf","parentId":"490G00007259","stationId":"490G00007259","stopLetter":"BJ","topMostParentId":"490G00007259","towards":"Isleworth Or Twickenham"},{"icsId":"1004289","id":"490004289E","lat":51.48383,"lon":-0.30429,"name":"Brentford County Court","parentId":"490G00004289","stationId":"490G00004289","stopLetter":"BK","topMostParentId":"490G00004289","towards":"Isleworth Or Twickenham"},{"icsId":"1004292","id":"490004292G","lat":51.48322,"lon":-0.30771,"name":"Market Place","parentId":"490G00004292","stationId":"490G00004292","stopLetter":"BL","topMostParentId":"490G00004292","towards":"Hounslow Or Twickenham"},{"icsId":"1004296","id":"490004296W","lat":51.4817,"lon":-0.3143,"name":"Brent Lea","parentId":"490G00004296","stationId":"490G00004296","stopLetter":"->W","topMostParentId":"490G00004296","towards":"Hounslow Or Twickenham"},{"icsId":"1013141","id":"490013141W","lat":51.48012,"lon":-0.31828,"name":"Syon Lane","parentId":"490G00013141","stationId":"490G00013141","stopLetter":"W","topMostParentId":"490G00013141","towards":"Hounslow Or Twickenham"},{"icsId":"1015029","id":"490015029W","lat":51.47879,"lon":-0.32258,"name":"Busch Corner","parentId":"490G00015029","stationId":"490G00015029","stopLetter":"V","topMostParentId":"490G00015029","towards":"Hounslow Or Twickenham"},{"icsId":"1004635","id":"490004635S","lat":51.47822,"lon":-0.32453,"name":"The Green School","parentId":"490G00004635","stationId":"490G00004635","stopLetter":"S","topMostParentId":"490G00004635","towards":"Hounslow"},{"icsId":"1007873","id":"490007873W","lat":51.47703,"lon":-0.32854,"name":"Turnpike Way","parentId":"490G00007873","stationId":"490G00007873","stopLetter":"M","topMostParentId":"490G00007873","towards":"Hounslow"},{"icsId":"1014874","id":"490014874K","lat":51.47624,"lon":-0.33116,"name":"Wood Lane","parentId":"490G00014874","stationId":"490G00014874","stopLetter":"D","topMostParentId":"490G00014874","towards":"Hounslow"},{"icsId":"1009185","id":"490009185W","lat":51.47533,"lon":-0.33432,"name":"Linkfield Road","parentId":"490G00009185","stationId":"490G00009185","stopLetter":"E","topMostParentId":"490G00009185","towards":"Hounslow"},{"icsId":"1001158","id":"490001158A","lat":51.47512,"lon":-0.33761,"name":"Isleworth Station","stopLetter":"F","topMostParentId":"490001158A","towards":"Hounslow"},{"icsId":"1008510","id":"490008510W","lat":51.47481,"lon":-0.34255,"name":"West Thames College","parentId":"490G00008510","stationId":"490G00008510","stopLetter":"G","topMostParentId":"490G00008510","towards":"Hounslow Heath Or Twickenham"},{"icsId":"1012599","id":"490012599W","lat":51.47263,"lon":-0.34716,"name":"Star Road","parentId":"490G00012599","stationId":"490G00012599","stopLetter":"H","topMostParentId":"490G00012599","towards":"Hounslow Heath Or Twickenham"},{"icsId":"1004327","id":"490004327W1","lat":51.4716,"lon":-0.35038,"name":"Bridge Road","parentId":"490G00004327","stationId":"490G00004327","stopLetter":"->W","topMostParentId":"490G00004327","towards":"Hounslow Heath, Hounslow West Or Feltham"},{"icsId":"1008392","id":"490008392G","lat":51.47082,"lon":-0.35365,"name":"Hounslow Bus Station","parentId":"490G000601","stationId":"490G000601","stopLetter":"G","topMostParentId":"490G000601","towards":"Hounslow Heath, Hounslow West Or Feltham"},{"icsId":"1007766","id":"490007766L","lat":51.46897,"lon":-0.35883,"name":"Fairfields Road","parentId":"490G00007766","stationId":"490G00007766","stopLetter":"L","topMostParentId":"490G00007766","towards":"Hounslow West Or Heston"},{"icsId":"1013777","id":"490013777R","lat":51.46704,"lon":-0.36369,"name":"Treaty Centre","parentId":"490G00013777","stationId":"490G00013777","stopLetter":"T","topMostParentId":"490G00013777","towards":"Hounslow West Or Heston"},{"icsId":"1008391","id":"490008391X","lat":51.46817,"lon":-0.36691,"name":"Bell Corner / Hounslow Civic Centre","parentId":"490G000600","stationId":"490G000600","stopLetter":"X","topMostParentId":"490G000600","towards":"Hounslow West"},{"icsId":"1012454","id":"490012454W","lat":51.46885,"lon":-0.373,"name":"St Michael & St Martin Church","parentId":"490G00012454","stationId":"490G00012454","stopLetter":"H","topMostParentId":"490G00012454","towards":"Cranford, Heston Or Hatton Cross"},{"icsId":"1006406","id":"490014357W","lat":51.46992,"lon":-0.37757,"name":"Wellington Road North","parentId":"490G00006406","stationId":"490G00006406","stopLetter":"J","topMostParentId":"490G00006406","towards":"Cranford, Heston Or Hatton Cross"},{"icsId":"1012458","id":"490012458W","lat":51.47141,"lon":-0.38184,"name":"St Paul's Church","parentId":"490G00012458","stationId":"490G00012458","stopLetter":"K","topMostParentId":"490G00012458","towards":"Cranford, Heston Or Hatton Cross"},{"icsId":"1000118","id":"490000118C","lat":51.47256,"lon":-0.38535,"name":"Hounslow West Station","stopLetter":"C","topMostParentId":"490000118C","towards":"Cranford Or Hatton Cross","zone":"5"},{"icsId":"1007425","id":"490007425W","lat":51.47463,"lon":-0.39218,"name":"Great West Road / Basildene Road","parentId":"490G00007425","stationId":"490G00007425","stopLetter":"L","topMostParentId":"490G00007425","towards":"Cranford Or Hatton Cross"},{"icsId":"1015462","id":"490013776W1","lat":51.47607,"lon":-0.39838,"name":"Henlys Roundabout","parentId":"490G00015462","stationId":"490G00015462","stopLetter":"CP","topMostParentId":"490G00015462","towards":"Colnbrook, West Drayton Or Hayes"},{"icsId":"1011470","id":"490011470W","lat":51.47684,"lon":-0.40133,"name":"Rectory Road","parentId":"490G00011470","stationId":"490G00011470","stopLetter":"CQ","topMostParentId":"490G00011470","towards":"Colnbrook, West Drayton Or Hayes"},{"icsId":"1005707","id":"490005707W","lat":51.47833,"lon":-0.40652,"name":"Cranford Library / the Parkway","parentId":"490G00005707","stationId":"490G00005707","stopLetter":"CR","topMostParentId":"490G00005707","towards":"Colnbrook, West Drayton Or Hayes"},{"icsId":"1013235","id":"490013235W","lat":51.47911,"lon":-0.40931,"name":"The Avenue","parentId":"490G00013235","stationId":"490G00013235","stopLetter":"CS","topMostParentId":"490G00013235","towards":"Colnbrook, West Drayton Or Hayes"},{"icsId":"1005704","id":"490005704W","lat":51.48047,"lon":-0.41434,"name":"Waye Avenue","parentId":"490G00005704","stationId":"490G00005704","stopLetter":"CT","topMostParentId":"490G00005704","towards":"Heathrow Airport, Hayes, Sipson Or Slough"},{"icsId":"1013596","id":"490013596W","lat":51.481,"lon":-0.42081,"name":"Craneswater","parentId":"490G00013596","stationId":"490G00013596","stopLetter":"CU","topMostParentId":"490G00013596","towards":"Heathrow Airport, Hayes, Sipson Or Slough"},{"icsId":"1010677","id":"490010677W1","lat":51.48066,"lon":-0.42515,"name":"Oxford Avenue","parentId":"490G00010677","stationId":"490G00010677","stopLetter":"H","topMostParentId":"490G00010677","towards":"Heathrow Airport, Hayes, Sipson Or Slough"},{"icsId":"1007811","id":"490007811D","lat":51.48058,"lon":-0.43562,"name":"Harlington Corner","parentId":"490G00007811","stationId":"490G00007811","stopLetter":"J","topMostParentId":"490G00007811","towards":"Heathrow Airport, West Drayton Or Slough"},{"icsId":"1004149","id":"490004149W","lat":51.48098,"lon":-0.44459,"name":"Mondial Way","parentId":"490G00004149","stationId":"490G00004149","stopLetter":"BL","topMostParentId":"490G00004149","towards":"Heathrow Airport, West Drayton Or Slough"},{"icsId":"1012176","id":"490012176W","lat":51.48106,"lon":-0.44771,"name":"Nene Road","parentId":"490G00012176","stationId":"490G00012176","stopLetter":"BM","topMostParentId":"490G00012176","towards":"Heathrow Airport, West Drayton Or Slough"},{"icsId":"1008016","id":"4900801618","lat":51.47135,"lon":-0.4532,"name":"Heathrow Central Bus Station","parentId":"910GHTRWCBS","stationId":"910GHTRWCBS","stopLetter":"18","topMostParentId":"HUBH13"},{"icsId":"1010171","id":"490010171W","lat":51.47992,"lon":-0.46578,"name":"Nelson Road","parentId":"490G00010171","stationId":"490G00010171","stopLetter":"BZ","topMostParentId":"490G00010171","towards":"Terminal 5"},{"icsId":"1016430","id":"4900164301H","lat":51.47314,"lon":-0.48967,"name":"Heathrow Terminal 5","parentId":"910GHTRBUS5","stationId":"910GHTRBUS5","stopLetter":"1","topMostParentId":"HUBHX5","zone":"6"}]}]}