{"direction":"outbound","lineId":"r4","lineName":"R4","mode":"bus","stopPointSequences":[{"stopPoint":[{"icsId":"1000788","id":"490000788Y","lat":51.39947,"lon":0.12154,"name":"Augustine Road","parentId":"490G00000788","stationId":"490G00000788","stopLetter":"->N","topMostParentId":"490G00000788","towards":"Orpington"},{"icsId":"1020256","id":"490020256W","lat":51.40032,"lon":0.1203,"name":"Chalk Pit Avenue","parentId":"490G00020256","stationId":"490G00020256","stopLetter":"->W","topMostParentId":"490G00020256"},{"icsId":"1020257","id":"490020257S","lat":51.40064,"lon":0.11642,"name":"Main Road","parentId":"490G00020257","stationId":"490G00020257","stopLetter":"->S","topMostParentId":"490G00020257"},{"icsId":"1020258","id":"490020258S","lat":51.39922,"lon":0.11596,"name":"The Landway","parentId":"490G00020258","stationId":"490G00020258","stopLetter":"->S","topMostParentId":"490G00020258"},{"icsId":"1020259","id":"490020259S","lat":51.39639,"lon":0.1155,"name":"Hearns Road","parentId":"490G00020259","stationId":"490G00020259","stopLetter":"->S","topMostParentId":"490G00020259"},{"icsId":"1009884","id":"490009884N2","lat":51.39501,"lon":0.1143,"name":"Mill Brook Road","parentId":"490G00009884","stationId":"490G00009884","stopLetter":"SF","topMostParentId":"490G00009884","towards":"Orpington"},{"icsId":"1004078","id":"490004078S","lat":51.39232,"lon":0.11475,"name":"Blacksmiths Lane","parentId":"490G00004078","stationId":"490G00004078","stopLetter":"SU","topMostParentId":"490G00004078","towards":"Orpington"},{"icsId":"1013568","id":"490013568S","lat":51.38965,"lon":0.11426,"name":"The Temple","parentId":"490G00013568","stationId":"490G00013568","stopLetter":"SL","topMostParentId":"490G00013568","towards":"Orpington"},{"icsId":"1011544","id":"490011544S","lat":51.38736,"lon":0.11373,"name":"Reynolds Cross / Red Lion","parentId":"490G00011544","stationId":"490G00011544","stopLetter":"SP","topMostParentId":"490G00011544","towards":"Orpington"},{"icsId":"1003478","id":"490003478E","lat":51.38536,"lon":0.11416,"name":"Chelsfield Road","parentId":"490G00003478","stationId":"490G00003478","topMostParentId":"490G00003478"},{"icsId":"1012878","id":"490012878Z","lat":51.38531,"lon":0.1142,"name":"Chelsfield Road / Paul's Cray Hill","parentId":"490G00012878","stationId":"490G00012878","stopLetter":"->E","topMostParentId":"490G00012878"},{"icsId":"1020262","id":"490020261E","lat":51.38292,"lon":0.11987,"name":"Cockmannings Road","parentId":"490G00020262","stationId":"490G00020262","stopLetter":"->E","topMostParentId":"490G00020262"},{"icsId":"1016777","id":"490016777S","lat":51.3808,"lon":0.12547,"name":"Waldenhurst Road","parentId":"490G00016777","stationId":"490G00016777","stopLetter":"->S","topMostParentId":"490G00016777"},{"icsId":"1020263","id":"490020263W","lat":51.38187,"lon":0.1215,"name":"Somerden Road","parentId":"490G00020263","stationId":"490G00020263","stopLetter":"->W","topMostParentId":"490G00020263"},{"icsId":"1020264","id":"490020264S","lat":51.37997,"lon":0.12222,"name":"Rookesley Road","parentId":"490G00020264","stationId":"490G00020264","stopLetter":"->S","topMostParentId":"490G00020264"},{"icsId":"1020266","id":"490020266W","lat":51.37901,"lon":0.12174,"name":"Renton Drive","parentId":"490G00020266","stationId":"490G00020266","stopLetter":"->W","topMostParentId":"490G00020266"},{"icsId":"1011835","id":"490011835W","lat":51.37716,"lon":0.11979,"name":"Brow Crescent","parentId":"490G00011835","stationId":"490G00011835","stopLetter":"P","topMostParentId":"490G00011835","towards":"Orpington"},{"icsId":"1011410","id":"490011410W","lat":51.3776,"lon":0.11652,"name":"Ramsden Road","parentId":"490G00011410","stationId":"490G00011410","stopLetter":"Q","topMostParentId":"490G00011410","towards":"Orpington and Locksbottom"},{"icsId":"1013680","id":"490013680W","lat":51.37728,"lon":0.11478,"name":"Ramsden Road / Tintagel Road","parentId":"490G00013680","stationId":"490G00013680","stopLetter":"R","topMostParentId":"490G00013680","towards":"Orpington"},{"icsId":"1006281","id":"490006281W","lat":51.37759,"lon":0.11228,"name":"Dyke Drive","parentId":"490G00006281","stationId":"490G00006281","stopLetter":"S","topMostParentId":"490G00006281","towards":"Orpington"},{"icsId":"1000454","id":"490007184W","lat":51.37808,"lon":0.10954,"name":"Ramsden Road / Court Road","parentId":"490G00000454","stationId":"490G00000454","stopLetter":"T","topMostParentId":"490G00000454","towards":"Orpington"},{"icsId":"1015304","id":"490015304N","lat":51.38105,"lon":0.10823,"name":"Court Road / Green Lane","parentId":"490G00015304","stationId":"490G00015304","stopLetter":"C","topMostParentId":"490G00015304","towards":"Locksbottom"},{"icsId":"1004801","id":"490004801S1","lat":51.38163,"lon":0.10578,"name":"High Street / Carlton Parade","parentId":"490G00004801","stationId":"490G00004801","stopLetter":"P","topMostParentId":"490G00004801","towards":"Green Street Green, Locksbottom Or Petts Wood"},{"icsId":"1010635","id":"490010635W","lat":51.37927,"lon":0.10253,"name":"High Street / Church Hill","parentId":"490G00010635","stationId":"490G00010635","stopLetter":"W","topMostParentId":"490G00010635","towards":"Green Street Green, Locksbottom Or Petts Wood"},{"icsId":"1014142","id":"490014142U","lat":51.37709,"lon":0.10028,"name":"Walnuts Centre","parentId":"490G00014142","stationId":"490G00014142","stopLetter":"U","topMostParentId":"490G00014142","towards":"Green Street Green, Locksbottom Or Petts Wood"},{"icsId":"1019892","id":"490015411S","lat":51.37428,"lon":0.09832,"name":"High Street / Orpington War Memorial","parentId":"490G00019892","stationId":"490G00019892","stopLetter":"S","topMostParentId":"490G00019892","towards":"Green Street Green, Locksbottom Or Petts Wood"},{"icsId":"1013818","id":"490013818J","lat":51.37176,"lon":0.09145,"name":"Tubbenden Lane","parentId":"490G00013818","stationId":"490G00013818","stopLetter":"J","topMostParentId":"490G00013818","towards":"Locksbottom Or Petts Wood"},{"icsId":"1001220","id":"490001220G","lat":51.3732,"lon":0.08962,"name":"Orpington Station","stopLetter":"G","topMostParentId":"490001220G"},{"icsId":"1001232","id":"490001220E","lat":51.37346,"lon":0.08957,"name":"Orpington Bus Station","parentId":"490G00001232","stationId":"490G00001232","stopLetter":"E","topMostParentId":"490G00001232"},{"icsId":"1020267","id":"490020267S","lat":51.3692,"lon":0.08593,"name":"Southcroft Road","parentId":"490G00020267","stationId":"490G00020267","stopLetter":"->S","topMostParentId":"490G00020267"},{"icsId":"1020268","id":"490020268S","lat":51.36617,"lon":0.082,"name":"Ashbourne Rise","parentId":"490G00020268","stationId":"490G00020268","stopLetter":"->S","topMostParentId":"490G00020268"},{"icsId":"1019833","id":"490019833N","lat":51.36482,"lon":0.08016,"name":"Curzon Close","parentId":"490G00019833","stationId":"490G00019833","stopLetter":"->N","topMostParentId":"490G00019833"},{"icsId":"1013824","id":"490003808S","lat":51.36473,"lon":0.08011,"name":"Tubbenden Lane Crofton","parentId":"490G00013824","stationId":"490G00013824","stopLetter":"->S","topMostParentId":"490G00013824"},{"icsId":"1020270","id":"490013816E","lat":51.36335,"lon":0.08114,"name":"Tubbenden Drive","parentId":"490G00020270","stationId":"490G00020270","stopLetter":"->S","topMostParentId":"490G00020270"},{"icsId":"1020270","id":"490020270E1","lat":51.36334,"lon":0.08117,"name":"Tubbenden Drive","parentId":"490G00020270","stationId":"490G00020270","topMostParentId":"490G00020270"},{"icsId":"1020271","id":"490016102","lat":51.36331,"lon":0.08188,"name":"Northlands Avenue","parentId":"490G00020271","stationId":"490G00020271","topMostParentId":"490G00020271"},{"icsId":"1019022","id":"490019022E","lat":51.36323,"lon":0.08218,"name":"Borkwood Way","parentId":"490G00019022","stationId":"490G00019022","stopLetter":"->E","topMostParentId":"490G00019022"},{"icsId":"1016102","id":"490016102E1","lat":51.36273,"lon":0.08416,"name":"Harley Gardens","parentId":"490G00016102","stationId":"490G00016102","stopLetter":"->E","topMostParentId":"490G00016102"},{"icsId":"1020271","id":"490020271E2","lat":51.36263,"lon":0.08453,"name":"Northlands Avenue","parentId":"490G00020271","stationId":"490G00020271","stopLetter":"->E","topMostParentId":"490G00020271"},{"icsId":"1023080","id":"490023080Z","lat":51.3613,"lon":0.08665,"name":"Oakleigh Gardens Orpington","parentId":"490G00023080","stationId":"490G00023080","stopLetter":"->S","topMostParentId":"490G00023080"},{"icsId":"1012308","id":"490012308W1","lat":51.36055,"lon":0.08558,"name":"South Drive/ Orpington","parentId":"490G00012308","stationId":"490G00012308","stopLetter":"->W","topMostParentId":"490G00012308"},{"icsId":"1020272","id":"490020272W","lat":51.36053,"lon":0.08531,"name":"Haywood Rise","parentId":"490G00020272","stationId":"490G00020272","stopLetter":"->W","topMostParentId":"490G00020272"},{"icsId":"1013825","id":"490013825Z","lat":51.36151,"lon":0.08143,"name":"Southlands Avenue","parentId":"490G00013825","stationId":"490G00013825","topMostParentId":"490G00013825"},{"icsId":"1003808","id":"490003808W1","lat":51.36251,"lon":0.07883,"name":"Beechcroft Road","parentId":"490G00003808","stationId":"490G00003808","topMostParentId":"490G00003808"},{"icsId":"1006759","id":"490006759W","lat":51.36168,"lon":0.07153,"name":"Farnborough Way","parentId":"490G00006759","stationId":"490G00006759","stopLetter":"T","topMostParentId":"490G00006759","towards":"Locksbottom"},{"icsId":"1020273","id":"490020273N","lat":51.36135,"lon":0.0644,"name":"Hill Avenue","parentId":"490G00020273","stationId":"490G00020273","stopLetter":"->N","topMostParentId":"490G00020273"},{"icsId":"1016100","id":"490016100N","lat":51.3648,"lon":0.06323,"name":"Lovibonds Avenue","parentId":"490G00016100","stationId":"490G00016100","stopLetter":"->N","topMostParentId":"490G00016100"},{"icsId":"1020274","id":"490020274N","lat":51.36751,"lon":0.05992,"name":"Starts Hill Road","parentId":"490G00020274","stationId":"490G00020274","stopLetter":"->N","topMostParentId":"490G00020274"},{"icsId":"1012600","id":"490012600W","lat":51.36857,"lon":0.05789,"name":"Crofton Road / Starts Hill Road","parentId":"490G00012600","stationId":"490G00012600","stopLetter":"HL","topMostParentId":"490G00012600","towards":"Biggin Hill, Bromley Common Or Hayes"},{"icsId":"1009243","id":"490009243W","lat":51.36679,"lon":0.05439,"name":"Locksbottom / St Michael's Church","parentId":"490G00009243","stationId":"490G00009243","stopLetter":"HK","topMostParentId":"490G00009243","towards":"Biggin Hill, Bromley Common Or Hayes"},{"icsId":"1006756","id":"490006756W1","lat":51.36529,"lon":0.05785,"name":"Princess Royal University Hospital","parentId":"490G000511","stationId":"490G000511","stopLetter":"HB","topMostParentId":"490G000511","towards":"Farnborough Or Petts Wood"}]}]}