{"direction":"outbound","lineId":"r6","lineName":"R6","mode":"bus","stopPointSequences":[{"stopPoint":[{"icsId":"1001232","id":"490001220D","lat":51.37348,"lon":0.08963,"name":"Orpington Bus Station","parentId":"490G00001232","stationId":"490G00001232","stopLetter":"D","topMostParentId":"910GORPNGTN"},{"icsId":"1013818","id":"490013818H","lat":51.37185,"lon":0.09134,"name":"Tubbenden Lane","parentId":"490G00013818","stationId":"490G00013818","stopLetter":"H","topMostParentId":"490G00013818","towards":"St Mary Cray, Chelsfield Or Chislehurst"},{"icsId":"1019892","id":"490015411R","lat":51.37396,"lon":0.09783,"name":"High Street / Orpington War Memorial","parentId":"490G00019892","stationId":"490G00019892","stopLetter":"R","topMostParentId":"490G00019892","towards":"Chislehurst or St Mary Cray"},{"icsId":"1014142","id":"490014142T","lat":51.37642,"lon":0.09956,"name":"Walnuts Centre","parentId":"490G00014142","stationId":"490G00014142","stopLetter":"T","topMostParentId":"490G00014142","towards":"Chislehurst Or St Mary Cray"},{"icsId":"1010636","id":"490010636V","lat":51.37827,"lon":0.10124,"name":"High Street / Broomhill Road","parentId":"490G00010636","stationId":"490G00010636","stopLetter":"V","topMostParentId":"490G00010636","towards":"Chislehurst Or St Mary Cray"},{"icsId":"1007292","id":"490007292N","lat":51.38165,"lon":0.10245,"name":"Goodmead Road","parentId":"490G00007292","stationId":"490G00007292","stopLetter":"D","topMostParentId":"490G00007292","towards":"Chislehurst Or St Mary Cray"},{"icsId":"1004808","id":"490004801N","lat":51.38203,"lon":0.10706,"name":"Carlton Parade","parentId":"490G00004808","stationId":"490G00004808","stopLetter":"L","topMostParentId":"490G00004808","towards":"St Mary Cray"},{"icsId":"1009428","id":"490009428N","lat":51.38405,"lon":0.10915,"name":"Lower Road","parentId":"490G00009428","stationId":"490G00009428","stopLetter":"M","topMostParentId":"490G00009428","towards":"Petts Wood, St Paul's Cray Or Swanley"},{"icsId":"1011544","id":"490011544N","lat":51.38697,"lon":0.11354,"name":"Reynolds Cross / Red Lion","parentId":"490G00011544","stationId":"490G00011544","stopLetter":"SN","topMostParentId":"490G00011544","towards":"Paul's Cray Hill Or Swanley"},{"icsId":"1013568","id":"490013568N","lat":51.38913,"lon":0.11393,"name":"The Temple","parentId":"490G00013568","stationId":"490G00013568","stopLetter":"SM","topMostParentId":"490G00013568","towards":"Pauls Cray Hill Or Swanley"},{"icsId":"1006938","id":"490006938E","lat":51.39196,"lon":0.11573,"name":"Forgefield Court","parentId":"490G00006938","stationId":"490G00006938","stopLetter":"SK","topMostParentId":"490G00006938","towards":"Swanley Or St Mary Cray Station"},{"icsId":"1009546","id":"490009546S","lat":51.39027,"lon":0.12055,"name":"Manning Road","parentId":"490G00009546","stationId":"490G00009546","stopLetter":"->S","topMostParentId":"490G00009546","towards":"Orpington Or St Mary Cray Station"},{"icsId":"1005785","id":"490005782S","lat":51.38778,"lon":0.12249,"name":"Crockenhill Road","parentId":"490G00005785","stationId":"490G00005785","stopLetter":"->N","topMostParentId":"490G00005785","towards":"Orpington Or St Mary Cray Station"},{"icsId":"1009962","id":"490009962E","lat":51.39145,"lon":0.1223,"name":"Molash Road","parentId":"490G00009962","stationId":"490G00009962","stopLetter":"->E","topMostParentId":"490G00009962","towards":"St Mary Cray Station"},{"icsId":"1015961","id":"490015961E","lat":51.39207,"lon":0.12384,"name":"Palmarsh Close","parentId":"490G00015961","stationId":"490G00015961","stopLetter":"->E","topMostParentId":"490G00015961","towards":"St Mary Cray"},{"icsId":"1014955","id":"490014955W","lat":51.39358,"lon":0.12334,"name":"Wotton Green / Sandway Road","parentId":"490G00014955","stationId":"490G00014955","stopLetter":"->W","topMostParentId":"490G00014955","towards":"St Mary Cray Station"},{"icsId":"1010530","id":"490010530W","lat":51.3933,"lon":0.1195,"name":"Oldbury Close","parentId":"490G00010530","stationId":"490G00010530","stopLetter":"->W","topMostParentId":"490G00010530","towards":"St Mary Cray Station"},{"icsId":"1003836","id":"490003836W","lat":51.39349,"lon":0.11708,"name":"Belgrave Close","parentId":"490G00003836","stationId":"490G00003836","stopLetter":"->W","topMostParentId":"490G00003836","towards":"St Mary Cray Station"},{"icsId":"1012610","id":"490012610N","lat":51.39538,"lon":0.11419,"name":"Station Road","parentId":"490G00012610","stationId":"490G00012610","stopLetter":"SE","topMostParentId":"490G00012610","towards":"Pauls Cray Hill Or Burrfield Drive"},{"icsId":"1012606","id":"490012606SD","lat":51.39508,"lon":0.11087,"name":"St Mary Cray / Station Approach","parentId":"490G00012606","stationId":"490G00012606","stopLetter":"SD","topMostParentId":"490G00012606","towards":"Chislehurst, Grovelands Or Sidcup"}]}]}