{"direction":"outbound","lineId":"r68","lineName":"R68","mode":"bus","stopPointSequences":[{"stopPoint":[{"icsId":"1016326","id":"490016326S","lat":51.47867,"lon":-0.28005,"name":"Kew Retail Park","parentId":"490G00016326","stationId":"490G00016326","stopLetter":"U","topMostParentId":"490G00016326","towards":"Richmond"},{"icsId":"1016327","id":"490016327S","lat":51.47595,"lon":-0.28141,"name":"West Park Road","parentId":"490G00016327","stationId":"490G00016327","stopLetter":"V","topMostParentId":"490G00016327","towards":"Richmond"},{"icsId":"1018678","id":"490018678E","lat":51.47472,"lon":-0.27941,"name":"Taylor Avenue","parentId":"490G00018678","stationId":"490G00018678","stopLetter":"W","topMostParentId":"490G00018678","towards":"Richmond"},{"icsId":"1016328","id":"490016328S","lat":51.47373,"lon":-0.27704,"name":"Courtlands Avenue","parentId":"490G00016328","stationId":"490G00016328","stopLetter":"E","topMostParentId":"490G00016328","towards":"Richmond"},{"icsId":"1016329","id":"490016329S","lat":51.46951,"lon":-0.2767,"name":"Chalkers Corner","parentId":"490G00016329","stationId":"490G00016329","stopLetter":"F","topMostParentId":"490G00016329","towards":"Richmond"},{"icsId":"1010049","id":"490010049W","lat":51.46874,"lon":-0.27857,"name":"Mortlake Road","parentId":"490G00010049","stationId":"490G00010049","stopLetter":"G","topMostParentId":"490G00010049","towards":"Richmond"},{"icsId":"1009561","id":"490009561W","lat":51.46771,"lon":-0.2834,"name":"Manor Grove","parentId":"490G00009561","stationId":"490G00009561","stopLetter":"H","topMostParentId":"490G00009561","towards":"Richmond"},{"icsId":"1009547","id":"490009547SB","lat":51.46698,"lon":-0.29037,"name":"Manor Circus","parentId":"490G00009547","stationId":"490G00009547","stopLetter":"SB","topMostParentId":"490G00009547","towards":"Ham, St Margarets Or Twickenham"},{"icsId":"1012048","id":"490012048SK","lat":51.4661,"lon":-0.29292,"name":"Sheendale Road","parentId":"490G00012048","stationId":"490G00012048","stopLetter":"SK","topMostParentId":"490G00012048","towards":"Ham, Twickenham Or Sheen"},{"icsId":"1011557","id":"490011557W","lat":51.46507,"lon":-0.29786,"name":"Richmond Circus","parentId":"490G00011557","stationId":"490G00011557","stopLetter":"RR","topMostParentId":"490G00011557","towards":"Ham, St Margarets Or Twickenham"},{"icsId":"1000192","id":"490000192S","lat":51.46324,"lon":-0.30217,"name":"Richmond Station","stopLetter":"E","topMostParentId":"490000192S","towards":"Isleworth Or Twickenham","zone":"4"},{"icsId":"1013511","id":"490013511F","lat":51.46193,"lon":-0.30294,"name":"The Quadrant","parentId":"490G00013511","stationId":"490G00013511","stopLetter":"F","topMostParentId":"490G00013511","towards":"Ham, St Margarets Or Twickenham"},{"icsId":"1011556","id":"490011556J","lat":51.4591,"lon":-0.30458,"name":"Richmond Bus Station","parentId":"490G00011556","stationId":"490G00011556","stopLetter":"J","topMostParentId":"490G00011556","towards":"Ham, St Margarets Or Twickenham"},{"icsId":"1005755","id":"490005755W","lat":51.45611,"lon":-0.30919,"name":"Cresswell Road","parentId":"490G00005755","stationId":"490G00005755","stopLetter":"X","topMostParentId":"490G00005755","towards":"Isleworth, Twickenham Or Whitton"},{"icsId":"1004705","id":"490004705W","lat":51.45454,"lon":-0.31175,"name":"Cambridge Park","parentId":"490G00004705","stationId":"490G00004705","stopLetter":"B","topMostParentId":"490G00004705","towards":"Fulwell, Hanworth Or Teddington"},{"icsId":"1012460","id":"490012460S","lat":51.45302,"lon":-0.31321,"name":"St Stephen's Church","parentId":"490G00012460","stationId":"490G00012460","stopLetter":"C","topMostParentId":"490G00012460","towards":"Fulwell, Hanworth Or Teddington"},{"icsId":"1005841","id":"490005841T","lat":51.45169,"lon":-0.3168,"name":"Marble Hill Park / Crown Road","parentId":"490G00005841","stationId":"490G00005841","stopLetter":"D","topMostParentId":"490G00005841","towards":"Fulwell, Hanworth Or Teddington"},{"icsId":"1018556","id":"490018556E","lat":51.45071,"lon":-0.32044,"name":"Orleans Park School","parentId":"490G00018556","stationId":"490G00018556","stopLetter":"E","topMostParentId":"490G00018556","towards":"Fulwell, Hanworth Or Teddington"},{"icsId":"1009053","id":"490009053W","lat":51.44885,"lon":-0.32393,"name":"Lebanon Court","parentId":"490G00009053","stationId":"490G00009053","stopLetter":"F","topMostParentId":"490G00009053","towards":"Fulwell, Hanworth Or Teddington"},{"icsId":"1015022","id":"490015022W","lat":51.44707,"lon":-0.32771,"name":"York Street / Twickenham","parentId":"490G00015022","stationId":"490G00015022","stopLetter":"G","topMostParentId":"490G00015022","towards":"Hanworth, Teddington Or Whitton"},{"icsId":"1011148","id":"490001148Z","lat":51.4451,"lon":-0.3297,"name":"Poulett Gardens","parentId":"490G00011148","stationId":"490G00011148","stopLetter":"P","topMostParentId":"490G00011148","towards":"Teddington"},{"icsId":"1011104","id":"490011104S","lat":51.44212,"lon":-0.3314,"name":"Popes Grotto","parentId":"490G00011104","stationId":"490G00011104","stopLetter":"SL","topMostParentId":"490G00011104","towards":"Teddington"},{"icsId":"1009848","id":"490009848S","lat":51.43897,"lon":-0.33247,"name":"Michelham Gardens","parentId":"490G00009848","stationId":"490G00009848","stopLetter":"SQ","topMostParentId":"490G00009848","towards":"Teddington"},{"icsId":"1009527","id":"490009527ST","lat":51.43685,"lon":-0.33095,"name":"Mallard Place","parentId":"490G00009527","stationId":"490G00009527","stopLetter":"ST","topMostParentId":"490G00009527","towards":"Hampton Hill"},{"icsId":"1007558","id":"490007558S","lat":51.43229,"lon":-0.32826,"name":"Grove Gardens","parentId":"490G00007558","stationId":"490G00007558","stopLetter":"SY","topMostParentId":"490G00007558","towards":"Hampton Hill"},{"icsId":"1009577","id":"490009577S","lat":51.43175,"lon":-0.3272,"name":"Manor Road","parentId":"490G00009577","stationId":"490G00009577","stopLetter":"T","topMostParentId":"490G00009577","towards":"Hampton Hill"},{"icsId":"1013174","id":"490012507W","lat":51.4282,"lon":-0.32479,"name":"Teddington Lock","parentId":"490G00013174","stationId":"490G00013174","stopLetter":"U","topMostParentId":"490G00013174","towards":"Hampton Hill"},{"icsId":"1004709","id":"490004709W","lat":51.42728,"lon":-0.32871,"name":"Cambridge Road","parentId":"490G00004709","stationId":"490G00004709","stopLetter":"Z","topMostParentId":"490G00004709","towards":"Hampton Hill Or Twickenham"},{"icsId":"1013172","id":"490013172D","lat":51.42713,"lon":-0.33212,"name":"Elmfield Avenue","parentId":"490G00013172","stationId":"490G00013172","stopLetter":"D","topMostParentId":"490G00013172","towards":"Hampton Hill Or Twickenham"},{"icsId":"1004377","id":"490004377F","lat":51.42595,"lon":-0.33687,"name":"Broad Street / Teddington","parentId":"490G00004377","stationId":"490G00004377","stopLetter":"F","topMostParentId":"490G00004377","towards":"Fulwell, Hampton, Twickenham Or Whitton"},{"icsId":"1013176","id":"490013175W","lat":51.42645,"lon":-0.34078,"name":"Teddington Memorial Hospital","parentId":"490G00013176","stationId":"490G00013176","stopLetter":"J","topMostParentId":"490G00013176","towards":"Hampton Or Hanworth"},{"icsId":"1010157","id":"490010157W","lat":51.42714,"lon":-0.34438,"name":"National Physical Laboratory","parentId":"490G00010157","stationId":"490G00010157","stopLetter":"K","topMostParentId":"490G00010157","towards":"Hampton Or Hanworth"},{"icsId":"1010685","id":"490010685W","lat":51.42802,"lon":-0.34985,"name":"Oxford Road","parentId":"490G00010685","stationId":"490G00010685","stopLetter":"->W","topMostParentId":"490G00010685","towards":"Hampton Or Hanworth"},{"icsId":"1010806","id":"490010806S","lat":51.42853,"lon":-0.35457,"name":"Parkside","parentId":"490G00010806","stationId":"490G00010806","stopLetter":"HA","topMostParentId":"490G00010806","towards":"Hampton Court, Hanworth Or Nurserylands"},{"icsId":"1007732","id":"490007732S","lat":51.4266,"lon":-0.35585,"name":"Cross Street","parentId":"490G00007732","stationId":"490G00007732","stopLetter":"HB","topMostParentId":"490G00007732","towards":"Hampton Court, Hanworth Or Nurserylands"},{"icsId":"1007733","id":"490007733S","lat":51.42448,"lon":-0.35789,"name":"Holly Road","parentId":"490G00007733","stationId":"490G00007733","stopLetter":"HC","topMostParentId":"490G00007733","towards":"Hanworth, Hampton Court Or Nurserylands"},{"icsId":"1013975","id":"490013975S","lat":51.42116,"lon":-0.359,"name":"Uxbridge Road","parentId":"490G00013975","stationId":"490G00013975","stopLetter":"->S","topMostParentId":"490G00013975","towards":"Hampton Court"},{"icsId":"1007736","id":"490007736S","lat":51.41826,"lon":-0.35889,"name":"Hampton Pool","parentId":"490G00007736","stationId":"490G00007736","stopLetter":"G","topMostParentId":"490G00007736","towards":"Hampton Court"},{"icsId":"1010757","id":"490010757S","lat":51.41588,"lon":-0.35905,"name":"Park Close","parentId":"490G00010757","stationId":"490G00010757","stopLetter":"M","topMostParentId":"490G00010757","towards":"Hampton Court"},{"icsId":"1007725","id":"490007725S","lat":51.41433,"lon":-0.36013,"name":"Hampton Church","parentId":"490G00007725","stationId":"490G00007725","stopLetter":"N","topMostParentId":"490G00007725","towards":"Hampton Court"},{"icsId":"1007125","id":"490007125E","lat":51.41269,"lon":-0.35925,"name":"Garrick Villa","parentId":"490G00007125","stationId":"490G00007125","stopLetter":"P","topMostParentId":"490G00007125","towards":"Kingston"},{"icsId":"1012423","id":"490012423E","lat":51.4115,"lon":-0.35528,"name":"St Albans Lodge","parentId":"490G00012423","stationId":"490G00012423","stopLetter":"->E","topMostParentId":"490G00012423","towards":"Kingston"},{"icsId":"1013570","id":"490013570E","lat":51.40956,"lon":-0.35022,"name":"St Alban's Riverside","parentId":"490G00013570","stationId":"490G00013570","stopLetter":"->E","topMostParentId":"490G00013570","towards":"Kingston"},{"icsId":"1007734","id":"490007734E","lat":51.40802,"lon":-0.34696,"name":"Hampton Lodge","parentId":"490G00007734","stationId":"490G00007734","stopLetter":"->E","topMostParentId":"490G00007734","towards":"Kingston"},{"icsId":"1007713","id":"490007713D","lat":51.40616,"lon":-0.34338,"name":"Hampton Court Green","parentId":"490G00007713","stationId":"490G00007713","stopLetter":"D","topMostParentId":"490G00007713","towards":"Kingston"},{"icsId":"1007729","id":"490007729F","lat":51.40439,"lon":-0.34186,"name":"Hampton Court Palace","parentId":"490G00007729","stationId":"490G00007729","stopLetter":"F","topMostParentId":"490G00007729","towards":"East & West Molesey Or Walton"},{"icsId":"1001133","id":"40004405136E","lat":51.402764,"lon":-0.342826,"name":"Hampton Court Station","parentId":"400G4405136C","stationId":"400G4405136C","stopLetter":"G","topMostParentId":"HUBHAM","towards":"Hampton"}]}]}