{"direction":"outbound","lineId":"sl10","lineName":"SL10","mode":"bus","stopPointSequences":[{"stopPoint":[{"icsId":"1010369","id":"490010369H","lat":51.61232,"lon":-0.17499,"name":"North Finchley High Road","parentId":"490G00010369","stationId":"490G00010369","stopLetter":"H","topMostParentId":"490G00010369","towards":"Mill Hill"},{"icsId":"1015443","id":"490015443P","lat":51.61266,"lon":-0.17691,"name":"North Finchley Bus Station","parentId":"490G00015443","stationId":"490G00015443","stopLetter":"P","topMostParentId":"490G00015443"},{"icsId":"1000081","id":"490000081D","lat":51.60225,"lon":-0.19232,"name":"Finchley Central Station","stopLetter":"D","topMostParentId":"490000081D","towards":"Golders Green, Hendon Or Mill Hill East","zone":"4"},{"icsId":"1013512","id":"490013512T","lat":51.58954,"lon":-0.22093,"name":"Hendon / the Quadrant","parentId":"490G00013512","stationId":"490G00013512","stopLetter":"T","topMostParentId":"490G00013512","towards":"Colindale Or Hendon Central"},{"icsId":"1000106","id":"490000106B","lat":51.58284,"lon":-0.22517,"name":"Hendon Central Station","stopLetter":"B","topMostParentId":"490000106B","towards":"Kingsbury Green","zone":"3+4"},{"icsId":"1001148","id":"490001148B","lat":51.57998,"lon":-0.23801,"name":"Hendon Station","stopLetter":"HE","topMostParentId":"490001148B","towards":"Kingsbury Green"},{"icsId":"1014471","id":"490014471N","lat":51.58199,"lon":-0.24535,"name":"Hendon Magistrates Court","parentId":"490G00014471","stationId":"490G00014471","stopLetter":"HP","topMostParentId":"490G00014471","towards":"Colindale Or Kingsbury Green"},{"icsId":"1005997","id":"490005271W","lat":51.58303,"lon":-0.26304,"name":"Kingsbury  / Pipers Green","parentId":"490G00005997","stationId":"490G00005997","stopLetter":"H","topMostParentId":"490G00005997","towards":"Burnt Oak Or Kingsbury"},{"icsId":"1000128","id":"490000128B","lat":51.58484,"lon":-0.27935,"name":"Kingsbury Station","stopLetter":"B","topMostParentId":"490000128B","towards":"Kenton Or Wembley","zone":"4"},{"icsId":"1005014","id":"490005014W","lat":51.5868,"lon":-0.29897,"name":"Kenton / Charlton Road","parentId":"490G00005014","stationId":"490G00005014","stopLetter":"->W","topMostParentId":"490G00005014","towards":"Harrow"},{"icsId":"1014822","id":"490014822W","lat":51.5862,"lon":-0.30748,"name":"Woodcock Hill / Kenton Lane","parentId":"490G00014822","stationId":"490G00014822","stopLetter":"H","topMostParentId":"490G00014822","towards":"Harrow"},{"icsId":"1000124","id":"490000124II","lat":51.58109,"lon":-0.31859,"name":"Kenton Station","stopLetter":"II","topMostParentId":"490000124II","towards":"Harrow","zone":"4"},{"icsId":"1007845","id":"490007845B","lat":51.58004,"lon":-0.33758,"name":"Harrow Bus Station","parentId":"490G000574","stationId":"490G000574","stopLetter":"B","topMostParentId":"HUBHOH","towards":"South Harrow"}]}]}