{"direction":"outbound","lineId":"sl8","lineName":"SL8","mode":"bus","stopPointSequences":[{"stopPoint":[{"icsId":"1000246","id":"490000246O","lat":51.5473,"lon":-0.47929,"name":"Uxbridge Station","stopLetter":"O","topMostParentId":"490000246O","towards":"Hayes End Or Hillingdon Hospital","zone":"6"},{"icsId":"1013396","id":"490013396E","lat":51.53742,"lon":-0.47122,"name":"The Greenway","parentId":"490G00013396","stationId":"490G00013396","stopLetter":"BD","topMostParentId":"490G00013396","towards":"Southall, Heathrow Airport Or Hayes"},{"icsId":"1009069","id":"490009069E","lat":51.52992,"lon":-0.44676,"name":"Hillingdon Heath / Lees Road","parentId":"490G00009069","stationId":"490G00009069","stopLetter":"UF","topMostParentId":"490G00009069","towards":"Hayes End"},{"icsId":"1007946","id":"490007946E","lat":51.52468,"lon":-0.4307,"name":"Hayes End","parentId":"490G00007946","stationId":"490G00007946","stopLetter":"XC","topMostParentId":"490G00007946","towards":"Hayes Or Southall"},{"icsId":"1008962","id":"490008962E","lat":51.52237,"lon":-0.42012,"name":"Uxbridge County Court","parentId":"490G00008962","stationId":"490G00008962","stopLetter":"E","topMostParentId":"490G00008962","towards":"Hayes Or Southall"},{"icsId":"1013384","id":"490014746R","lat":51.51769,"lon":-0.4045,"name":"Hayes / the Grapes","parentId":"490G00013384","stationId":"490G00013384","stopLetter":"R","topMostParentId":"490G00013384","towards":"Southall"},{"icsId":"1013805","id":"490013805E","lat":51.51271,"lon":-0.38667,"name":"Southall / Trinity Road","parentId":"490G00013805","stationId":"490G00013805","stopLetter":"T","topMostParentId":"490G00013805","towards":"Ealing"},{"icsId":"1019182","id":"490013594R","lat":51.51094,"lon":-0.37297,"name":"Southall / North Road","parentId":"490G00019182","stationId":"490G00019182","stopLetter":"R","topMostParentId":"490G00019182","towards":"Boston Manor Or Ealing"},{"icsId":"1008498","id":"490008498E2","lat":51.50987,"lon":-0.35768,"name":"Iron Bridge","parentId":"490G00008498","stationId":"490G00008498","stopLetter":"UD","topMostParentId":"490G00008498","towards":"Boston Manor Or Ealing"},{"icsId":"1006292","id":"490015230P","lat":51.50903,"lon":-0.34743,"name":"Ealing Hospital / Wharncliffe Drive","parentId":"490G00006292","stationId":"490G00006292","stopLetter":"P","topMostParentId":"490G00006292","towards":"Boston Manor Or Ealing Broadway"},{"icsId":"1007760","id":"490007760E1","lat":51.50883,"lon":-0.33518,"name":"Hanwell Broadway","parentId":"490G00007760","stationId":"490G00007760","stopLetter":"G","topMostParentId":"490G00007760","towards":"Ealing Broadway"},{"icsId":"1014430","id":"490014430U","lat":51.51029,"lon":-0.3238,"name":"West Ealing Broadway","parentId":"490G00014430","stationId":"490G00014430","stopLetter":"U","topMostParentId":"490G00014430","towards":"Hanger Lane Or Acton"},{"icsId":"1004143","id":"490019653E","lat":51.51301,"lon":-0.30655,"name":"Bond Street","parentId":"490G00004143","stationId":"490G00004143","stopLetter":"->E","topMostParentId":"490G00004143","towards":"Acton Or Hanger Lane"},{"icsId":"1000062","id":"490000062H","lat":51.514,"lon":-0.30298,"name":"Ealing Broadway Station","stopLetter":"H","topMostParentId":"490000062H","towards":"Acton Or Hanger Lane","zone":"3"},{"icsId":"1000063","id":"490000063S","lat":51.5107,"lon":-0.28837,"name":"Ealing Common Station","stopLetter":"ET","topMostParentId":"490000063S","towards":"Shepherds Bush","zone":"3"},{"icsId":"1003083","id":"490003083F","lat":51.50675,"lon":-0.26725,"name":"Acton Old Town Hall","parentId":"490G00003083","stationId":"490G00003083","stopLetter":"F","topMostParentId":"490G00003083","towards":"Shepherd's Bush, Hammersmith, Chiswick Or E Acton"},{"icsId":"1001002","id":"490001002H","lat":51.50655,"lon":-0.26287,"name":"Acton Central Station","stopLetter":"H","topMostParentId":"490001002H","towards":"East Acton, Hammersmith Or Shepherd's Bush"},{"icsId":"1004438","id":"490004438E","lat":51.50679,"lon":-0.25241,"name":"Acton Vale / Bromyard Avenue","parentId":"490G00004438","stationId":"490G00004438","stopLetter":"VT","topMostParentId":"490G00004438","towards":"East Acton, Hammersmith Or Shepherd's Bush"},{"icsId":"1003110","id":"490003110E","lat":51.50652,"lon":-0.23751,"name":"Adelaide Grove","parentId":"490G00003110","stationId":"490G00003110","stopLetter":"LB","topMostParentId":"490G00003110","towards":"White City"},{"icsId":"1012066","id":"490012066B","lat":51.50575,"lon":-0.22741,"name":"Shepherds Bush Market Station","parentId":"490G000741","stationId":"490G000741","stopLetter":"R","topMostParentId":"490G000741","towards":"Hammersmith Or White City Bus Station"},{"icsId":"1000203","id":"490000203B","lat":51.50541,"lon":-0.21815,"name":"Shepherd's Bush Station","stopLetter":"B","topMostParentId":"490000203B","towards":"White City Bus Station","zone":"2"},{"icsId":"1003375","id":"490003375AP","lat":51.50904,"lon":-0.22402,"name":"White City Bus Station","parentId":"490G00003375","stationId":"490G00003375","stopLetter":"WG","topMostParentId":"490G00003375"}]}]}