{"direction":"outbound","lineId":"sl9","lineName":"SL9","mode":"bus","stopPointSequences":[{"stopPoint":[{"icsId":"1008016","id":"4900801619","lat":51.47137,"lon":-0.45346,"name":"Heathrow Central Bus Station","parentId":"910GHTRWCBS","stationId":"910GHTRWCBS","stopLetter":"19","topMostParentId":"HUBH13"},{"icsId":"1007811","id":"490007811B","lat":51.4813,"lon":-0.43448,"name":"Harlington Corner","parentId":"490G00007811","stationId":"490G00007811","stopLetter":"N","topMostParentId":"490G00007811","towards":"Hayes Town"},{"icsId":"1009564","id":"490009564N","lat":51.48755,"lon":-0.43593,"name":"Harlington High Street / Sipson Lane","parentId":"490G00009564","stationId":"490G00009564","stopLetter":"R","topMostParentId":"490G00009564","towards":"Hayes & Harlington Station"},{"icsId":"1001144","id":"490001144N","lat":51.50333,"lon":-0.42076,"name":"Hayes & Harlington Station","stopLetter":"L","topMostParentId":"490001144N","towards":"Hillingdon Hospital, Hayes End Or Yeading"},{"icsId":"1000828","id":"490000828Z","lat":51.50681,"lon":-0.41909,"name":"Hayes Town Centre","parentId":"490G000162","stationId":"490G000162","stopLetter":"P","topMostParentId":"490G000162","towards":"Hayes End, Yeading Or Hillingdon Hospital"},{"icsId":"1013384","id":"490013979P","lat":51.51902,"lon":-0.40596,"name":"Hayes / the Grapes","parentId":"490G00013384","stationId":"490G00013384","stopLetter":"P","topMostParentId":"490G00013384","towards":"Greenford Or Northolt"},{"icsId":"1014711","id":"490014711N","lat":51.52818,"lon":-0.39926,"name":"Yeading Lane / Willow Tree Lane","parentId":"490G00014711","stationId":"490G00014711","stopLetter":"E","topMostParentId":"490G00014711","towards":"Northolt"},{"icsId":"1015478","id":"490015478N","lat":51.5359,"lon":-0.39246,"name":"Yeading / Tangmere Gardens","parentId":"490G00015478","stationId":"490G00015478","stopLetter":"N","topMostParentId":"490G00015478","towards":"Greenford Or Northolt"},{"icsId":"1014992","id":"490014992N1","lat":51.53729,"lon":-0.38916,"name":"Yeading / White Hart Roundabout","parentId":"490G00014992","stationId":"490G00014992","stopLetter":"V","topMostParentId":"490G00014992","towards":"Northolt Station"},{"icsId":"1000162","id":"490000162A","lat":51.54767,"lon":-0.36878,"name":"Northolt Station","stopLetter":"A","topMostParentId":"490000162A","towards":"Eastcote Or Harrow","zone":"5"},{"icsId":"1001211","id":"490003203A","lat":51.55884,"lon":-0.36033,"name":"Northolt Park Station","stopLetter":"NC","topMostParentId":"490003203A","towards":"Harrow"},{"icsId":"1000211","id":"490000211F","lat":51.56456,"lon":-0.35398,"name":"South Harrow Station","stopLetter":"F","topMostParentId":"490000211F","towards":"Harrow","zone":"5"},{"icsId":"1007845","id":"490007845E","lat":51.57998,"lon":-0.33787,"name":"Harrow Bus Station","parentId":"490G000574","stationId":"490G000574","stopLetter":"E","topMostParentId":"HUBHOH","towards":"Kenton"}]}]}