{"direction":"outbound","lineId":"u1","lineName":"U1","mode":"bus","stopPointSequences":[{"stopPoint":[{"icsId":"1000197","id":"490000197B","lat":51.57223,"lon":-0.42162,"name":"Ruislip Station","stopLetter":"B","topMostParentId":"490000197B","towards":"Mount Vernon, Uxbridge Or Yeading","zone":"6"},{"icsId":"1011781","id":"490011781C","lat":51.57258,"lon":-0.42287,"name":"Brickwall Lane","parentId":"490G00011781","stationId":"490G00011781","stopLetter":"C","topMostParentId":"490G00011781","towards":"Ickenham Or Northwood"},{"icsId":"1008454","id":"490008454F","lat":51.57412,"lon":-0.4248,"name":"Midcroft","parentId":"490G00008454","stationId":"490G00008454","stopLetter":"F","topMostParentId":"490G00008454","towards":"Ickenham Or Northwood"},{"icsId":"1013488","id":"490013488W","lat":51.57238,"lon":-0.43095,"name":"Church Avenue","parentId":"490G00013488","stationId":"490G00013488","stopLetter":"Q","topMostParentId":"490G00013488","towards":"Ickenham, Uxbridge Or Yeading"},{"icsId":"1012038","id":"490012038W","lat":51.57187,"lon":-0.43211,"name":"Sharps Lane","parentId":"490G00012038","stationId":"490G00012038","stopLetter":"R","topMostParentId":"490G00012038","towards":"Ickenham Or Uxbridge"},{"icsId":"1000267","id":"490000267A","lat":51.56963,"lon":-0.43808,"name":"West Ruislip Station","stopLetter":"S","topMostParentId":"490000267A","towards":"Ickenham Or Uxbridge","zone":"6"},{"icsId":"1010472","id":"490010472W","lat":51.56687,"lon":-0.44181,"name":"Oak Avenue","parentId":"490G00010472","stationId":"490G00010472","stopLetter":"T","topMostParentId":"490G00010472","towards":"Hillingdon Or Uxbridge"},{"icsId":"1019715","id":"490013091B","lat":51.56445,"lon":-0.44431,"name":"Ickenham Pump","parentId":"490G000940","stationId":"490G000940","stopLetter":"B","topMostParentId":"490G000940","towards":"Uxbridge"},{"icsId":"1008528","id":"490008528W","lat":51.56551,"lon":-0.44713,"name":"Ivy House Road","parentId":"490G00008528","stationId":"490G00008528","stopLetter":"->W","topMostParentId":"490G00008528","towards":"Uxbridge"},{"icsId":"1014132","id":"490014132W","lat":51.56546,"lon":-0.45061,"name":"Wallasey Crescent","parentId":"490G00014132","stationId":"490G00014132","stopLetter":"->W","topMostParentId":"490G00014132","towards":"Uxbridge"},{"icsId":"1013629","id":"490013629W","lat":51.56514,"lon":-0.45547,"name":"Thornhill Road","parentId":"490G00013629","stationId":"490G00013629","stopLetter":"->W","topMostParentId":"490G00013629","towards":"Uxbridge"},{"icsId":"1004271","id":"490004271W","lat":51.56483,"lon":-0.46128,"name":"Breakspear Road South","parentId":"490G00004271","stationId":"490G00004271","stopLetter":"->W","topMostParentId":"490G00004271","towards":"Uxbridge"},{"icsId":"1011649","id":"490011649S","lat":51.5625,"lon":-0.46618,"name":"Roker Park Avenue","parentId":"490G00011649","stationId":"490G00011649","stopLetter":"->S","topMostParentId":"490G00011649","towards":"Uxbridge"},{"icsId":"1014240","id":"490014240S","lat":51.55959,"lon":-0.46903,"name":"Warren Road","parentId":"490G00014240","stationId":"490G00014240","stopLetter":"->S","topMostParentId":"490G00014240","towards":"Uxbridge"},{"icsId":"1007787","id":"490007787S","lat":51.55688,"lon":-0.46957,"name":"Harefield Road","parentId":"490G00007787","stationId":"490G00007787","stopLetter":"->S","topMostParentId":"490G00007787","towards":"Uxbridge and West Drayton"},{"icsId":"1010340","id":"490010340S","lat":51.55471,"lon":-0.46995,"name":"North Common Road","parentId":"490G00010340","stationId":"490G00010340","stopLetter":"->S","topMostParentId":"490G00010340","towards":"Uxbridge and West Drayton"},{"icsId":"1010810","id":"490010810W","lat":51.55021,"lon":-0.47213,"name":"The Hermitage","parentId":"490G00010810","stationId":"490G00010810","stopLetter":"->W","topMostParentId":"490G00010810","towards":"Uxbridge and West Drayton"},{"icsId":"1015585","id":"490000246E","lat":51.54787,"lon":-0.47832,"name":"Belmont Road","parentId":"490G00015585","stationId":"490G00015585","stopLetter":"E","topMostParentId":"490G00015585","towards":"Denham, High Wycombe Or Watford"},{"icsId":"1013969","id":"490013969B","lat":51.54796,"lon":-0.48129,"name":"Uxbridge High Street","parentId":"490G00013969","stationId":"490G00013969","stopLetter":"B","topMostParentId":"490G00013969","towards":"Hillingdon Hosp., Hayes End Or West Drayton"},{"icsId":"1005845","id":"490005845R","lat":51.54563,"lon":-0.48231,"name":"Crown Walk","parentId":"490G00005845","stationId":"490G00005845","stopLetter":"R","topMostParentId":"490G00005845","towards":"Hayes End Or Hillingdon Hospital"},{"icsId":"1014095","id":"490014095T","lat":51.54492,"lon":-0.47751,"name":"Vine Street","parentId":"490G00014095","stationId":"490G00014095","stopLetter":"T","topMostParentId":"490G00014095","towards":"Hayes End Or Hillingdon Hospital"},{"icsId":"1012425","id":"490012425S","lat":51.54292,"lon":-0.47262,"name":"St Andrew's Church","parentId":"490G00012425","stationId":"490G00012425","stopLetter":"Y","topMostParentId":"490G00012425","towards":"Hayes End, Hillingdon Hospital Or Heathrow"},{"icsId":"1009602","id":"490011381E","lat":51.54055,"lon":-0.47211,"name":"Manor Waye - St Andrew's Park","parentId":"490G00009602","stationId":"490G00009602","stopLetter":"Z","topMostParentId":"490G00009602","towards":"Hayes End, Hillingdon Hospital Or Heathrow"},{"icsId":"1013396","id":"490013396E","lat":51.53742,"lon":-0.47122,"name":"The Greenway","parentId":"490G00013396","stationId":"490G00013396","stopLetter":"BD","topMostParentId":"490G00013396","towards":"Southall, Heathrow Airport Or Hayes"},{"icsId":"1008525","id":"490008525BG","lat":51.53452,"lon":-0.46842,"name":"Ivybridge Close","parentId":"490G00008525","stationId":"490G00008525","stopLetter":"BG","topMostParentId":"490G00008525","towards":"Hayes Or West Drayton"},{"icsId":"1004527","id":"490004527BH","lat":51.53178,"lon":-0.46649,"name":"Brunel University","parentId":"490G00004527","stationId":"490G00004527","stopLetter":"BH","topMostParentId":"490G00004527","towards":"Hayes Or West Drayton"},{"icsId":"1018281","id":"490010995S","lat":51.52871,"lon":-0.46501,"name":"Brunel University Sports Park","parentId":"490G00018281","stationId":"490G00018281","stopLetter":"HC","topMostParentId":"490G00018281","towards":"Hayes End, Hayes Town Or Hillingdon Station"},{"icsId":"1008225","id":"490008225E","lat":51.5271,"lon":-0.46202,"name":"Hillingdon Hospital","parentId":"490G00008225","stationId":"490G00008225","stopLetter":"HB","topMostParentId":"490G00008225","towards":"Hayes Or West Drayton"},{"icsId":"1005477","id":"490005477E","lat":51.52613,"lon":-0.45947,"name":"Colham Road","parentId":"490G00005477","stationId":"490G00005477","stopLetter":"A","topMostParentId":"490G00005477","towards":"Hayes Or West Drayton"},{"icsId":"1005478","id":"490014098W","lat":51.52285,"lon":-0.45892,"name":"Violet Avenue","parentId":"490G00005478","stationId":"490G00005478","stopLetter":"D","topMostParentId":"490G00005478","towards":"West Drayton Or Heathrow"},{"icsId":"1003348","id":"490003348W","lat":51.51744,"lon":-0.46328,"name":"Apple Tree Avenue","parentId":"490G00003348","stationId":"490G00003348","stopLetter":"L","topMostParentId":"490G00003348","towards":"West Drayton"},{"icsId":"1010663","id":"490010663W","lat":51.5171,"lon":-0.47089,"name":"Otterfield Road","parentId":"490G00010663","stationId":"490G00010663","stopLetter":"A","topMostParentId":"490G00010663","towards":"West Drayton"},{"icsId":"1015006","id":"490006729S","lat":51.51509,"lon":-0.47411,"name":"Yiewsley Library","parentId":"490G00015006","stationId":"490G00015006","stopLetter":"W","topMostParentId":"490G00015006","towards":"Harmondsworth, Sipson Or Stockley Park Estate"},{"icsId":"1015005","id":"490015005B","lat":51.51242,"lon":-0.47249,"name":"Yiewsley High Street","parentId":"490G00015005","stationId":"490G00015005","stopLetter":"B","topMostParentId":"490G00015005","towards":"Harmondsworth, Sipson Or Stockley Park Estate"},{"icsId":"1001325","id":"490001325Z1","lat":51.51041,"lon":-0.47299,"name":"West Drayton Station","stopLetter":"Z1","topMostParentId":"490001325Z1"}]}]}