{"direction":"outbound","lineId":"w12","lineName":"W12","mode":"bus","stopPointSequences":[{"stopPoint":[{"icsId":"1011525","id":"490011525W","lat":51.5798,"lon":-0.04151,"name":"Rensburg Road","parentId":"490G00011525","stationId":"490G00011525","stopLetter":"->W","topMostParentId":"490G00011525","towards":"Walthamstow Central Station"},{"icsId":"1004785","id":"490004785XA","lat":51.58264,"lon":-0.03319,"name":"Carisbrooke Road","parentId":"490G00004785","stationId":"490G00004785","stopLetter":"X","topMostParentId":"490G00004785","towards":"Walthamstow Central Station"},{"icsId":"1014168","id":"490014168ZA","lat":51.58352,"lon":-0.02916,"name":"Walthamstow Market / High Street","parentId":"490G00014168","stationId":"490G00014168","stopLetter":"T","topMostParentId":"490G00014168","towards":"Walthamstow Central Station"},{"icsId":"1011980","id":"490011979N","lat":51.58249,"lon":-0.02569,"name":"Selborne Walk / Vernon Road","parentId":"490G00011980","stationId":"490G00011980","stopLetter":"N","topMostParentId":"490G00011980","towards":"Bakers Arms Or Highams Park"},{"icsId":"1011979","id":"490011979E","lat":51.58276,"lon":-0.02343,"name":"Selborne Walk","parentId":"490G00011979","stationId":"490G00011979","stopLetter":"P","topMostParentId":"490G00011979","towards":"Bakers Arms Or Highams Park"},{"icsId":"1014164","id":"490000249B","lat":51.58369,"lon":-0.02046,"name":"Walthamstow Bus Station","parentId":"490G000817","stationId":"490G000817","stopLetter":"B","topMostParentId":"490G000817","towards":"Whipps Cross"},{"icsId":"1008270","id":"490008270S","lat":51.5853,"lon":-0.01795,"name":"Church Hill","parentId":"490G00092390","stationId":"490G00092390","stopLetter":"S","topMostParentId":"490G00092390","towards":"Highams Park"},{"icsId":"1005267","id":"490005267E","lat":51.58632,"lon":-0.0121,"name":"Church Hill Road","parentId":"490G00005267","stationId":"490G00005267","stopLetter":"->E","topMostParentId":"490G00005267","towards":"Highams Park"},{"icsId":"1011245","id":"490011245E","lat":51.58771,"lon":-0.00991,"name":"Shernhall Street","parentId":"490G00011245","stationId":"490G00011245","stopLetter":"BW","topMostParentId":"490G00011245","towards":"Highams Park"},{"icsId":"1004453","id":"490004453S","lat":51.58482,"lon":-0.00766,"name":"Brookfield Avenue","parentId":"490G00004453","stationId":"490G00004453","stopLetter":"M","topMostParentId":"490G00004453","towards":"Bakers Arms"},{"icsId":"1003107","id":"490003107S","lat":51.58317,"lon":-0.00725,"name":"Addison Road","parentId":"490G00003107","stationId":"490G00003107","stopLetter":"N","topMostParentId":"490G00003107","towards":"Bakers Arms"},{"icsId":"1010589","id":"490010589S","lat":51.58236,"lon":-0.00363,"name":"Oliver Road","parentId":"490G00010589","stationId":"490G00010589","stopLetter":"P","topMostParentId":"490G00010589","towards":"Bakers Arms Or South Woodford"},{"icsId":"1014569","id":"490014569A","lat":51.58116,"lon":-0.00093,"name":"Whipps Cross / Wood Street","parentId":"490G00014569","stationId":"490G00014569","stopLetter":"A","topMostParentId":"490G00014569","towards":"Leytonstone Or Woodford Green"},{"icsId":"1002116","id":"490002116Z","lat":51.58113,"lon":0.0017,"name":"Whipps Cross Bus Stand","parentId":"490G000338","stationId":"490G000338","stopLetter":"V","topMostParentId":"490G000338","towards":"Leytonstone Or Snaresbrook"},{"icsId":"1014568","id":"490014568S2","lat":51.57957,"lon":0.00118,"name":"Whipps Cross Hospital / Main Entrance","parentId":"490G00014568","stationId":"490G00014568","stopLetter":"K","topMostParentId":"490G00014568","towards":"Leytonstone Or South Woodford"},{"icsId":"1014567","id":"490014567E","lat":51.57747,"lon":0.00275,"name":"Whipps Cross Hospital / A & E","parentId":"490G00014567","stationId":"490G00014567","stopLetter":"L","topMostParentId":"490G00014567","towards":"Leytonstone Or South Woodford"},{"icsId":"1005363","id":"490005363S","lat":51.57574,"lon":0.00465,"name":"Clare Road","parentId":"490G00005363","stationId":"490G00005363","stopLetter":"Q","topMostParentId":"490G00005363","towards":"Leyton Or Manor Park"},{"icsId":"1010959","id":"490010959W","lat":51.57402,"lon":0.00152,"name":"Peterborough Road","parentId":"490G00010959","stationId":"490G00010959","stopLetter":"->W","topMostParentId":"490G00010959","towards":"Leyton Or Manor Park"},{"icsId":"1006649","id":"490006646E","lat":51.57224,"lon":0.00093,"name":"Essex Road South","parentId":"490G00006649","stationId":"490G00006649","stopLetter":"->S","topMostParentId":"490G00006649","towards":"Leyton Or Manor Park"},{"icsId":"1012642","id":"490012642S","lat":51.57085,"lon":0.00136,"name":"Elim Pentecostal Church","parentId":"490G00012642","stationId":"490G00012642","stopLetter":"->S","topMostParentId":"490G00012642","towards":"Leyton Or Manor Park"},{"icsId":"1005357","id":"490005357S","lat":51.56958,"lon":0.00385,"name":"Clarendon Road","parentId":"490G00005357","stationId":"490G00005357","stopLetter":"->S","topMostParentId":"490G00005357","towards":"Leyton Or Manor Park"},{"icsId":"1009139","id":"490009139B","lat":51.56817,"lon":0.00755,"name":"Leytonstone Stn  / Grove Green Road","parentId":"490G000638","stationId":"490G000638","stopLetter":"B","topMostParentId":"490G000638","towards":"Leyton Or Manor Park"},{"icsId":"1016503","id":"490016503N","lat":51.57045,"lon":0.0098,"name":"Gainsborough Road","parentId":"490G00016503","stationId":"490G00016503","stopLetter":"Q","topMostParentId":"490G00016503","towards":"Manor Park"},{"icsId":"1007490","id":"490007490N","lat":51.57055,"lon":0.01448,"name":"Green Man Roundabout","parentId":"490G00007490","stationId":"490G00007490","stopLetter":"N","topMostParentId":"490G00007490","towards":"Wanstead Or Whipps Cross"},{"icsId":"1004711","id":"490004711E","lat":51.57267,"lon":0.01989,"name":"Cambridge Road","parentId":"490G00004711","stationId":"490G00004711","stopLetter":"H","topMostParentId":"490G00004711","towards":"Ilford Or South Woodford"},{"icsId":"1004088","id":"490004088E","lat":51.57384,"lon":0.02288,"name":"Blake Hall Road","parentId":"490G00004088","stationId":"490G00004088","stopLetter":"K","topMostParentId":"490G00004088","towards":"Ilford Or South Woodford"},{"icsId":"1000250","id":"490015125B","lat":51.57531,"lon":0.02712,"name":"Wanstead Station","stopLetter":"B","topMostParentId":"490015125B","towards":"Ilford Or South Woodford","zone":"4"},{"icsId":"1014206","id":"490014206N","lat":51.57833,"lon":0.02571,"name":"Wanstead Place","parentId":"490G00014206","stationId":"490G00014206","stopLetter":"SH","topMostParentId":"490G00014206","towards":"South Woodford Or Leytonstone Station"},{"icsId":"1000207","id":"490000207A","lat":51.58121,"lon":0.02136,"name":"Snaresbrook Station","stopLetter":"SJ","topMostParentId":"490000207A","towards":"South Woodford","zone":"4"},{"icsId":"1012215","id":"490012215N","lat":51.58448,"lon":0.0204,"name":"Eagle Lane","parentId":"490G00012215","stationId":"490G00012215","stopLetter":"SK","topMostParentId":"490G00012215","towards":"South Woodford"},{"icsId":"1003827","id":"490003827N","lat":51.58723,"lon":0.02128,"name":"Beechwood Park","parentId":"490G00003827","stationId":"490G00003827","stopLetter":"SL","topMostParentId":"490G00003827","towards":"South Woodford"},{"icsId":"1005358","id":"490005358N","lat":51.59023,"lon":0.02214,"name":"Clarendon Road","parentId":"490G00005358","stationId":"490G00005358","stopLetter":"W","topMostParentId":"490G00005358","towards":"South Woodford"},{"icsId":"1003798","id":"490003798N","lat":51.59288,"lon":0.02236,"name":"Bedford Road","parentId":"490G00003798","stationId":"490G00003798","stopLetter":"X","topMostParentId":"490G00003798","towards":"South Woodford"},{"icsId":"1007173","id":"490007162K","lat":51.5941,"lon":0.02195,"name":"Grove Hill","parentId":"490G00007173","stationId":"490G00007173","stopLetter":"K","topMostParentId":"490G00007173","towards":"Wanstead Or Woodford Bridge"},{"icsId":"1007164","id":"490007164G","lat":51.59464,"lon":0.02427,"name":"George Lane Shopping Centre","parentId":"490G00007164","stationId":"490G00007164","stopLetter":"G","topMostParentId":"490G00007164","towards":"Gants Hill, Wanstead Or Woodford Bridge"},{"icsId":"1000217","id":"490015122C","lat":51.59131,"lon":0.02899,"name":"South Woodford Station","stopLetter":"C","topMostParentId":"490015122C","towards":"Gants Hill, Wanstead Or Woodford Bridge","zone":"4"},{"icsId":"1019203","id":"490008091S","lat":51.59009,"lon":0.03027,"name":"George Lane / Chigwell Road","parentId":"490G00019203","stationId":"490G00019203","stopLetter":"B","topMostParentId":"490G00019203","towards":"Gants Hill, Wanstead Or Woodford Bridge"},{"icsId":"1010601","id":"490010601N","lat":51.59056,"lon":0.03294,"name":"Onslow Gardens","parentId":"490G00010601","stationId":"490G00010601","stopLetter":"A","topMostParentId":"490G00010601","towards":"Woodford Bridge Or Gants Hill"},{"icsId":"1005002","id":"490005002N","lat":51.59284,"lon":0.03643,"name":"Charlie Brown's Roundabout","parentId":"490G00005002","stationId":"490G00005002","stopLetter":"D","topMostParentId":"490G00005002","towards":"Woodford Bridge Or Gants Hill"},{"icsId":"1011430","id":"490011430N","lat":51.59516,"lon":0.03817,"name":"Raven Road","parentId":"490G00011430","stationId":"490G00011430","stopLetter":"B","topMostParentId":"490G00011430","towards":"Woodford Bridge"},{"icsId":"1009730","id":"490009730W","lat":51.59707,"lon":0.03814,"name":"Maybank Road","parentId":"490G00009730","stationId":"490G00009730","stopLetter":"A","topMostParentId":"490G00009730","towards":"Woodford Bridge"},{"icsId":"1007310","id":"490007310N","lat":51.59793,"lon":0.0334,"name":"Gordon Road","parentId":"490G00007310","stationId":"490G00007310","stopLetter":"U","topMostParentId":"490G00007310","towards":"Woodford Bridge"},{"icsId":"1014200","id":"490014200N","lat":51.60001,"lon":0.03399,"name":"Wansford Road","parentId":"490G00014200","stationId":"490G00014200","stopLetter":"V","topMostParentId":"490G00014200","towards":"Woodford Bridge"},{"icsId":"1004375","id":"490004375N","lat":51.60229,"lon":0.03465,"name":"Broadmead Road","parentId":"490G00004375","stationId":"490G00004375","stopLetter":"F","topMostParentId":"490G00004375","towards":"Woodford Bridge"},{"icsId":"1010612","id":"490010612E","lat":51.60177,"lon":0.03971,"name":"Orchard Estate","parentId":"490G00010612","stationId":"490G00010612","stopLetter":"W","topMostParentId":"490G00010612","towards":"South Woodford Or Woodford Bridge"},{"icsId":"1000371","id":"490004374N","lat":51.60115,"lon":0.04363,"name":"Chigwell Road / Broadmead Road","parentId":"490G000022","stationId":"490G000022","stopLetter":"X","topMostParentId":"490G000022","towards":"Woodford Bridge"},{"icsId":"1003728","id":"490003728N1","lat":51.60282,"lon":0.04572,"name":"Beaumaris Drive","parentId":"490G00003728","stationId":"490G00003728","stopLetter":"Y","topMostParentId":"490G00003728","towards":"Woodford Bridge"},{"icsId":"1012214","id":"490012214N","lat":51.60435,"lon":0.04733,"name":"Snakes Lane East","parentId":"490G00012214","stationId":"490G00012214","stopLetter":"Z","topMostParentId":"490G00012214","towards":"Woodford Bridge"},{"icsId":"1003450","id":"490003450N","lat":51.60532,"lon":0.04968,"name":"Ashton Playing Fields","parentId":"490G00003450","stationId":"490G00003450","stopLetter":"L","topMostParentId":"490G00003450","towards":"Barkingside"},{"icsId":"1009582","id":"490009582E","lat":51.60618,"lon":0.05492,"name":"Manor Road","parentId":"490G00009582","stationId":"490G00009582","stopLetter":"->E","topMostParentId":"490G00009582","towards":"Barkingside"},{"icsId":"1009397","id":"490009397N","lat":51.60766,"lon":0.05866,"name":"Love Lane","parentId":"490G00009397","stationId":"490G00009397","stopLetter":"->E","topMostParentId":"490G00009397","towards":"Manor Road"},{"icsId":"1004984","id":"490004984N","lat":51.60679,"lon":0.06022,"name":"Cross Road","parentId":"490G04984","stationId":"490G04984","stopLetter":"->W","topMostParentId":"490G04984","towards":"Woodford Or South Woodford"}]}]}