{"direction":"outbound","lineId":"w13","lineName":"W13","mode":"bus","stopPointSequences":[{"stopPoint":[{"icsId":"1015670","id":"490015670N","lat":51.55541,"lon":-0.01005,"name":"Leyton Mills","parentId":"490G00015670","stationId":"490G00015670","stopLetter":"F","topMostParentId":"490G00015670","towards":"Leytonstone"},{"icsId":"1010590","id":"490010590G","lat":51.5573,"lon":-0.01301,"name":"Oliver Road","parentId":"490G00010590","stationId":"490G00010590","stopLetter":"G","topMostParentId":"490G00010590","towards":" Leytonstone"},{"icsId":"1009136","id":"490009136D","lat":51.55869,"lon":-0.00663,"name":"Leyton High Road / Leyton Station","parentId":"490G000637","stationId":"490G000637","stopLetter":"D","topMostParentId":"490G000637","towards":"Leytonstone"},{"icsId":"1006988","id":"490015564F","lat":51.56044,"lon":-0.00273,"name":"Francis Road","parentId":"490G00006988","stationId":"490G00006988","stopLetter":"P","topMostParentId":"490G00006988","towards":"Leytonstone"},{"icsId":"1019122","id":"490019122E","lat":51.55993,"lon":0.00403,"name":"Cathall Leisure Centre","parentId":"490G00019122","stationId":"490G00019122","stopLetter":"->E","topMostParentId":"490G00019122","towards":"Leytonstone Or Stratford City"},{"icsId":"1014519","id":"490014519E","lat":51.55926,"lon":0.00715,"name":"West Street","parentId":"490G00014519","stationId":"490G00014519","stopLetter":"L","topMostParentId":"490G00014519","towards":"Wanstead Or Whipps Cross"},{"icsId":"1009141","id":"490009141N","lat":51.56034,"lon":0.00786,"name":"Leytonstone Fire Station","parentId":"490G00009141","stationId":"490G00009141","stopLetter":"E","topMostParentId":"490G00009141","towards":"Wanstead Or Whipps Cross"},{"icsId":"1001179","id":"490001179N","lat":51.56276,"lon":0.00926,"name":"Leytonstone High Road Station","stopLetter":"F","topMostParentId":"490001179N","towards":"Wanstead Or Whipps Cross"},{"icsId":"1014033","id":"490014033N","lat":51.56524,"lon":0.00995,"name":"Vernon Road","parentId":"490G00014033","stationId":"490G00014033","stopLetter":"G","topMostParentId":"490G00014033","towards":"Wanstead Or Whipps Cross"},{"icsId":"1007882","id":"490007882H","lat":51.56751,"lon":0.01051,"name":"Harvey Road","parentId":"490G00007882","stationId":"490G00007882","stopLetter":"H","topMostParentId":"490G00007882","towards":"Wanstead Or Whipps Cross"},{"icsId":"1008852","id":"490008852M","lat":51.56913,"lon":0.01178,"name":"Kirkdale Road","parentId":"490G00008852","stationId":"490G00008852","stopLetter":"M","topMostParentId":"490G00008852","towards":"Wanstead Or Whipps Cross"},{"icsId":"1007490","id":"490007490N","lat":51.57055,"lon":0.01448,"name":"Green Man Roundabout","parentId":"490G00007490","stationId":"490G00007490","stopLetter":"N","topMostParentId":"490G00007490","towards":"Wanstead Or Whipps Cross"},{"icsId":"1004711","id":"490004711E","lat":51.57267,"lon":0.01989,"name":"Cambridge Road","parentId":"490G00004711","stationId":"490G00004711","stopLetter":"H","topMostParentId":"490G00004711","towards":"Ilford Or South Woodford"},{"icsId":"1004088","id":"490004088E","lat":51.57384,"lon":0.02288,"name":"Blake Hall Road","parentId":"490G00004088","stationId":"490G00004088","stopLetter":"K","topMostParentId":"490G00004088","towards":"Ilford Or South Woodford"},{"icsId":"1000250","id":"490015125B","lat":51.57531,"lon":0.02712,"name":"Wanstead Station","stopLetter":"B","topMostParentId":"490015125B","towards":"Ilford Or South Woodford","zone":"4"},{"icsId":"1014206","id":"490014206N","lat":51.57833,"lon":0.02571,"name":"Wanstead Place","parentId":"490G00014206","stationId":"490G00014206","stopLetter":"SH","topMostParentId":"490G00014206","towards":"South Woodford Or Leytonstone Station"},{"icsId":"1010266","id":"490010266N","lat":51.58069,"lon":0.02374,"name":"New Wanstead","parentId":"490G000679","stationId":"490G000679","stopLetter":"SU","topMostParentId":"490G000679","towards":"South Woodford"},{"icsId":"1013137","id":"490013137N","lat":51.58264,"lon":0.02467,"name":"Sylvan Road","parentId":"490G00013137","stationId":"490G00013137","stopLetter":"SV","topMostParentId":"490G00013137","towards":"South Woodford"},{"icsId":"1008100","id":"490008100N","lat":51.58468,"lon":0.02553,"name":"Heronwood Hospital","parentId":"490G00008100","stationId":"490G00008100","stopLetter":"SW","topMostParentId":"490G00008100","towards":"Woodford"},{"icsId":"1005018","id":"490005018N","lat":51.58823,"lon":0.0284,"name":"Charnwood Drive","parentId":"490G00005018","stationId":"490G00005018","stopLetter":"T","topMostParentId":"490G00005018","towards":"Woodford Or Whipps Cross"},{"icsId":"1019203","id":"490008091W","lat":51.59019,"lon":0.02996,"name":"George Lane / Chigwell Road","parentId":"490G00019203","stationId":"490G00019203","stopLetter":"Z","topMostParentId":"490G00019203","towards":"Snaresbrook, Woodford Green Or Whipps Cross"},{"icsId":"1000217","id":"490000217E","lat":51.59173,"lon":0.02789,"name":"South Woodford Station","stopLetter":"E","topMostParentId":"490000217E","towards":"Woodford Green","zone":"4"},{"icsId":"1007164","id":"490007164H","lat":51.5944,"lon":0.02411,"name":"George Lane Shopping Centre","parentId":"490G00007164","stationId":"490G00007164","stopLetter":"H","topMostParentId":"490G00007164","towards":"Snaresbrook, Woodford Green Or Whipps Cross"},{"icsId":"1007138","id":"490007137L","lat":51.59629,"lon":0.02151,"name":"Southend Road","parentId":"490G00007138","stationId":"490G00007138","stopLetter":"L","topMostParentId":"490G00007138","towards":"Woodford Wells"},{"icsId":"1005259","id":"490005259N","lat":51.5993,"lon":0.02032,"name":"Chelmsford Road","parentId":"490G00005259","stationId":"490G00005259","stopLetter":"X","topMostParentId":"490G00005259","towards":"Woodford Wells"},{"icsId":"1014845","id":"490014845N","lat":51.60184,"lon":0.01923,"name":"Empress Avenue","parentId":"490G00014845","stationId":"490G00014845","stopLetter":"Y","topMostParentId":"490G00014845","towards":"Woodford Wells"},{"icsId":"1005269","id":"490005270N","lat":51.60363,"lon":0.01892,"name":"Churchill Memorial","parentId":"490G00005269","stationId":"490G00005269","stopLetter":"Z","topMostParentId":"490G00005269","towards":"Woodford Wells"},{"icsId":"1005177","id":"490005269N","lat":51.60636,"lon":0.01885,"name":"Chingford Lane","parentId":"490G00005177","stationId":"490G00005177","stopLetter":"S","topMostParentId":"490G00005177","towards":"Chingford Or Buckhurst Hill"},{"icsId":"1014847","id":"490014847N","lat":51.60908,"lon":0.02106,"name":"Woodford Green / Broadmead Road","parentId":"490G000842","stationId":"490G000842","stopLetter":"U","topMostParentId":"490G000842","towards":"Buckhurst Hill Or Chingford"},{"icsId":"1009973","id":"490009973N","lat":51.61325,"lon":0.02411,"name":"Monkhams Lane","parentId":"490G00009973","stationId":"490G00009973","stopLetter":"V","topMostParentId":"490G00009973","towards":"Buckhurst Hill Or Chingford"},{"icsId":"1015121","id":"490015121N","lat":51.61589,"lon":0.02519,"name":"St Thomas of Canterbury Church","parentId":"490G00015121","stationId":"490G00015121","stopLetter":"FH","topMostParentId":"490G00015121","towards":"Buckhurst Hill Or Chingford"}]}]}