{"direction":"outbound","lineId":"w3","lineName":"W3","mode":"bus","stopPointSequences":[{"stopPoint":[{"icsId":"1001213","id":"490001213S","lat":51.60258,"lon":-0.05534,"name":"Northumberland Park","stopLetter":"NA","topMostParentId":"490001213S","towards":"Tottenham Or Wood Green"},{"icsId":"1011953","id":"490011953W","lat":51.60522,"lon":-0.0596,"name":"Scotswood Walk","parentId":"490G00011953","stationId":"490G00011953","topMostParentId":"490G00011953","towards":"Wood Green"},{"icsId":"1007182","id":"490007182W","lat":51.60586,"lon":-0.06239,"name":"Gillham Terrace","parentId":"490G00007182","stationId":"490G00007182","stopLetter":"E","topMostParentId":"490G00007182","towards":"Wood Green"},{"icsId":"1013730","id":"490013730U","lat":51.60615,"lon":-0.06531,"name":"Worcester Avenue","parentId":"490G00002423","stationId":"490G00002423","stopLetter":"F","topMostParentId":"490G00002423","towards":"Wood Green"},{"icsId":"1001335","id":"490001335A","lat":51.60525,"lon":-0.07036,"name":"White Hart Lane Station","stopLetter":"G","topMostParentId":"490001335A","towards":"Wood Green"},{"icsId":"1013727","id":"490013727W","lat":51.60506,"lon":-0.07347,"name":"Haringey Sixth Form College","parentId":"490G00013727","stationId":"490G00013727","stopLetter":"H","topMostParentId":"490G00013727","towards":"Wood Green"},{"icsId":"1013728","id":"490013728W","lat":51.60497,"lon":-0.07955,"name":"Tottenham Cemetery","parentId":"490G00013728","stationId":"490G00013728","stopLetter":"->W","topMostParentId":"490G00013728","towards":"Tottenham Or Wood Green"},{"icsId":"1007394","id":"490007394W1","lat":51.60513,"lon":-0.08522,"name":"Great Cambridge Road","parentId":"490G00007394","stationId":"490G00007394","stopLetter":"WH","topMostParentId":"490G00007394","towards":"Tottenham Or Wood Green"},{"icsId":"1014597","id":"490014597W","lat":51.60567,"lon":-0.08683,"name":"Rowland Hill Avenue","parentId":"490G00014597","stationId":"490G00014597","stopLetter":"WJ","topMostParentId":"490G00014597","towards":"Wood Green"},{"icsId":"1007798","id":"490007798W","lat":51.60618,"lon":-0.09342,"name":"Haringey Football Club","parentId":"490G00007798","stationId":"490G00007798","stopLetter":"NL","topMostParentId":"490G00007798","towards":"Wood Green"},{"icsId":"1010250","id":"490010250W","lat":51.60495,"lon":-0.09638,"name":"New River Sports Centre","parentId":"490G00010250","stationId":"490G00010250","stopLetter":"NM","topMostParentId":"490G00010250","towards":"Wood Green"},{"icsId":"1006830","id":"490006830W","lat":51.60226,"lon":-0.09704,"name":"Paisley Road","parentId":"490G00006830","stationId":"490G00006830","stopLetter":"NN","topMostParentId":"490G00006830","towards":"Alexandra Palace"},{"icsId":"1010954","id":"490010954W","lat":51.59921,"lon":-0.10177,"name":"Perth Road","parentId":"490G00010954","stationId":"490G00010954","stopLetter":"NS","topMostParentId":"490G00010954","towards":"Turnpike Lane Or Alexandra Palace"},{"icsId":"1014853","id":"490014853W","lat":51.59834,"lon":-0.10457,"name":"Wood Green Crown Court","parentId":"490G00014853","stationId":"490G00014853","stopLetter":"NT","topMostParentId":"490G00014853","towards":"Turnpike Lane and Alexandra Palace"},{"icsId":"1000275","id":"490000275F","lat":51.59718,"lon":-0.10909,"name":"Wood Green Station","stopLetter":"F","topMostParentId":"490000275F","towards":"Alexandra Palace Or Turnpike Lane","zone":"3"},{"icsId":"1015472","id":"490015471A","lat":51.59702,"lon":-0.11086,"name":"The Broadway","parentId":"490G00015472","stationId":"490G00015472","stopLetter":"A","topMostParentId":"490G00015472","towards":"Alexandra Palace Or Bounds Green"},{"icsId":"1009734","id":"490009734W","lat":51.59673,"lon":-0.11637,"name":"Barratt Avenue","parentId":"490G00009734","stationId":"490G00009734","stopLetter":"K","topMostParentId":"490G00009734","towards":"Alexandra Palace Or Bounds Green"},{"icsId":"1001005","id":"490001005C","lat":51.59828,"lon":-0.12002,"name":"Alexandra Palace Station","stopLetter":"L","topMostParentId":"490001005C","towards":"Bounds Green Or Crouch End"},{"icsId":"1018814","id":"490001005B","lat":51.59801,"lon":-0.12136,"name":"Palace Gates Road","parentId":"490G00018814","stationId":"490G00018814","stopLetter":"M","topMostParentId":"490G00018814","towards":"Crouch End"},{"icsId":"1003196","id":"490003196E","lat":51.596,"lon":-0.12426,"name":"Alexandra Palace Park","parentId":"490G00003196","stationId":"490G00003196","stopLetter":"N","topMostParentId":"490G00003196","towards":"Crouch End"},{"icsId":"1003198","id":"490003198S","lat":51.59364,"lon":-0.12998,"name":"Alexandra Palace Ice Rink","parentId":"490G00003198","stationId":"490G00003198","stopLetter":"P","topMostParentId":"490G00003198","towards":"Crouch End"},{"icsId":"1003199","id":"490003199S","lat":51.5931,"lon":-0.13304,"name":"Alexandra Palace Palm Court","parentId":"490G00003199","stationId":"490G00003199","stopLetter":"R","topMostParentId":"490G00003199","towards":"Crouch End"},{"icsId":"1003210","id":"490003210S","lat":51.59234,"lon":-0.13392,"name":"Alexandra Palace Garden Centre","parentId":"490G00003210","stationId":"490G00003210","stopLetter":"S","topMostParentId":"490G00003210","towards":"Crouch End"},{"icsId":"1000939","id":"490003211E","lat":51.5875,"lon":-0.13269,"name":"Park Road","stopLetter":"MB","topMostParentId":"490003211E","towards":"Finsbury Park Or Turnpike Lane"},{"icsId":"1008358","id":"490008358E","lat":51.58681,"lon":-0.12827,"name":"Hornsey Fire Station","parentId":"490G00008358","stationId":"490G00008358","stopLetter":"A","topMostParentId":"490G00008358","towards":"Turnpike Lane and Finsbury Park"},{"icsId":"1009850","id":"490009850E","lat":51.58698,"lon":-0.12392,"name":"Nightingale Lane","parentId":"490G00009850","stationId":"490G00009850","stopLetter":"B","topMostParentId":"490G00009850","towards":"Turnpike Lane Or Finsbury Park"},{"icsId":"1011232","id":"490011232S","lat":51.58639,"lon":-0.12191,"name":"Priory Park","parentId":"490G00011232","stationId":"490G00011232","stopLetter":"N","topMostParentId":"490G00011232","towards":"Finsbury Park"},{"icsId":"1011650","id":"490011650E","lat":51.58422,"lon":-0.12255,"name":"Middle Lane","parentId":"490G00011650","stationId":"490G00011650","stopLetter":"P","topMostParentId":"490G00011650","towards":"Finsbury Park"},{"icsId":"1013734","id":"490013734E","lat":51.58294,"lon":-0.11869,"name":"Tottenham Lane","parentId":"490G00013734","stationId":"490G00013734","stopLetter":"R","topMostParentId":"490G00013734","towards":"Finsbury Park"},{"icsId":"1014509","id":"490014509S","lat":51.5799,"lon":-0.11705,"name":"Weston Park","parentId":"490G00014509","stationId":"490G00014509","stopLetter":"Y","topMostParentId":"490G00014509","towards":"Finsbury Park"},{"icsId":"1010103","id":"490010103S","lat":51.57596,"lon":-0.11397,"name":"Mount View Road","parentId":"490G00010103","stationId":"490G00010103","stopLetter":"H","topMostParentId":"490G00010103","towards":"Finsbury Park"},{"icsId":"1010654","id":"490010654S","lat":51.57408,"lon":-0.1126,"name":"Ossian Road","parentId":"490G00010654","stationId":"490G00010654","stopLetter":"J","topMostParentId":"490G00010654","towards":"Finsbury Park"},{"icsId":"1003160","id":"490003160CT","lat":51.57029,"lon":-0.11428,"name":"Albert Road","parentId":"490G000382","stationId":"490G000382","stopLetter":"CT","topMostParentId":"490G000382","towards":"Finsbury Park"},{"icsId":"1013693","id":"490013693S","lat":51.56887,"lon":-0.11112,"name":"Tollington Park","parentId":"490G00013693","stationId":"490G00013693","stopLetter":"U","topMostParentId":"490G00013693","towards":"Finsbury Park"},{"icsId":"1000083","id":"490000083SB","lat":51.56556,"lon":-0.10799,"name":"Finsbury Park Station","stopLetter":"->S","topMostParentId":"490000083SB","zone":"2"}]}]}