{"direction":"outbound","lineId":"w4","lineName":"W4","mode":"bus","stopPointSequences":[{"stopPoint":[{"icsId":"1013893","id":"490013893W","lat":51.61609,"lon":-0.09181,"name":"Ulster Gardens","parentId":"490G00013893","stationId":"490G00013893","stopLetter":"WX","topMostParentId":"490G00013893","towards":"Arnos Grove, Bounds Green Or Wood Green"},{"icsId":"1005091","id":"490005091W","lat":51.61594,"lon":-0.09496,"name":"Chequers Way","parentId":"490G00005091","stationId":"490G00005091","stopLetter":"WZ","topMostParentId":"490G00005091","towards":"Arnos Grove, Bounds Green Or Turnpike Lane"},{"icsId":"1005092","id":"490005092Z","lat":51.61515,"lon":-0.09552,"name":"Mitchell Road","parentId":"490G00005092","stationId":"490G00005092","stopLetter":"->S","topMostParentId":"490G00005092","towards":"Wood Green"},{"icsId":"1001939","id":"490001939Z","lat":51.61342,"lon":-0.09511,"name":"Princes Avenue","parentId":"490G000288","stationId":"490G000288","stopLetter":"->W","topMostParentId":"490G000288","towards":"Wood Green"},{"icsId":"1001940","id":"490001940Z","lat":51.61188,"lon":-0.09707,"name":"Pasteur Gardens","parentId":"490G000289","stationId":"490G000289","stopLetter":"->W","topMostParentId":"490G000289","towards":"Wood Green"},{"icsId":"1001941","id":"490001941Z","lat":51.61116,"lon":-0.1009,"name":"St Pauls Rise","parentId":"490G000290","stationId":"490G000290","stopLetter":"->W","topMostParentId":"490G000290","towards":"Wood Green"},{"icsId":"1001937","id":"490001937Z","lat":51.60871,"lon":-0.10269,"name":"Berkshire Gardens","parentId":"490G000286","stationId":"490G000286","stopLetter":"->S","topMostParentId":"490G000286","towards":"Wood Green"},{"icsId":"1001562","id":"490001562Z","lat":51.6059,"lon":-0.10357,"name":"Sylvan Avenue","parentId":"490G000278","stationId":"490G000278","stopLetter":"->S","topMostParentId":"490G000278","towards":"Wood Green"},{"icsId":"1001561","id":"490001561Z","lat":51.60381,"lon":-0.10388,"name":"Wolves Lane Cemetery","parentId":"490G000277","stationId":"490G000277","stopLetter":"->S","topMostParentId":"490G000277","towards":"Wood Green"},{"icsId":"1001573","id":"490001573Z","lat":51.60164,"lon":-0.10667,"name":"Pellatt Grove","parentId":"490G000279","stationId":"490G000279","stopLetter":"->W","topMostParentId":"490G000279","towards":"Wood Green"},{"icsId":"1007797","id":"490007797S","lat":51.59995,"lon":-0.11127,"name":"Haringey Civic Centre","parentId":"490G00007797","stationId":"490G00007797","stopLetter":"BY","topMostParentId":"490G00007797","towards":"Turnpike Lane"},{"icsId":"1000275","id":"490000275D","lat":51.59759,"lon":-0.11019,"name":"Wood Green Station","stopLetter":"D","topMostParentId":"490000275D","towards":"Turnpike Lane Station","zone":"3"},{"icsId":"1019962","id":"490015567G2","lat":51.59663,"lon":-0.10924,"name":"Lordship Lane","parentId":"490G000971","stationId":"490G000971","stopLetter":"G","topMostParentId":"490G000971","towards":"Turnpike Lane"},{"icsId":"1009461","id":"490009461KA","lat":51.59314,"lon":-0.10669,"name":"Brampton Park Road","parentId":"490G00009461","stationId":"490G00009461","stopLetter":"KA","topMostParentId":"490G00009461","towards":"Manor House Or Tottenham"},{"icsId":"1014669","id":"490000241MA","lat":51.59137,"lon":-0.10431,"name":"Coleraine Road","parentId":"490G000835","stationId":"490G000835","stopLetter":"MA","topMostParentId":"490G000835","towards":"Tottenham"},{"icsId":"1000241","id":"490015475Y","lat":51.58962,"lon":-0.10247,"name":"Turnpike Lane Station","stopLetter":"Y","topMostParentId":"490015475Y","towards":"Tottenham","zone":"3"},{"icsId":"1014713","id":"490014713E","lat":51.58802,"lon":-0.09997,"name":"Willow Walk","parentId":"490G00014713","stationId":"490G00014713","stopLetter":"W","topMostParentId":"490G00014713","towards":"Tottenham"},{"icsId":"1012557","id":"490012557E","lat":51.58706,"lon":-0.09741,"name":"Stanley Road","parentId":"490G00012557","stationId":"490G00012557","stopLetter":"A","topMostParentId":"490G00012557","towards":"Tottenham"},{"icsId":"1019042","id":"490019042Z","lat":51.58695,"lon":-0.09538,"name":"West Green Road","parentId":"490G00019042","stationId":"490G00019042","stopLetter":"->N","topMostParentId":"490G00019042","towards":"Tottenham High Road"},{"icsId":"1002211","id":"490002211Z","lat":51.58963,"lon":-0.0927,"name":"Downhills Way","parentId":"490G000916","stationId":"490G000916","stopLetter":"->N","topMostParentId":"490G000916","towards":"Tottenham High Road"},{"icsId":"1002209","id":"490002209Z","lat":51.59121,"lon":-0.08804,"name":"Downhills Park Road","parentId":"490G000914","stationId":"490G000914","stopLetter":"->N","topMostParentId":"490G000914","towards":"Tottenham High Road"},{"icsId":"1002207","id":"490002207Z","lat":51.59256,"lon":-0.0841,"name":"Dunloe Avenue","parentId":"490G000910","stationId":"490G000910","stopLetter":"->E","topMostParentId":"490G000910","towards":"Tottenham High Road"},{"icsId":"1016821","id":"490016821Y","lat":51.59254,"lon":-0.08281,"name":"Gloucester Road","parentId":"490G00016821","stationId":"490G00016821","stopLetter":"->N","topMostParentId":"490G00016821","towards":"Tottenham High Road"},{"icsId":"1003092","id":"490003092W","lat":51.59436,"lon":-0.08218,"name":"Broadwater Farm Estate","parentId":"490G00003092","stationId":"490G00003092","stopLetter":"->W","topMostParentId":"490G00003092","towards":"Turnpike Lane Or Ferry Lane Estate"},{"icsId":"1000875","id":"490000875Y","lat":51.59391,"lon":-0.0779,"name":"Mount Pleasant Road","parentId":"490G000197","stationId":"490G000197","stopLetter":"->E","topMostParentId":"490G000197","towards":"Tottenham High Road"},{"icsId":"1002206","id":"490002206Z","lat":51.59451,"lon":-0.07569,"name":"Sperling Road","parentId":"490G000908","stationId":"490G000908","stopLetter":"->E","topMostParentId":"490G000908","towards":"Tottenham High Road"},{"icsId":"1004381","id":"490004381Z","lat":51.59639,"lon":-0.07544,"name":"Broadwater Road","parentId":"490G00004381","stationId":"490G00004381","stopLetter":"->E","topMostParentId":"490G00004381","towards":"Tottenham High Road"},{"icsId":"1013853","id":"490013233N","lat":51.5961,"lon":-0.07209,"name":"Elmhurst Road","parentId":"490G00013853","stationId":"490G00013853","stopLetter":"N","topMostParentId":"490G00013853","towards":"Stamford Hill Or Tottenham Hale"},{"icsId":"1001040","id":"490001040O","lat":51.59455,"lon":-0.07025,"name":"Bruce Grove Station","stopLetter":"P","topMostParentId":"490001040O","towards":"Stamford Hill Or Tottenham Hale"},{"icsId":"1013736","id":"490013736Z","lat":51.59184,"lon":-0.0698,"name":"Tottenham Police Station","parentId":"490G00013736","stationId":"490G00013736","stopLetter":"DA","topMostParentId":"490G00013736","towards":"Manor House Or Tottenham Hale"},{"icsId":"1015083","id":"490013739N","lat":51.58793,"lon":-0.07066,"name":"Tottenham Town Hall","parentId":"490G000860","stationId":"490G000860","stopLetter":"W","topMostParentId":"490G000860","towards":"Manor House Or Stamford Hill"},{"icsId":"1013739","id":"490015083G","lat":51.5857,"lon":-0.0716,"name":"College of North East London","parentId":"490G00013739","stationId":"490G00013739","stopLetter":"G","topMostParentId":"490G00013739","towards":"Manor House Or Stamford Hill"},{"icsId":"1012531","id":"490012525R","lat":51.58463,"lon":-0.06706,"name":"Antill Road","stopLetter":"N","topMostParentId":"490012525R","towards":"Tottenham Hale Station"},{"icsId":"1020141","id":"49000020141Q","lat":51.58571,"lon":-0.06404,"name":"Fountayne Business Centre","parentId":"490G00020141","stationId":"490G00020141","stopLetter":"Q","topMostParentId":"490G00020141","towards":"Tottenham Hale Station"},{"icsId":"1013729","id":"490013729O","lat":51.58756,"lon":-0.06371,"name":"Tottenham Hale Retail Park","parentId":"490G000802","stationId":"490G000802","stopLetter":"O","topMostParentId":"490G000802","towards":"Ferry Lane Estate"},{"icsId":"1009917","id":"490009917B","lat":51.58834,"lon":-0.06077,"name":"Tottenham Hale Bus Station","stopLetter":"->S","topMostParentId":"490009917B","towards":"Blackhorse Road Stn Or Ferry Lane Estate"},{"icsId":"1009915","id":"490009915E","lat":51.58806,"lon":-0.05837,"name":"Mill Mead Road","parentId":"490G000666","stationId":"490G000666","stopLetter":"H","topMostParentId":"490G000666","towards":"Blackhorse Road Stn Or Ferry Lane Estate"},{"icsId":"1006819","id":"490006819W","lat":51.58742,"lon":-0.05809,"name":"Ferry Lane","parentId":"490G00006819","stationId":"490G00006819","stopLetter":"L","topMostParentId":"490G00006819","towards":"Ferry Lane Estate"},{"icsId":"1006627","id":"490006627S","lat":51.58652,"lon":-0.05979,"name":"Erskine Crescent","parentId":"490G00006627","stationId":"490G00006627","stopLetter":"->S","topMostParentId":"490G00006627","towards":"Ferry Lane Estate"},{"icsId":"1006820","id":"490006820S","lat":51.58494,"lon":-0.0596,"name":"Ferry Lane Primary School","parentId":"490G00006820","stationId":"490G00006820","stopLetter":"->S","topMostParentId":"490G00006820","towards":"Tottenham"}]}]}