{"direction":"outbound","lineId":"w5","lineName":"W5","mode":"bus","stopPointSequences":[{"stopPoint":[{"icsId":"1000008","id":"490000008NW","lat":51.5661,"lon":-0.1352,"name":"Archway Station","stopLetter":"E","topMostParentId":"490000008NW","towards":"Highgate Village, Tufnell Park Or Crouch End","zone":"2+3"},{"icsId":"1019132","id":"490014625A","lat":51.56703,"lon":-0.13779,"name":"Whittington Hospital / Magdala Avenue","parentId":"490G00019132","stationId":"490G00019132","stopLetter":"A","topMostParentId":"490G00019132","towards":"Crouch End Or Highgate Village"},{"icsId":"1015707","id":"490015707E","lat":51.56941,"lon":-0.14112,"name":"Cromwell Avenue","parentId":"490G00015707","stationId":"490G00015707","stopLetter":"HU","topMostParentId":"490G00015707","towards":"Crouch End"},{"icsId":"1003362","id":"490003362E","lat":51.57046,"lon":-0.13871,"name":"Archway Bridge","parentId":"490G00003362","stationId":"490G00003362","stopLetter":"HV","topMostParentId":"490G00003362","towards":"Crouch End"},{"icsId":"1015709","id":"490015709E","lat":51.5716,"lon":-0.13618,"name":"Fitzwarren Gardens","parentId":"490G00015709","stationId":"490G00015709","stopLetter":"->E","topMostParentId":"490G00015709","towards":"Crouch End"},{"icsId":"1015708","id":"490015708N","lat":51.57322,"lon":-0.13382,"name":"Hornsey Lane","parentId":"490G00015708","stationId":"490G00015708","stopLetter":"->N","topMostParentId":"490G00015708","towards":"Crouch End"},{"icsId":"1000409","id":"490000409Z","lat":51.57567,"lon":-0.13597,"name":"Stanhope Road / Crouch End","parentId":"490G000058","stationId":"490G000058","stopLetter":"->N","topMostParentId":"490G000058"},{"icsId":"1000410","id":"490000410Z","lat":51.57738,"lon":-0.13729,"name":"Alford House","parentId":"490G000059","stationId":"490G000059","stopLetter":"->N","topMostParentId":"490G000059"},{"icsId":"1000417","id":"490000417Z","lat":51.57937,"lon":-0.13429,"name":"London Road North / Shepherds Hill","parentId":"490G000066","stationId":"490G000066","stopLetter":"->E","topMostParentId":"490G000066"},{"icsId":"1000418","id":"490000418Z","lat":51.58015,"lon":-0.13184,"name":"Coolhurst Road","parentId":"490G000067","stationId":"490G000067","stopLetter":"->E","topMostParentId":"490G000067"},{"icsId":"1014802","id":"490003229E","lat":51.58091,"lon":-0.12857,"name":"Wolseley Road","parentId":"490G00014802","stationId":"490G00014802","stopLetter":"->E","topMostParentId":"490G00014802"},{"icsId":"1003229","id":"49003229E2","lat":51.58148,"lon":-0.12744,"name":"Tivoli Road Crouch End","parentId":"490G00003229","stationId":"490G00003229","stopLetter":"->E","topMostParentId":"490G00003229"},{"icsId":"1005826","id":"490005826CA","lat":51.58038,"lon":-0.12302,"name":"Crouch End Broadway","parentId":"490G00005826","stationId":"490G00005826","stopLetter":"CA","topMostParentId":"490G00005826","towards":"Harringay Or Turnpike Lane"},{"icsId":"1006799","id":"490006799N","lat":51.58232,"lon":-0.11957,"name":"Tottenham Lane Y M C A","parentId":"490G00006799","stationId":"490G00006799","stopLetter":"S","topMostParentId":"490G00006799","towards":"Haringey Sainsburys Or Turnpike Lane"},{"icsId":"1014509","id":"490014509E","lat":51.58042,"lon":-0.11708,"name":"Weston Park","parentId":"490G00014509","stationId":"490G00014509","stopLetter":"->E","topMostParentId":"490G00014509"},{"icsId":"1000420","id":"490000420Z","lat":51.58107,"lon":-0.11406,"name":"Mayfield Road","parentId":"490G000069","stationId":"490G000069","stopLetter":"->E","topMostParentId":"490G000069"},{"icsId":"1000421","id":"490000421Y","lat":51.58024,"lon":-0.11197,"name":"Weston Park Primary School","parentId":"490G000070","stationId":"490G000070","topMostParentId":"490G000070"},{"icsId":"1000422","id":"490000422Z","lat":51.57862,"lon":-0.11071,"name":"Stationers Park","parentId":"490G000071","stationId":"490G000071","stopLetter":"->S","topMostParentId":"490G000071"},{"icsId":"1010103","id":"490016766E","lat":51.57786,"lon":-0.10862,"name":"Mount View Road","parentId":"490G00010103","stationId":"490G00010103","stopLetter":"->E","topMostParentId":"490G00010103"},{"icsId":"1001138","id":"490001138S","lat":51.57751,"lon":-0.10653,"name":"Harringay Station","stopLetter":"->S","topMostParentId":"490001138S"},{"icsId":"1016769","id":"490016769S","lat":51.57548,"lon":-0.10762,"name":"Stapleton Hall Road","parentId":"490G00016769","stationId":"490G00016769","stopLetter":"->W","topMostParentId":"490G00016769"},{"icsId":"1010485","id":"490010485Z","lat":51.57346,"lon":-0.10652,"name":"Oakfield Road Stroud Green","parentId":"490G00010485","stationId":"490G00010485","stopLetter":"->S","topMostParentId":"490G00010485"},{"icsId":"1000423","id":"490000423Y","lat":51.57265,"lon":-0.10483,"name":"Finsbury Park / Hornsey Gate","parentId":"490G000072","stationId":"490G000072","stopLetter":"->E","topMostParentId":"490G000072"},{"icsId":"1006574","id":"490006574Z","lat":51.5744,"lon":-0.10353,"name":"Endymion Road","parentId":"490G00006574","stationId":"490G00006574","stopLetter":"->E","topMostParentId":"490G00006574"},{"icsId":"1013151","id":"490013151W","lat":51.57552,"lon":-0.09883,"name":"Green Lanes / Harringay","parentId":"490G00013151","stationId":"490G00013151","stopLetter":"->E","topMostParentId":"490G00013151"},{"icsId":"1007837","id":"490007837HA","lat":51.57609,"lon":-0.09615,"name":"Harringay Sainsbury's","parentId":"490G000572","stationId":"490G000572","stopLetter":"HA","topMostParentId":"490G000572","towards":"Crouch End Broadway"}]}]}