{"direction":"outbound","lineId":"w8","lineName":"W8","mode":"bus","stopPointSequences":[{"stopPoint":[{"icsId":"1002140","id":"490002140ZZ","lat":51.66557,"lon":-0.1041,"name":"Chase Farm Hospital / Main Entrance","parentId":"490G000360","stationId":"490G000360","stopLetter":"->S","topMostParentId":"490G000360","towards":"Enfield Town"},{"icsId":"1003148","id":"49003148B","lat":51.66401,"lon":-0.10476,"name":"Chase Farm Hospital / the Ridgeway","parentId":"490G00003148","stationId":"490G00003148","stopLetter":"B","topMostParentId":"490G00003148","towards":"Enfield Town"},{"icsId":"1007781","id":"490007781D","lat":51.66334,"lon":-0.10084,"name":"Hardy Way","parentId":"490G00007781","stationId":"490G00007781","stopLetter":"D","topMostParentId":"490G00007781","towards":"Enfield Town"},{"icsId":"1001118","id":"490007307B","lat":51.66408,"lon":-0.09452,"name":"Gordon Hill Station","stopLetter":"B","topMostParentId":"490007307B","towards":"Enfield Town"},{"icsId":"1004115","id":"490004115E","lat":51.66393,"lon":-0.09036,"name":"Blossom Lane","parentId":"490G00004115","stationId":"490G00004115","stopLetter":"C","topMostParentId":"490G00004115","towards":"Enfield Town"},{"icsId":"1005041","id":"490005041E","lat":51.66381,"lon":-0.08787,"name":"Chase Side","parentId":"490G00005041","stationId":"490G00005041","stopLetter":"D","topMostParentId":"490G00005041","towards":"Enfield Town"},{"icsId":"1003382","id":"490004509E","lat":51.66404,"lon":-0.08294,"name":"Browning Road","parentId":"490G00003382","stationId":"490G00003382","stopLetter":"E","topMostParentId":"490G00003382","towards":"Enfield Highway Or Enfield Town"},{"icsId":"1003547","id":"490003547E1","lat":51.66343,"lon":-0.07834,"name":"Baker Street","parentId":"490G00003547","stationId":"490G00003547","stopLetter":"F","topMostParentId":"490G00003547","towards":"Enfield Town"},{"icsId":"1005247","id":"490005247S","lat":51.66055,"lon":-0.07911,"name":"Bell Road","parentId":"490G00005247","stationId":"490G00005247","stopLetter":"H","topMostParentId":"490G00005247","towards":"Edmonton"},{"icsId":"1018703","id":"490018703S","lat":51.65947,"lon":-0.07962,"name":"Gordon Road","parentId":"490G00018703","stationId":"490G00018703","stopLetter":"HH","topMostParentId":"490G00018703","towards":"Edmonton"},{"icsId":"1015416","id":"490015416S","lat":51.65738,"lon":-0.07997,"name":"Parsonage Lane","parentId":"490G00015416","stationId":"490G00015416","stopLetter":"J","topMostParentId":"490G00015416","towards":"Edmonton"},{"icsId":"1006578","id":"490006583S","lat":51.6557,"lon":-0.08034,"name":"Enfield Civic Centre","parentId":"490G00006578","stationId":"490G00006578","stopLetter":"K","topMostParentId":"490G00006578","towards":"Edmonton Green Or Grange Park"},{"icsId":"1002304","id":"490001101H","lat":51.65289,"lon":-0.08053,"name":"Enfield Town / Silver Street","parentId":"490G00002304","stationId":"490G00002304","stopLetter":"H","topMostParentId":"490G00002304","towards":"Edmonton Or Grange Park"},{"icsId":"1006588","id":"490006588R","lat":51.65167,"lon":-0.07946,"name":"Enfield Town / Genotin Road","parentId":"490G000505","stationId":"490G000505","stopLetter":"R","topMostParentId":"490G000505","towards":"Bush Hill Park, Edmonton Green Or Winchmore Hill"},{"icsId":"1004904","id":"490009169S","lat":51.64904,"lon":-0.07989,"name":"Cecil Road / St Annes School","parentId":"490G00004904","stationId":"490G00004904","stopLetter":"T","topMostParentId":"490G00004904","towards":"Bush Hill Park, Edmonton Green Or Winchmore Hill"},{"icsId":"1010760","id":"490010760S","lat":51.64622,"lon":-0.08038,"name":"Park Crescent","parentId":"490G00010760","stationId":"490G00010760","stopLetter":"A","topMostParentId":"490G00010760","towards":"Edmonton Green Or Winchmore Hill"},{"icsId":"1004650","id":"490004650S","lat":51.64408,"lon":-0.08076,"name":"Bush Hill","parentId":"490G00004650","stationId":"490G00004650","stopLetter":"B","topMostParentId":"490G00004650","towards":"Edmonton Green Or Palmers Green"},{"icsId":"1011857","id":"490011857S","lat":51.64137,"lon":-0.0788,"name":"St Stephen's Church","parentId":"490G00011857","stationId":"490G00011857","stopLetter":"C","topMostParentId":"490G00011857","towards":"Edmonton Green Or Palmers Green"},{"icsId":"1005549","id":"490005549S","lat":51.63862,"lon":-0.07994,"name":"Conifer Gardens","parentId":"490G00005549","stationId":"490G00005549","stopLetter":"D","topMostParentId":"490G00005549","towards":"Edmonton Green Or Palmers Green"},{"icsId":"1005306","id":"490005306S","lat":51.6372,"lon":-0.08107,"name":"Church Street","parentId":"490G00005306","stationId":"490G00005306","stopLetter":"A","topMostParentId":"490G00005306","towards":"Edmonton Green Or Palmers Green"},{"icsId":"1011571","id":"490011571S","lat":51.63544,"lon":-0.08169,"name":"Bury Street West","parentId":"490G00011571","stationId":"490G00011571","stopLetter":"B","topMostParentId":"490G00011571","towards":"Edmonton Green"},{"icsId":"1009413","id":"490009413S","lat":51.63279,"lon":-0.08027,"name":"Lower Edmonton School","parentId":"490G00009413","stationId":"490G00009413","stopLetter":"EA","topMostParentId":"490G00009413","towards":"Edmonton Green"},{"icsId":"1007393","id":"490007393E","lat":51.63036,"lon":-0.07919,"name":"Edmonton Cemetery","parentId":"490G00007393","stationId":"490G00007393","stopLetter":"EB","topMostParentId":"490G00007393","towards":"Edmonton Green"},{"icsId":"1007889","id":"490007889E","lat":51.62805,"lon":-0.07349,"name":"Haselbury Road","parentId":"490G00007889","stationId":"490G00007889","stopLetter":"EC","topMostParentId":"490G00007889","towards":"Picketts Lock"},{"icsId":"1003396","id":"490003396E","lat":51.62693,"lon":-0.0688,"name":"Edmonton Fire Station","parentId":"490G00003396","stationId":"490G00003396","stopLetter":"ED","topMostParentId":"490G00003396","towards":"Picketts Lock"},{"icsId":"1003245","id":"490003245E","lat":51.62635,"lon":-0.06591,"name":"All Saints Church","parentId":"490G00003245","stationId":"490G00003245","stopLetter":"T","topMostParentId":"490G00003245","towards":"Picketts Lock"},{"icsId":"1001092","id":"490001092E","lat":51.62527,"lon":-0.06172,"name":"Edmonton Green Station","stopLetter":"U","topMostParentId":"490001092E","towards":"Picketts Lock"},{"icsId":"1009983","id":"490009983C","lat":51.62546,"lon":-0.05798,"name":"Edmonton Green Bus Station","parentId":"490G00009983","stationId":"490G00009983","stopLetter":"C","topMostParentId":"490G00009983","towards":"Ponders End Or Picketts Lock"},{"icsId":"1004181","id":"490009983P","lat":51.62666,"lon":-0.05725,"name":"Monmouth Road","parentId":"490G00004181","stationId":"490G00004181","stopLetter":"P","topMostParentId":"490G00004181","towards":"Bush Hill Park Or Ponders End"},{"icsId":"1004180","id":"490004180N1","lat":51.62789,"lon":-0.05648,"name":"Bounces Road","parentId":"490G00004180","stationId":"490G00004180","stopLetter":"LJ","topMostParentId":"490G00004180","towards":"Ponders End Or Bush Hill Park"},{"icsId":"1019080","id":"490004180E","lat":51.62878,"lon":-0.05513,"name":"St Edmunds Catholic Primary School","parentId":"490G00019080","stationId":"490G00019080","stopLetter":"LS","topMostParentId":"490G00019080","towards":"Picketts Lock Or Ponders End"},{"icsId":"1005134","id":"490005136E","lat":51.62829,"lon":-0.05149,"name":"Chester Road","parentId":"490G00005134","stationId":"490G00005134","stopLetter":"LU","topMostParentId":"490G00005134","towards":"Picketts Lock Or Ponders End"},{"icsId":"1006686","id":"490006686E","lat":51.62817,"lon":-0.04868,"name":"Exeter Road","parentId":"490G00006686","stationId":"490G00006686","stopLetter":"LV","topMostParentId":"490G00006686","towards":"Picketts Lock Or Ponders End"},{"icsId":"1009993","id":"490009991E","lat":51.62793,"lon":-0.0462,"name":"Montagu Road","parentId":"490G00009993","stationId":"490G00009993","stopLetter":"->E","topMostParentId":"490G00009993","towards":"Picketts Lock Or Ponders End"},{"icsId":"1000397","id":"490009993E","lat":51.62696,"lon":-0.04379,"name":"Pentland Close","parentId":"490G000047","stationId":"490G000047","stopLetter":"->E","topMostParentId":"490G000047","towards":"Picketts Lock Centre"},{"icsId":"1009812","id":"490009812N","lat":51.62796,"lon":-0.04104,"name":"Meridian Way","parentId":"490G00009812","stationId":"490G00009812","stopLetter":"->N","topMostParentId":"490G00009812","towards":"Picketts Lock Centre"},{"icsId":"1010990","id":"490010990E","lat":51.63232,"lon":-0.03763,"name":"Picketts Lock Centre","parentId":"490G00010990","stationId":"490G00010990","stopLetter":"->E","topMostParentId":"490G00010990","towards":"Edmonton Green"}]}]}