{"direction":"outbound","lineId":"w9","lineName":"W9","mode":"bus","stopPointSequences":[{"stopPoint":[{"icsId":"1002140","id":"490002140ZZ","lat":51.66557,"lon":-0.1041,"name":"Chase Farm Hospital / Main Entrance","parentId":"490G000360","stationId":"490G000360","stopLetter":"->S","topMostParentId":"490G000360","towards":"Enfield Town"},{"icsId":"1003148","id":"49003148B","lat":51.66401,"lon":-0.10476,"name":"Chase Farm Hospital / the Ridgeway","parentId":"490G00003148","stationId":"490G00003148","stopLetter":"B","topMostParentId":"490G00003148","towards":"Enfield Town"},{"icsId":"1007781","id":"490007781D","lat":51.66334,"lon":-0.10084,"name":"Hardy Way","parentId":"490G00007781","stationId":"490G00007781","stopLetter":"D","topMostParentId":"490G00007781","towards":"Enfield Town"},{"icsId":"1008315","id":"490008315E","lat":51.66133,"lon":-0.0941,"name":"Holtwhites Hill","parentId":"490G00008315","stationId":"490G00008315","stopLetter":"->E","topMostParentId":"490G00008315"},{"icsId":"1018723","id":"490018723E","lat":51.65922,"lon":-0.08643,"name":"Nunn's Road","parentId":"490G00018723","stationId":"490G00018723","stopLetter":"->E","topMostParentId":"490G00018723"},{"icsId":"1015417","id":"490015417E","lat":51.65884,"lon":-0.08537,"name":"Chase Side Avenue","parentId":"490G00015417","stationId":"490G00015417","stopLetter":"ZA","topMostParentId":"490G00015417","towards":"Grange Park"},{"icsId":"1006578","id":"490006583S","lat":51.6557,"lon":-0.08034,"name":"Enfield Civic Centre","parentId":"490G00006578","stationId":"490G00006578","stopLetter":"K","topMostParentId":"490G00006578","towards":"Edmonton Green Or Grange Park"},{"icsId":"1002304","id":"490001101H","lat":51.65289,"lon":-0.08053,"name":"Enfield Town / Silver Street","parentId":"490G00002304","stationId":"490G00002304","stopLetter":"H","topMostParentId":"490G00002304","towards":"Edmonton Or Grange Park"},{"icsId":"1006586","id":"490006586X","lat":51.65063,"lon":-0.08103,"name":"Enfield Town / Cecil Road","parentId":"490G00006586","stationId":"490G00006586","stopLetter":"X","topMostParentId":"490G00006586","towards":"Forty Hill and Grange Park"},{"icsId":"1018724","id":"490018724W","lat":51.64184,"lon":-0.09483,"name":"The Chine","parentId":"490G00018724","stationId":"490G00018724","stopLetter":"->W","topMostParentId":"490G00018724"},{"icsId":"1001120","id":"490001120W1","lat":51.64228,"lon":-0.09783,"name":"Grange Park Station","stopLetter":"B","topMostParentId":"490001120W1","towards":"Southgate"},{"icsId":"1018725","id":"490018725W","lat":51.64331,"lon":-0.10707,"name":"Cadogan Gardens / Grange Park","parentId":"490G00018725","stationId":"490G00018725","stopLetter":"->W","topMostParentId":"490G00018725"},{"icsId":"1008170","id":"490008170W","lat":51.64319,"lon":-0.10836,"name":"Eversley Park Road","parentId":"490G00008170","stationId":"490G00008170","stopLetter":"->W","topMostParentId":"490G00008170","towards":"Enfield Town Or Southgate"},{"icsId":"1008169","id":"490008169N","lat":51.64447,"lon":-0.10961,"name":"Highlands Avenue","parentId":"490G00008169","stationId":"490G00008169","stopLetter":"->N","topMostParentId":"490G00008169","towards":"Enfield Town Or Southgate"},{"icsId":"1016786","id":"490016786W","lat":51.64498,"lon":-0.1103,"name":"Highlands Avenue Sainsbury's","parentId":"490G00016786","stationId":"490G00016786","stopLetter":"->W","topMostParentId":"490G00016786","towards":"Southgate Or Enfield Town"},{"icsId":"1003590","id":"490003590W","lat":51.64423,"lon":-0.11247,"name":"Rutherford Court","parentId":"490G00003590","stationId":"490G00003590","stopLetter":"->W","topMostParentId":"490G00003590","towards":"Southgate Or Enfield Town"},{"icsId":"1008172","id":"490008172W","lat":51.64487,"lon":-0.11533,"name":"Blackwell Close","parentId":"490G00008172","stationId":"490G00008172","stopLetter":"->W","topMostParentId":"490G00008172","towards":"Southgate Or Enfield Town"},{"icsId":"1008171","id":"490008171E","lat":51.64552,"lon":-0.11718,"name":"Highlands Village / Elizabeth Lodge","parentId":"490G00008171","stationId":"490G00008171","stopLetter":"->E","topMostParentId":"490G00008171","towards":"Enfield Town Or Southgate"},{"icsId":"1016699","id":"490016699W","lat":51.64609,"lon":-0.11463,"name":"Tresilian Avenue","parentId":"490G00016699","stationId":"490G00016699","stopLetter":"->S","topMostParentId":"490G00016699","towards":"Southgate Or Enfield Town"},{"icsId":"1008169","id":"490008169S","lat":51.64517,"lon":-0.10941,"name":"Highlands Avenue","parentId":"490G00008169","stationId":"490G00008169","stopLetter":"->S","topMostParentId":"490G00008169","towards":"Enfield Town Or Southgate"},{"icsId":"1008170","id":"490008170E","lat":51.64376,"lon":-0.10874,"name":"Eversley Park Road","parentId":"490G00008170","stationId":"490G00008170","stopLetter":"->E","topMostParentId":"490G00008170","towards":"Enfield, Southgate Or Winchmore Hill"},{"icsId":"1014753","id":"490014753S","lat":51.63471,"lon":-0.10302,"name":"Winchmore Hill / the Green","parentId":"490G000837","stationId":"490G000837","stopLetter":"->S","topMostParentId":"490G000837"},{"icsId":"1018726","id":"490018726W","lat":51.63196,"lon":-0.12578,"name":"The Bourne","parentId":"490G00018726","stationId":"490G00018726","stopLetter":"->W","topMostParentId":"490G00018726"},{"icsId":"1000210","id":"490000210H","lat":51.63241,"lon":-0.12806,"name":"Southgate Station","stopLetter":"H","topMostParentId":"490000210H","zone":"4"}]}]}