{"direction":"outbound","lineId":"x140","lineName":"X140","mode":"bus","stopPointSequences":[{"stopPoint":[{"icsId":"1008016","id":"4900801619","lat":51.471365,"lon":-0.453456,"name":"Heathrow Central Bus Station","parentId":"910GHTRWCBS","stationId":"910GHTRWCBS","stopLetter":"19","topMostParentId":"HUBH13"},{"icsId":"1007811","id":"490007811B","lat":51.481302,"lon":-0.434484,"name":"Harlington Corner","parentId":"490G00007811","stationId":"490G00007811","stopLetter":"N","topMostParentId":"490G00007811","towards":"Hayes Town"},{"icsId":"1009564","id":"490009564N","lat":51.487534,"lon":-0.435855,"name":"Manor Lane","parentId":"490G00009564","stationId":"490G00009564","stopLetter":"R","topMostParentId":"490G00009564","towards":"Hayes Town"},{"icsId":"1001144","id":"490001144N","lat":51.50343,"lon":-0.420917,"name":"Hayes and Harlington Station","parentId":"490G01144N","stationId":"490G01144N","stopLetter":"L","topMostParentId":"910GHAYESAH","towards":"Hillingdon Hospital, Hayes End Or Yeading"},{"icsId":"1000828","id":"490000828Z","lat":51.506813,"lon":-0.419085,"name":"Hayes Town","parentId":"490G000162","stationId":"490G000162","stopLetter":"P","topMostParentId":"490G000162","towards":"Hayes End, Yeading Or Hillingdon Hospital"},{"icsId":"1013384","id":"490013979P","lat":51.519279,"lon":-0.405999,"name":"The Grapes","parentId":"490G00013384","stationId":"490G00013384","stopLetter":"P","topMostParentId":"490G00013384","towards":"Greenford Or Northolt"},{"icsId":"1014711","id":"490014711N","lat":51.528242,"lon":-0.399198,"name":"Willow Tree Lane","parentId":"490G00014711","stationId":"490G00014711","stopLetter":"E","topMostParentId":"490G00014711","towards":"Northolt"},{"icsId":"1015478","id":"490015478N","lat":51.535882,"lon":-0.392427,"name":"Tangmere Gardens","parentId":"490G00015478","stationId":"490G00015478","stopLetter":"N","topMostParentId":"490G00015478","towards":"Greenford Or Northolt"},{"icsId":"1014992","id":"490014992N1","lat":51.537294,"lon":-0.389162,"name":"Yeading / White Hart Roundabout","parentId":"490G00014992","stationId":"490G00014992","stopLetter":"V","topMostParentId":"490G00014992","towards":"Northolt Station"},{"icsId":"1000162","id":"490000162A","lat":51.547668,"lon":-0.368777,"name":"Northolt Station","parentId":"490G00162X1","stationId":"490G00162X1","stopLetter":"A","topMostParentId":"940GZZLUNHT","towards":"Eastcote Or Harrow","zone":"5"},{"icsId":"1003203","id":"490003203A","lat":51.558835,"lon":-0.36027,"name":"Station Parade","parentId":"490G00003203","stationId":"490G00003203","stopLetter":"NC","topMostParentId":"490G00003203","towards":"Harrow"},{"icsId":"1000211","id":"490000211F","lat":51.564556,"lon":-0.353976,"name":"South Harrow Station","parentId":"490G00211G","stationId":"490G00211G","stopLetter":"F","topMostParentId":"940GZZLUSHH","towards":"Harrow","zone":"5"},{"icsId":"1007845","id":"490007845E","lat":51.579993,"lon":-0.337874,"name":"Harrow Bus Station","parentId":"490G000574","stationId":"490G000574","stopLetter":"E","topMostParentId":"HUBHOH","towards":"Kenton"}]}]}